~VERSION INFORMATION 
VERS  .    2.0                                     :CWLS Log ASCII Standard - VERSION 2.0
WRAP  .    NO                                      :One Line per Depth step
PROD  .    Schlumberger Technology Corp.           :LAS Producer
PROG  .    Horizon LASWriter 13.0.221437.3100      :LAS Program name and version
SOURCE.    S1R1-Log[3]/Up                          :Run&Pass Information
CREA  .    07/04/2024                              :LAS Creation date {MM/DD/YYYY}
#--------------------------------------------------
~WELL INFORMATION 
#MNEM           .UNIT                      DATA            :DESCRIPTION
#----            ------          --------------            -----------------------------
STRT            .m                   1718.15760            :START DEPTH
STOP            .m                   2673.85800            :STOP DEPTH
STEP            .m                       0.1524            :STEP
NULL            .                       -999.25            :NULL VALUE
COMP            .                PT Pertamina EP           :COMPANY
WELL            .                BNG-A4(BNG-058)           :WELL NAME
FLD             .                       Benuang            :FIELD NAME
RIGN            .                       Tiger-7            :Rig Name
RIGTYP          .                      Land Rig            :Rig Type
SON             .                A.1059389.01.02           :Service Order Number
SRVC            .                  Schlumberger            :SERVICE COMPANY
DATE            .                    07/04/2024            :LOG DATE(Composite Date for Composite LAP) (MM/DD/YYYY)
CLAB            .                     Rig Name:            :County Label
CNTY            .                       TIGER-7            :COUNTY
SLAB            .                     Province:            :State/Province Label
STAT            .                 South Sumatra            :STATE or PROVINCE
PROV            .                 South Sumatra            :STATE or PROVINCE
CTRY            .                     Indonesia            :COUNTRY
CONT_REGION     .                          Asia            :Continent Region
SECT            .                                          :Section
TOWN            .                                          :Township
RANG            .                                          :Range
API             .                                          :API NUMBER
UWI             .                                          :UNIQUE WELL ID
LUL             .                         IDPRA            :Logging Unit Location
LUN             .                   OSLC-A 2155            :Logging Unit Number
LOC             .                         Adera            :FIELD LOCATION
FL1             .                X: 387.623,270 mE         :Field Location Line 1
FL2             .                Y: 9.630.308,141 mN       :Field Location Line 2
LATI            .deg             3° 20' 38.96" S           :LATITUDE
LONG            .deg             103° 59' 18.38" E         :LONGITUDE
PDAT            .                           MSL            :Local Permanent Datum
LMF             .                            DF            :Logging Measured From
APD             .m                        44.63            :Elevation of Depth Reference (LMF) Above Permanent Datum
EPD             .m                         0.00            :Elevation of Permanent Datum (PDAT) above Mean Sea Level
EKB             .m                        44.63            :Elevation of Kelly Bushing Above Permanent Datum
EDF             .m                        44.63            :Elevation of Drill Floor Above Permanent Datum
EGL             .m                        34.03            :Elevation of Ground Level Above Permanent Datum
ECF             .m                      -999.25            :Elevation of Casing Flange above Permanent Datum
#--------------------------------------------------
~CURVE INFORMATION
#MNEM           .UNIT                  API CODE            :DESCRIPTION
#----            ------          --------------            -----------------------------
DEPT            .m                                         :                                                        Depth Index
TENS            .lbf                                       :        (WLWorkflow)            (1in)                   Cable Tension
BS              .in                                        :(RT)    (Borehole)              (6in)                   Bit Size
GR_CAL          .gAPI                                      :        (EDTC-B)                (6in)                   Calibrated Gamma Ray
DT              .us/ft                                     :        (ASLT-B)                (6in)                   Delta-T (also called Slowness or Interval Transit Time)
#-------------------------------------------------------------
#            DEPT         TENS           BS       GR_CAL           DT 
#                  (WLWorkflo)   (Borehole)     (EDTC-B)     (ASLT-B) 
#                                      (RT)                           
#                        (1in)        (6in)        (6in)        (6in) 
~ASCII
# ...
       2541.87960   3253.99929      8.50000    140.54620     68.70119
       2542.03200   3202.99914      8.50000    153.32490     70.50780
       2542.18440   3211.00009      8.50000    165.41250     70.72265
       2542.33680   3243.99979      8.50000    174.90690     71.12304
       2542.48920   3200.00019      8.50000    172.44650     70.96680
       2542.64160   3260.99985      8.50000    162.87110     71.05467
       2542.79400   3248.50047      8.50000    160.11950     73.14453
       2542.94640   3252.00074      8.50000    165.79950     73.35939
       2543.09880   3275.00095      8.50000    182.37400     71.66016
       2543.25120   3295.50127      8.50000    188.87240     70.95704
       2543.40360   3209.99969      8.50000    182.65600     70.26368
       2543.55600   3214.99944      8.50000    175.33490     69.67774
       2543.70840   3166.00008      8.50000    171.54940     69.44338
       2543.86080   3213.99904      8.50000    172.49020     69.96093
       2544.01320   3251.00034      8.50000    178.77490     70.85939
       2544.16560   3241.00084      8.50000    179.47830     70.85939
       2544.31800   3259.99945      8.50000    187.87690     70.82031
       2544.47040   3258.00089      8.50000    180.22020     71.92384
       2544.62280   3207.99889      8.50000    184.28780     72.01171
       2544.77520   3235.00069      8.50000    180.54340     71.41601
       2544.92760   3212.49956      8.50000    182.87960     72.26561
       2545.08000   3226.99974      8.50000    174.86450     72.74415
       2545.23240   3253.99929      8.50000    169.76750     71.38672
       2545.38480   3224.49987      8.50000    150.71530     71.19140
       2545.53720   3231.99949      8.50000    124.52770     73.78906
       2545.68960   3229.00054      8.50000     99.98454     76.23048
       2545.84200   3236.99924      8.50000     95.78487     76.54296
       2545.99440   3247.00099      8.50000    103.16930     75.64453
       2546.14680   3228.00014      8.50000    112.00560     74.33593
       2546.29920   3231.99949      8.50000    116.48570     72.84181
       2546.45160   3282.50057      8.50000    116.04780     71.65040
       2546.60400   3235.00069      8.50000    116.41490     71.02538
       2546.75640   3228.49922      8.50000    107.63690     71.18165
       2546.90880   3268.00040      8.50000     97.77213     71.79686
       2547.06120   3220.99959      8.50000     90.78638     72.12891
       2547.21360   3258.99905      8.50000     91.26147     72.40234
       2547.36600   3258.00089      8.50000    100.71780     72.81251
       2547.51840   3251.00034      8.50000     98.99350     72.83202
       2547.67080   3254.50062      8.50000    100.10450     71.66016
       2547.82320   3232.99989      8.50000     99.03391     70.90821
       2547.97560   3247.99914      8.50000    109.76890     70.80077
       2548.12800   3247.50007      8.50000    121.61070     68.54492
       2548.28040   3212.00049      8.50000    124.40700     67.18749
       2548.43280   3236.99924      8.50000    119.13920     69.97071
       2548.58520   3204.99994      8.50000    115.96990     72.12891
       2548.73760   3229.00054      8.50000    132.69570     72.18749
       2548.89000   3289.50112      8.50000    152.13930     71.63087
       2549.04240   3245.00019      8.50000    163.48250     70.33202
       2549.19480   3265.99960      8.50000    158.43060     70.51758
       2549.34720   3291.00060      8.50000    147.98570     71.28906
       2549.49960   3247.50007      8.50000    140.42250     70.71290
       2549.65200   3281.99925      8.50000    135.93540     71.58204
       2549.80440   3290.49927      8.50000    131.74610     74.45313
       2549.95680   3271.99975      8.50000    125.21600     77.48046
       2550.10920   3308.00065      8.50000    116.29820     78.06641
       2550.26160   3275.00095      8.50000    117.45030     73.85743
       2550.41400   3239.00004      8.50000    128.76310     68.73048
       2550.56640   3253.99929      8.50000    137.14860     68.03712
       2550.71880   3264.50012      8.50000    128.14580     70.28319
       2550.87120   3275.99910      8.50000    115.63470     72.31444
       2551.02360   3292.00100      8.50000    112.47080     73.17382
       2551.17600   3240.49952      8.50000    117.27230     73.85743
       2551.32840   3301.00010      8.50000    119.04340     74.09179
       2551.48080   3269.99895      8.50000    110.98410     74.31640
       2551.63320   3237.99964      8.50000    114.48180     75.18553
       2551.78560   3290.00020      8.50000    129.01550     72.73436
       2551.93800   3270.99935      8.50000    145.50600     67.52929
       2552.09040   3299.99970      8.50000    151.34210     65.24415
       2552.24280   3304.50038      8.50000    142.43580     66.94335
       2552.39520   3302.00050      8.50000    139.51720     70.46875
       2552.54760   3284.00005      8.50000    139.52080     72.61720
       2552.70000   3296.00035      8.50000    142.69590     70.89843
       2552.85240   3293.99955      8.50000    137.88580     69.58983
       2553.00480   3301.49918      8.50000    130.41100     70.92772
       2553.15720   3284.00005      8.50000    110.75990     74.62891
       2553.30960   3261.50117      8.50000    106.37340     77.39259
       2553.46200   3236.99924      8.50000    102.87270     75.91797
       2553.61440   3245.00019      8.50000    109.97680     74.74610
       2553.76680   3271.99975      8.50000    103.63160     77.03125
       2553.91920   3315.99935      8.50000    103.71470     77.73436
       2554.07160   3258.00089      8.50000    115.96630     72.99805
       2554.22400   3348.00091      8.50000    131.87780     69.79493
       2554.37640   3313.00040      8.50000    141.69800     70.46875
       2554.52880   3299.99970      8.50000    144.84700     72.34376
       2554.68120   3275.00095      8.50000    155.56720     73.24219
       2554.83360   3276.99950      8.50000    154.33930     72.35352
       2554.98600   3259.50037      8.50000    148.73160     72.15820
       2555.13840   3312.49908      8.50000    135.37980     68.67187
       2555.29080   3239.00004      8.50000    140.00020     65.01954
       2555.44320   3342.00076      8.50000    145.33250     64.34572
       2555.59560   3292.50007      8.50000    143.35460     63.73048
       2555.74800   3302.00050      8.50000    146.99820     64.04296
       2555.90040   3359.99896      8.50000    148.40170     64.50196
       2556.05280   3284.49912      8.50000    158.92860     65.46875
       2556.20520   3284.00005      8.50000    151.36140     67.15820
       2556.35760   3304.99945      8.50000    147.90770     72.04100
       2556.51000   3220.99959      8.50000    147.08140     74.51171
       2556.66240   3291.00060      8.50000    154.35580     71.21094
       2556.81480   3282.99965      8.50000    153.98100     69.21874
       2556.96720   3203.99954      8.50000    140.28640     68.51563
       2557.11960   3303.00090      8.50000    132.96880     69.82422
       2557.27200   3301.00010      8.50000    138.02640     73.33006
       2557.42440   3285.00045      8.50000    153.66030     72.07033
       2557.57680   3323.50123      8.50000    148.51840     70.23436
       2557.72920   3305.50078      8.50000    139.94590     70.74219
       2557.88160   3309.00105      8.50000    143.28600     70.26368
       2558.03400   3308.00065      8.50000    158.58400     70.53712
       2558.18640   3253.99929      8.50000    165.43750     70.77148
       2558.33880   3271.50067      8.50000    144.66320     73.21290
       2558.49120   3277.99990      8.50000    111.52110     76.09375
       2558.64360   3270.99935      8.50000     81.80278     77.20703
       2558.79600   3321.50043      8.50000     70.33310     77.00196
       2558.94840   3258.99905      8.50000     73.17722     74.97071
       2559.10080   3264.00104      8.50000     82.11346     72.96875
       2559.25320   3291.00060      8.50000     91.93748     72.36327
