~VERSION INFORMATION 
VERS  .    2.0                                     :CWLS Log ASCII Standard - VERSION 2.0
WRAP  .    NO                                      :One Line per Depth step
PROD  .    Schlumberger Technology Corp.           :LAS Producer
PROG  .    Horizon LASWriter 13.0.221437.3100      :LAS Program name and version
SOURCE.    S1R1-Log[3]/Up                          :Run&Pass Information
CREA  .    05/17/2024                              :LAS Creation date {MM/DD/YYYY}
#--------------------------------------------------
~WELL INFORMATION 
#MNEM           .UNIT                      DATA            :DESCRIPTION
#----            ------          --------------            -----------------------------
STRT            .m                   1744.98000            :START DEPTH
STOP            .m                   2740.91400            :STOP DEPTH
STEP            .m                       0.1524            :STEP
NULL            .                       -999.25            :NULL VALUE
COMP            .                PT Pertamina EP           :COMPANY
WELL            .                BNG-056 (BNG-B3)          :WELL NAME
FLD             .                    Prabumulih            :FIELD NAME
RIGN            .                                          :Rig Name
RIGTYP          .                          Land            :Rig Type
SON             .                A.1009322.16.02           :Service Order Number
SRVC            .                  Schlumberger            :SERVICE COMPANY
DATE            .                    05/17/2024            :LOG DATE(Composite Date for Composite LAP) (MM/DD/YYYY)
CLAB            .                     Rig Name:            :County Label
CNTY            .                PDSI#39.3/D1500-E         :COUNTY
SLAB            .                     Province:            :State/Province Label
STAT            .                 South Sumatra            :STATE or PROVINCE
PROV            .                 South Sumatra            :STATE or PROVINCE
CTRY            .                     Indonesia            :COUNTRY
CONT_REGION     .                          Asia            :Continent Region
SECT            .                                          :Section
TOWN            .                                          :Township
RANG            .                                          :Range
API             .                                          :API NUMBER
UWI             .                                          :UNIQUE WELL ID
LUL             .                ING/IDPRA-WLES            :Logging Unit Location
LUN             .                  OSLC-AA 2175            :Logging Unit Number
LOC             .                         Adera            :FIELD LOCATION
FL1             .                 X: 389146.04             :Field Location Line 1
FL2             .                Y: 9628977.87             :Field Location Line 2
LATI            .deg             3° 21' 22.33" S           :LATITUDE
LONG            .deg             104° 0' 7.68" E           :LONGITUDE
PDAT            .                           MSL            :Local Permanent Datum
LMF             .                            DF            :Logging Measured From
APD             .m                        34.37            :Elevation of Depth Reference (LMF) Above Permanent Datum
EPD             .m                         0.00            :Elevation of Permanent Datum (PDAT) above Mean Sea Level
EKB             .m                        34.37            :Elevation of Kelly Bushing Above Permanent Datum
EDF             .m                        34.37            :Elevation of Drill Floor Above Permanent Datum
EGL             .m                        25.23            :Elevation of Ground Level Above Permanent Datum
ECF             .m                      -999.25            :Elevation of Casing Flange above Permanent Datum
#--------------------------------------------------
~CURVE INFORMATION
#MNEM           .UNIT                  API CODE            :DESCRIPTION
#----            ------          --------------            -----------------------------
DEPT            .m                                         :                                                        Depth Index
GR_CAL          .gAPI                                      :        (EDTC-B)                (6in)                   Calibrated Gamma Ray
TENS            .lbf                                       :        (WLWorkflow)            (6in)                   Cable Tension
DT              .us/ft                                     :        (DSLT-H)                (6in)                   Delta-T (also called Slowness or Interval Transit Time)
#-------------------------------------------------------------
#            DEPT       GR_CAL         TENS           DT 
#                     (EDTC-B)  (WLWorkflo)     (DSLT-H) 
#                                                        
#                        (6in)        (6in)        (6in) 
~ASCII
# ...
       2131.77120    152.91180   3575.45360     65.93805
       2131.92360    160.05740   3566.18248     65.19068
       2132.07600    164.37810   3590.81705     64.64613
       2132.22840    162.55150   3578.00069     64.66868
       2132.38080    155.84640   3556.09980     65.20791
       2132.53320    151.77830   3552.72767     66.41217
       2132.68560    155.81180   3532.54432     67.22394
       2132.83800    155.33840   3533.72681     70.34970
       2132.99040    154.28450   3532.81859     70.98070
       2133.14280    146.40190   3519.18168     71.59319
       2133.29520    144.36530   3525.27175     73.28477
       2133.44760    139.38570   3537.90826     73.02011
       2133.60000    133.75020   3533.41658     71.76592
       2133.75240    133.17410   3548.72832     72.80352
       2133.90480    130.12900   3545.00098     72.01589
       2134.05720    132.63770   3543.63639     71.61252
       2134.20960    131.25800   3532.63649     73.11524
       2134.36200    139.20980   3524.63554     71.26087
       2134.51440    146.10690   3568.63740     72.47967
       2134.66680    147.68010   3563.63540     70.92303
       2134.81920    147.48320   3557.81734     69.43128
       2134.97160    140.21760   3566.45450     69.59477
       2135.12400    142.78710   3529.91630     68.97136
       2135.27640    145.93130   3557.54532     69.94986
       2135.42880    161.95880   3557.99944     70.46342
       2135.58120    167.01390   3553.09186     70.77743
       2135.73360    176.21590   3575.36368     71.58518
       2135.88600    176.29280   3578.54473     71.50623
       2136.03840    178.78650   3571.00014     70.50594
       2136.19080    171.20750   3574.09126     70.89630
       2136.34320    155.70510   3568.90941     70.20900
       2136.49560    142.73340   3549.45445     69.69746
       2136.64800    136.77720   3554.45420     69.90984
       2136.80040    134.95070   3535.50056     70.11452
       2136.95280    135.57940   3556.09081     70.43379
       2137.10520    131.04840   3563.45555     70.75508
       2137.25760    140.93580   3546.18123     70.78840
       2137.41000    144.25760   3555.27250     71.20902
       2137.56240    156.76330   3515.89947     71.15437
       2137.71480    166.06560   3542.27180     70.79596
       2137.86720    177.61140   3571.36433     70.67404
       2138.01960    183.28430   3564.91006     70.21510
       2138.17200    183.83370   3570.27176     70.42657
       2138.32440    183.43030   3558.72782     69.98876
       2138.47680    186.15590   3550.89997     69.94020
       2138.62920    173.56160   3555.54452     71.27849
       2138.78160    145.98990   3530.90996     74.02199
       2138.93400    104.39250   3532.18238     76.38175
       2139.08640     72.12385   3554.40025     78.52123
       2139.23880     59.37746   3549.18243     76.73727
       2139.39120     54.28915   3555.54452     74.20198
       2139.54360     51.96122   3589.63680     73.21814
       2139.69600     53.30259   3576.63610     72.34050
       2139.84840     57.88363   3564.09176     72.79602
       2140.00080     59.80339   3558.79976     73.70329
       2140.15320     60.96594   3522.36272     74.74748
       2140.30560     57.00557   3534.18093     81.47459
       2140.45800     61.08169   3543.09011     91.64102
       2140.61040     64.75146   3554.00009     78.76190
       2140.76280     80.92030   3536.81794     77.36543
       2140.91520    104.86250   3520.30122     76.23545
       2141.06760    126.66520   3540.18108     75.57214
       2141.22000    137.50780   3555.09041     75.18023
       2141.37240    128.53480   3531.45400     73.43617
       2141.52480    117.80930   3520.18208     72.81279
       2141.67720    113.73740   3505.09065     72.68590
       2141.82960    122.78380   3502.10069     73.11134
       2141.98200    132.91350   3527.54457     73.21387
       2142.13440    145.27240   3567.45490     73.00015
       2142.28680    156.33500   3571.72627     73.02569
       2142.43920    169.34730   3579.81939     73.56110
       2142.59160    169.43910   3547.91001     73.93180
       2142.74400    173.32350   3544.63679     75.04399
       2142.89640    173.95230   3543.54647     75.42779
       2143.04880    180.59360   3525.63594     75.79523
       2143.20120    177.55460   3520.45409     76.68939
       2143.35360    179.21420   3522.09070     76.74779
       2143.50600    173.47080   3489.81938     75.77261
       2143.65840    175.23020   3534.72721     75.10312
       2143.81080    170.84770   3561.00064     74.33377
       2143.96320    178.78600   3568.99934     74.15168
       2144.11560    185.56320   3562.99919     75.26835
       2144.26800    189.76750   3522.81908     76.15782
       2144.42040    187.00580   3522.66621     77.20297
       2144.57280    178.27820   3500.27300     78.15825
       2144.72520    177.93920   3454.09049     78.84127
       2144.87760    180.62880   3506.45524     79.21350
       2145.03000    181.30180   3629.27286     79.90463
       2145.18240    182.95580   3926.90866     80.20254
       2145.33480    185.26300   3939.81719     81.09890
       2145.48720    187.16220   3855.90950     81.46176
       2145.63960    184.53790   3782.63752     81.13316
       2145.79200    182.41530   3703.16756     80.68150
       2145.94440    183.21210   3597.19937     79.69161
       2146.09680    181.32050   3583.36463     78.32275
       2146.24920    178.88620   3611.00039     75.74246
       2146.40160    171.94130   3642.54558     73.45278
       2146.55400    155.95150   3643.36389     70.64161
       2146.70640    140.59190   3568.63740     69.33395
       2146.85880    134.59640   3533.20076     69.56496
       2147.01120    144.41620   3508.09185     69.10273
       2147.16360    145.64960   3482.36472     69.28461
       2147.31600    142.44250   3526.90836     68.18992
       2147.46840    136.69720   3550.81904     66.72148
       2147.62080    136.66340   3486.69903     66.21576
       2147.77320    135.97760   3471.27264     65.91074
       2147.92560    126.52050   3459.81863     66.41546
       2148.07800    116.05310   3490.90970     66.48039
       2148.23040    104.42590   3484.54536     69.85751
       2148.38280     87.38046   3459.29932     73.31635
       2148.53520     76.27066   3468.09160     76.33460
       2148.68760     65.54587   3460.72685     78.57796
       2148.84000     61.69549   3446.19970     78.10738
       2148.99240     55.17305   3482.81883     77.41777
       2149.14480     50.23736   3501.18122     77.84385
       2149.29720     50.19968   3498.54646     78.32123
       2149.44960     47.12938   3523.72731     78.03895
       2149.60200     45.49349   3502.99993     77.08157
       2149.75440     45.31427   3511.18297     75.43248
       2149.90680     46.18902   3528.09085     74.17966
       2150.05920     50.80165   3510.45459     74.77506
       2150.21160     50.43550   3537.54632     75.23494
       2150.36400     46.61882   3550.69989     75.28273
       2150.51640     41.85973   3541.36357     75.48448
       2150.66880     42.82819   3537.63624     74.84029
       2150.82120     46.42653   3534.09101     74.53954
       2150.97360     49.62398   3506.81718     74.46861
       2151.12600     51.49226   3504.27235     74.29598
       2151.27840     57.92523   3467.39918     74.18591
       2151.43080     64.57243   3474.91005     74.12166
       2151.58320     68.89211   3470.45434     74.68770
       2151.73560     63.48199   3483.27294     74.85873
       2151.88800     58.25000   3508.54597     75.19492
       2152.04040     50.58036   3505.00073     75.70174
       2152.19280     52.21228   3480.72811     75.23961
       2152.34520     52.92340   3501.36332     74.59794
       2152.49760     54.08532   3492.45414     74.38464
       2152.65000     54.78170   3466.81918     74.25977
       2152.80240     61.01125   3496.72776     74.82200
       2152.95480     69.29731   3469.09200     75.24146
       2153.10720     75.29379   3470.09015     75.02637
