~VERSION INFORMATION 
VERS  .    2.0                                     :CWLS Log ASCII Standard - VERSION 2.0
WRAP  .    NO                                      :One Line per Depth step
PROD  .    Schlumberger Technology Corp.           :LAS Producer
PROG  .    Horizon LASWriter 13.0.221437.3100      :LAS Program name and version
SOURCE.    S1R1-Log[3]/Up                          :Run&Pass Information
CREA  .    05/17/2024                              :LAS Creation date {MM/DD/YYYY}
#--------------------------------------------------
~WELL INFORMATION 
#MNEM           .UNIT                      DATA            :DESCRIPTION
#----            ------          --------------            -----------------------------
STRT            .m                   1744.98000            :START DEPTH
STOP            .m                   2740.91400            :STOP DEPTH
STEP            .m                       0.1524            :STEP
NULL            .                       -999.25            :NULL VALUE
COMP            .                PT Pertamina EP           :COMPANY
WELL            .                BNG-056 (BNG-B3)          :WELL NAME
FLD             .                    Prabumulih            :FIELD NAME
RIGN            .                                          :Rig Name
RIGTYP          .                          Land            :Rig Type
SON             .                A.1009322.16.02           :Service Order Number
SRVC            .                  Schlumberger            :SERVICE COMPANY
DATE            .                    05/17/2024            :LOG DATE(Composite Date for Composite LAP) (MM/DD/YYYY)
CLAB            .                     Rig Name:            :County Label
CNTY            .                PDSI#39.3/D1500-E         :COUNTY
SLAB            .                     Province:            :State/Province Label
STAT            .                 South Sumatra            :STATE or PROVINCE
PROV            .                 South Sumatra            :STATE or PROVINCE
CTRY            .                     Indonesia            :COUNTRY
CONT_REGION     .                          Asia            :Continent Region
SECT            .                                          :Section
TOWN            .                                          :Township
RANG            .                                          :Range
API             .                                          :API NUMBER
UWI             .                                          :UNIQUE WELL ID
LUL             .                ING/IDPRA-WLES            :Logging Unit Location
LUN             .                  OSLC-AA 2175            :Logging Unit Number
LOC             .                         Adera            :FIELD LOCATION
FL1             .                 X: 389146.04             :Field Location Line 1
FL2             .                Y: 9628977.87             :Field Location Line 2
LATI            .deg             3° 21' 22.33" S           :LATITUDE
LONG            .deg             104° 0' 7.68" E           :LONGITUDE
PDAT            .                           MSL            :Local Permanent Datum
LMF             .                            DF            :Logging Measured From
APD             .m                        34.37            :Elevation of Depth Reference (LMF) Above Permanent Datum
EPD             .m                         0.00            :Elevation of Permanent Datum (PDAT) above Mean Sea Level
EKB             .m                        34.37            :Elevation of Kelly Bushing Above Permanent Datum
EDF             .m                        34.37            :Elevation of Drill Floor Above Permanent Datum
EGL             .m                        25.23            :Elevation of Ground Level Above Permanent Datum
ECF             .m                      -999.25            :Elevation of Casing Flange above Permanent Datum
#--------------------------------------------------
~CURVE INFORMATION
#MNEM           .UNIT                  API CODE            :DESCRIPTION
#----            ------          --------------            -----------------------------
DEPT            .m                                         :                                                        Depth Index
GR_CAL          .gAPI                                      :        (EDTC-B)                (6in)                   Calibrated Gamma Ray
TENS            .lbf                                       :        (WLWorkflow)            (6in)                   Cable Tension
DT              .us/ft                                     :        (DSLT-H)                (6in)                   Delta-T (also called Slowness or Interval Transit Time)
#-------------------------------------------------------------
#            DEPT       GR_CAL         TENS           DT 
#                     (EDTC-B)  (WLWorkflo)     (DSLT-H) 
#                                                        
#                        (6in)        (6in)        (6in) 
~ASCII
# ...
       2583.02760    183.44850   4831.66574     72.13510
       2583.18000    157.34700   4758.53764     70.77035
       2583.33240    129.47530   4668.38476     73.04947
       2583.48480    111.22620   4589.08341     74.53683
       2583.63720    101.72350   4518.46192     74.32923
       2583.78960     95.99451   4450.41675     77.01933
       2583.94200     83.88286   4336.66792     75.56083
       2584.09440     81.87305   4284.41783     74.49589
       2584.24680     82.52865   4260.33405     73.75435
       2584.39920     96.64604   4253.00078     72.86098
       2584.55160    106.57940   4271.91620     73.42574
       2584.70400    111.93680   4252.41628     74.04403
       2584.85640    105.42360   4220.74969     74.29338
       2585.00880    100.63570   4252.63659     74.23739
       2585.16120    100.66590   4247.49971     75.08678
       2585.31360    114.14180   4248.81933     74.48367
       2585.46600    121.41620   4248.25057     74.26900
       2585.61840    119.85300   4235.58258     74.23779
       2585.77080    104.05920   4259.99908     73.35509
       2585.92320     94.52990   4257.91735     73.40035
       2586.07560     94.27100   4281.08391     72.62171
       2586.22800     98.83136   4321.53828     72.75549
       2586.38040    100.52540   4281.66617     74.03117
       2586.53280    100.37210   4280.58259     73.37682
       2586.68520    106.37980   4269.69284     73.40288
       2586.83760    113.09030   4254.91615     73.54912
       2586.99000    117.01240   4293.08421     72.71211
       2587.14240    109.15820   4267.91685     73.14142
       2587.29480     97.25443   4238.41742     73.13030
       2587.44720     88.74772   4253.90901     73.12557
       2587.59960     94.01522   4224.49950     73.01847
       2587.75200    109.19920   4228.24932     71.76105
       2587.90440    120.82050   4254.33390     73.08223
       2588.05680    123.17110   4251.36417     72.59132
       2588.20920    118.31700   4251.91720     73.50158
       2588.36160    125.02300   4239.72806     71.83386
       2588.51400    125.93130   4242.08406     71.77257
       2588.66640    123.60610   4273.66747     72.25406
       2588.81880     98.95979   4281.49981     71.18863
       2588.97120     76.59835   4268.58454     72.01153
       2589.12360     67.54728   4289.41758     72.06764
       2589.27600     74.08456   4264.07712     72.04786
       2589.42840     84.91367   4278.08271     72.41582
       2589.58080     89.07063   4292.99879     71.95350
       2589.73320     94.23555   4253.23009     72.21751
       2589.88560     99.21351   4270.83263     73.27401
       2590.03800     99.56081   4235.83437     73.60923
       2590.19040    102.06710   4227.90985     72.28920
       2590.34280    109.52380   4250.41548     72.39402
       2590.49520    125.47800   4265.58334     72.57879
       2590.64760    140.46200   4266.16784     71.10798
       2590.80000    149.60310   4274.41608     73.53635
       2590.95240    150.31510   4259.33365     71.38059
       2591.10480    144.36610   4270.90906     73.60149
       2591.25720    129.01110   4255.58383     76.21189
       2591.40960    116.91000   4229.00018     75.36747
       2591.56200    104.92510   4237.83292     76.31278
       2591.71440    100.86040   4203.66646     76.83472
       2591.86680     99.92015   4204.08460     75.58123
       2592.01920    106.32780   4258.00053     75.08699
       2592.17160    118.42750   4249.08461     75.17566
       2592.32400    131.05090   4273.49886     73.58857
       2592.47640    128.08030   4274.66562     74.40762
       2592.62880    117.47040   4256.83377     73.89824
       2592.78120    104.77470   4309.90892     74.15223
       2592.93360    106.57050   4327.58340     73.62743
       2593.08600    111.24580   4347.91736     74.70404
       2593.23840    118.34820   4366.50007     74.66676
       2593.39080    112.80140   4340.99999     74.54292
       2593.54320    108.88420   4333.08447     74.87324
       2593.69560    107.84900   4295.83363     73.45845
       2593.84800    113.17790   4327.00114     74.15693
       2594.00040    122.16060   4319.08337     72.65646
       2594.15280    140.04210   4320.58284     73.74151
       2594.30520    149.74310   4294.58369     72.19593
       2594.45760    156.98800   4320.25013     71.47072
       2594.61000    140.17750   4302.41603     73.58207
       2594.76240    123.47600   4299.50026     71.15455
       2594.91480    106.21050   4305.23064     73.80583
       2595.06720    101.19840   4288.74990     73.33378
       2595.21960    103.12060   4262.49896     72.39668
       2595.37200    108.02470   4268.91725     72.84891
       2595.52440    121.87600   4257.08331     71.33786
       2595.67680    135.59120   4262.49896     72.76375
       2595.82920    144.69540   4273.16614     71.11408
       2595.98160    137.68520   4270.16719     70.68038
       2596.13400    138.26980   4283.66697     70.26204
       2596.28640    132.19770   4267.41778     68.92634
       2596.43880    130.40290   4290.58434     70.10476
       2596.59120    108.76190   4273.83382     71.70118
       2596.74360     93.76272   4258.00053     73.53519
       2596.89600     73.96311   4259.50001     73.85520
       2597.04840     73.84280   4242.38530     73.11741
       2597.20080     73.46818   4255.58383     71.92728
       2597.35320     76.44542   4290.24937     70.93205
       2597.50560     77.15005   4286.33320     71.05248
       2597.65800     73.89165   4275.92230     71.12676
       2597.81040     76.34202   4293.25057     71.45615
       2597.96280     73.73869   4284.83373     71.59658
       2598.11520     78.04183   4296.66767     71.31089
       2598.26760     73.00213   4299.83298     70.42380
       2598.42000     77.89445   4285.58234     69.59361
       2598.57240     78.03120   4292.41653     68.95122
       2598.72480     85.44438   4264.30867     68.64916
       2598.87720     83.97237   4306.91671     69.51077
       2599.02960     81.07605   4314.49951     70.25091
       2599.18200     75.92786   4313.58454     70.62695
       2599.33440     82.02027   4306.91671     71.44716
       2599.48680     95.07350   4295.99999     71.45094
       2599.63920    103.36510   4256.50106     72.26878
       2599.79160    101.75890   4272.91660     72.46824
       2599.94400     94.66000   4277.08231     73.14761
       2600.09640     90.83031   4246.83427     72.72001
       2600.24880     85.02395   4256.91695     72.61769
       2600.40120     86.81672   4263.00028     72.48909
       2600.55360     91.01806   4233.16589     72.27091
       2600.70600     95.94131   4271.50031     71.85983
       2600.85840     94.36984   4236.74934     72.23214
       2601.01080     92.25868   4252.49946     72.96101
       2601.16320     91.30176   4250.69199     73.14063
       2601.31560     94.14342   4244.83347     73.14798
       2601.46800     95.36526   4272.50071     73.20702
       2601.62040     90.20288   4284.24922     73.41760
       2601.77280     79.87698   4277.83318     73.37027
       2601.92520     79.67400   4272.33435     73.42135
       2602.07760     96.53597   4264.08386     73.73380
       2602.23000    127.82670   4283.54557     73.89315
       2602.38240    145.55950   4314.33316     73.26283
       2602.53480    159.71940   4269.91765     71.84642
       2602.68720    155.22760   4293.50011     70.67099
       2602.83960    160.03040   4282.25067     68.92580
       2602.99200    159.15340   4269.00043     68.06352
       2603.14440    157.05160   4290.58209     68.09829
       2603.29680    160.85580   4315.69325     68.12204
       2603.44920    155.93230   4330.58235     67.18143
       2603.60160    157.69180   4332.58315     66.37755
       2603.75400    149.16970   4323.83358     66.63083
       2603.90640    146.51730   4306.41763     65.40801
       2604.05880    140.87130   4275.25012     68.44278
       2604.21120    125.91250   4309.53798     67.18469
       2604.36360    121.69160   4320.09051     69.32582
