~VERSION INFORMATION 
VERS  .    2.0                                     :CWLS Log ASCII Standard - VERSION 2.0
WRAP  .    NO                                      :One Line per Depth step
PROD  .    Schlumberger Technology Corp.           :LAS Producer
PROG  .    Horizon LASWriter 13.0.221437.3100      :LAS Program name and version
SOURCE.    S1R1-Log[4]/Up                          :Run&Pass Information
CREA  .    07/28/2024                              :LAS Creation date {MM/DD/YYYY}
#--------------------------------------------------
~WELL INFORMATION 
#MNEM           .UNIT                      DATA            :DESCRIPTION
#----            ------          --------------            -----------------------------
STRT            .m                   1495.04400            :START DEPTH
STOP            .m                   2360.37120            :STOP DEPTH
STEP            .m                       0.1524            :STEP
NULL            .                       -999.25            :NULL VALUE
COMP            .                PT Pertamina EP           :COMPANY
WELL            .                BNG-059 (BNG-H1)          :WELL NAME
FLD             .                         Adera            :FIELD NAME
RIGN            .                                          :Rig Name
RIGTYP          .                          Land            :Rig Type
SON             .                A.1009322.17.2            :Service Order Number
SRVC            .                  Schlumberger            :SERVICE COMPANY
DATE            .                    07/28/2024            :LOG DATE(Composite Date for Composite LAP) (MM/DD/YYYY)
CLAB            .                     Rig Name:            :County Label
CNTY            .                South Sumatera            :COUNTY
SLAB            .                     Province:            :State/Province Label
STAT            .                 South Sumatra            :STATE or PROVINCE
PROV            .                 South Sumatra            :STATE or PROVINCE
CTRY            .                     Indonesia            :COUNTRY
CONT_REGION     .                          Asia            :Continent Region
SECT            .                                          :Section
TOWN            .                                          :Township
RANG            .                                          :Range
API             .                                          :API NUMBER
UWI             .                                          :UNIQUE WELL ID
LUL             .                      ING/IDPR            :Logging Unit Location
LUN             .                   OSLC-E 2349            :Logging Unit Number
LOC             .                         Adera            :FIELD LOCATION
FL1             .                X: 397,029.172            :Field Location Line 1
FL2             .                Y: 9,625,078.797          :Field Location Line 2
LATI            .deg             3° 23' 29.559" S          :LATITUDE
LONG            .deg             104° 4' 22.998" E         :LONGITUDE
PDAT            .                           MSL            :Local Permanent Datum
LMF             .                            DF            :Logging Measured From
APD             .m                        25.78            :Elevation of Depth Reference (LMF) Above Permanent Datum
EPD             .m                         0.00            :Elevation of Permanent Datum (PDAT) above Mean Sea Level
EKB             .m                        25.78            :Elevation of Kelly Bushing Above Permanent Datum
EDF             .m                        25.78            :Elevation of Drill Floor Above Permanent Datum
EGL             .m                        16.64            :Elevation of Ground Level Above Permanent Datum
ECF             .m                      -999.25            :Elevation of Casing Flange above Permanent Datum
#--------------------------------------------------
~CURVE INFORMATION
#MNEM           .UNIT                  API CODE            :DESCRIPTION
#----            ------          --------------            -----------------------------
DEPT            .m                                         :                                                        Depth Index
HTEN            .lbf                                       :        (LEH-QT)                (6in)                   Head Tension
GR_CAL          .gAPI                                      :        (SGT-N)                 (6in)                   Calibrated Gamma Ray
DT_BHC          .us/ft                                     :        (MAST-B)                (6in)                   1.5 Feet Span Borehole Compensated Slowness from Near Spacing
BS              .in                                        :(RT)    (Borehole)              (6in)                   Bit Size
#-------------------------------------------------------------
#            DEPT         HTEN       GR_CAL       DT_BHC           BS 
#                     (LEH-QT)      (SGT-N)     (MAST-B)   (Borehole) 
#                                                                (RT) 
#                        (6in)        (6in)        (6in)        (6in) 
~ASCII
# ...
       2336.29200    563.96920    162.97500     91.25063      8.50000
       2336.44440    572.82330    160.30560     94.00062      8.50000
       2336.59680    568.40109    162.03710     95.75063      8.50000
       2336.74920    561.88365    162.39780     93.24999      8.50000
       2336.90160    557.70895    164.27360     94.99997      8.50000
       2337.05400    562.24155    162.18140     98.24999      8.50000
       2337.20640    566.50685    164.99500     95.49978      8.50000
       2337.35880    561.11323    162.32570     92.50000      8.50000
       2337.51120    554.52228    163.62430     92.25001      8.50000
       2337.66360    562.93666    160.95490     94.24998      8.50000
       2337.81600    564.34284    159.07050     95.75063      8.50000
       2337.96840    565.22161    162.46130     94.91551      8.50000
       2338.12080    558.42204    161.59560     94.00002      8.50000
       2338.27320    563.80689    162.03710     94.62501      8.50000
       2338.42560    558.71452    161.82060     95.00000      8.50000
       2338.57800    560.73982    159.51200     95.00217      8.50000
       2338.73040    556.60941    158.79060     95.00000      8.50000
       2338.88280    555.55483    155.25550     94.24998      8.50000
       2339.03520    557.01586    160.16130     93.24999      8.50000
       2339.18760    558.93820    159.29560     93.24999      8.50000
       2339.34000    557.10376    158.46190     95.99999      8.50000
       2339.49240    558.92719    149.51600     91.37499      8.50000
       2339.64480    560.86055    150.06140     92.50000      8.50000
       2339.79720    567.87998    146.27780     92.50000      8.50000
       2339.94960    572.93301    148.00930     93.24999      8.50000
       2340.10200    566.74852    142.41370     90.25061      8.50000
       2340.25440    563.09043    138.80650     89.99875      8.50000
       2340.40680    559.01509    136.49780     88.25063      8.50000
       2340.55920    553.28089    135.77640     88.53431      8.50000
       2340.71160    552.12762    138.15720     88.33339      8.50000
       2340.86400    556.68629    142.48590     88.49999      8.50000
       2341.01640    558.99328    149.33960     90.91553      8.50000
       2341.16880    556.91695    153.74040     93.24999      8.50000
       2341.32120    553.47872    153.59620     92.50061      8.50000
       2341.47360    549.83164    151.86470     94.16321      8.50000
       2341.62600    559.94894    148.54600     91.75343      8.50000
       2341.77840    560.44307    146.81450     90.50000      8.50000
       2341.93080    552.92951    145.87670     89.25001      8.50000
       2342.08320    556.37875    144.65020     90.74938      8.50000
       2342.23560    551.80906    141.69230     94.24998      8.50000
       2342.38800    547.20632    137.00290     95.74999      8.50000
       2342.54040    550.01846    137.79640     94.42427      8.50000
       2342.69280    559.20190    140.10510     94.99659      8.50000
       2342.84520    561.34388    147.39170     93.74999      8.50000
       2342.99760    557.24652    150.06110     94.91551      8.50000
       2343.15000    556.65325    157.92480     94.08448      8.50000
       2343.30240    554.10751    155.61620     95.74999      8.50000
       2343.45480    553.34676    157.13120     95.25000      8.50000
       2343.60720    553.96498    150.92680     95.74999      8.50000
       2343.75960    557.91173    153.45190     92.41335      8.50000
       2343.91200    555.62070    148.18530     93.24999      8.50000
       2344.06440    549.67787    146.30950     90.99999      8.50000
       2344.21680    558.42182    141.18730     90.50000      8.50000
       2344.36920    564.34284    140.10510     90.74999      8.50000
       2344.52160    564.57349    139.23940     92.29737      8.50000
       2344.67400    560.01391    139.45580     94.37501      8.50000
       2344.82640    561.97245    145.08310     90.00000      8.50000
       2344.97880    563.51891    142.99090     89.99766      8.50000
       2345.13120    556.30187    147.13790     89.08679      8.50000
       2345.28360    552.98436    147.21000     91.74660      8.50000
       2345.43600    554.42337    157.98900     92.50000      8.50000
       2345.58840    560.25648    159.25280     90.99999      8.50000
       2345.74080    572.05513    160.19070     92.50000      8.50000
       2345.89320    563.31591    157.49200     93.49999      8.50000
       2346.04560    558.68552    161.50800     95.00000      8.50000
       2346.19800    554.34738    166.19740     95.00000      8.50000
       2346.35040    551.33674    167.27960     95.00000      8.50000
       2346.50280    557.51022    163.84070     94.16552      8.50000
       2346.65520    555.18142    159.87280     98.00512      8.50000
       2346.80760    554.36851    154.02900     94.24998      8.50000
       2346.96000    560.34438    150.99890     93.49999      8.50000
       2347.11240    554.35750    149.62820     92.75186      8.50000
       2347.26480    549.66686    152.73040     94.00002      8.50000
       2347.41720    546.74502    153.91950     93.24938      8.50000
       2347.56960    555.18142    152.11580     92.66554      8.50000
       2347.72200    556.30187    151.05500     95.00000      8.50000
       2347.87440    556.19194    151.26350     97.50000      8.50000
       2348.02680    553.16106    152.34560     95.74999      8.50000
       2348.17920    556.40371    151.44250     96.91747      8.50000
       2348.33160    557.45536    148.31360     96.75001      8.50000
       2348.48400    566.29822    147.62680     96.49998      8.50000
       2348.63640    558.88335    148.86940     95.83384      8.50000
       2348.78880    557.60913    151.09510     93.16334      8.50000
       2348.94120    553.29190    153.51330    100.87499      8.50000
       2349.09360    565.47430    152.68770     98.41553      8.50000
       2349.24600    564.28798    152.77050     98.33448      8.50000
       2349.39840    554.53330    153.75650     95.25000      8.50000
       2349.55080    557.60913    156.45790     94.16257      8.50000
       2349.70320    559.65220    155.47190     96.50062      8.50000
       2349.85560    553.79727    152.90140     99.16552      8.50000
       2350.00800    550.00744    153.55070     98.49606      8.50000
       2350.16040    556.52151    153.82860    100.00000      8.50000
       2350.31280    550.08433    158.29640     97.50000      8.50000
       2350.46520    554.25858    158.05760     97.25001      8.50000
       2350.61760    559.69626    160.92760     98.33619      8.50000
       2350.77000    563.82960    160.68270     96.49998      8.50000
       2350.92240    555.30214    160.17600     96.66211      8.50000
       2351.07480    559.23495    161.65510     97.00001      8.50000
       2351.22720    559.85003    156.36470     97.50000      8.50000
       2351.37960    552.27037    158.35570     95.25000      8.50000
       2351.53200    553.64755    156.82220     94.37437      8.50000
       2351.68440    545.47080    160.15270     94.00002      8.50000
       2351.83680    550.69963    158.51790     95.00000      8.50000
       2351.98920    551.00717      -999.25     92.74936      8.50000
       2352.14160    551.49051      -999.25     91.50002      8.50000
       2352.29400    552.29240      -999.25     96.49998      8.50000
       2352.44640    556.91695      -999.25     97.00001      8.50000
       2352.59880    542.88932      -999.25     94.99939      8.50000
       2352.75120    547.16226      -999.25     94.24998      8.50000
       2352.90360    543.55138      -999.25     97.08447      8.50000
       2353.05600    542.20208      -999.25     95.00000      8.50000
       2353.20840    553.65452      -999.25     93.37499      8.50000
       2353.36080    551.29268      -999.25     95.50061      8.50000
       2353.51320    548.79910      -999.25     95.00000      8.50000
       2353.66560    556.63144      -999.25     94.24998      8.50000
