~VERSION INFORMATION 
VERS  .    2.0                                     :CWLS Log ASCII Standard - VERSION 2.0
WRAP  .    NO                                      :One Line per Depth step
PROD  .    Schlumberger Technology Corp.           :LAS Producer
PROG  .    Horizon LASWriter 13.0.221437.3100      :LAS Program name and version
SOURCE.    S1R1-Log[3]/Up                          :Run&Pass Information
CREA  .    07/04/2024                              :LAS Creation date {MM/DD/YYYY}
#--------------------------------------------------
~WELL INFORMATION 
#MNEM           .UNIT                      DATA            :DESCRIPTION
#----            ------          --------------            -----------------------------
STRT            .m                   1718.15760            :START DEPTH
STOP            .m                   2673.85800            :STOP DEPTH
STEP            .m                       0.1524            :STEP
NULL            .                       -999.25            :NULL VALUE
COMP            .                PT Pertamina EP           :COMPANY
WELL            .                BNG-A4(BNG-058)           :WELL NAME
FLD             .                       Benuang            :FIELD NAME
RIGN            .                       Tiger-7            :Rig Name
RIGTYP          .                      Land Rig            :Rig Type
SON             .                A.1059389.01.02           :Service Order Number
SRVC            .                  Schlumberger            :SERVICE COMPANY
DATE            .                    07/04/2024            :LOG DATE(Composite Date for Composite LAP) (MM/DD/YYYY)
CLAB            .                     Rig Name:            :County Label
CNTY            .                       TIGER-7            :COUNTY
SLAB            .                     Province:            :State/Province Label
STAT            .                 South Sumatra            :STATE or PROVINCE
PROV            .                 South Sumatra            :STATE or PROVINCE
CTRY            .                     Indonesia            :COUNTRY
CONT_REGION     .                          Asia            :Continent Region
SECT            .                                          :Section
TOWN            .                                          :Township
RANG            .                                          :Range
API             .                                          :API NUMBER
UWI             .                                          :UNIQUE WELL ID
LUL             .                         IDPRA            :Logging Unit Location
LUN             .                   OSLC-A 2155            :Logging Unit Number
LOC             .                         Adera            :FIELD LOCATION
FL1             .                X: 387.623,270 mE         :Field Location Line 1
FL2             .                Y: 9.630.308,141 mN       :Field Location Line 2
LATI            .deg             3° 20' 38.96" S           :LATITUDE
LONG            .deg             103° 59' 18.38" E         :LONGITUDE
PDAT            .                           MSL            :Local Permanent Datum
LMF             .                            DF            :Logging Measured From
APD             .m                        44.63            :Elevation of Depth Reference (LMF) Above Permanent Datum
EPD             .m                         0.00            :Elevation of Permanent Datum (PDAT) above Mean Sea Level
EKB             .m                        44.63            :Elevation of Kelly Bushing Above Permanent Datum
EDF             .m                        44.63            :Elevation of Drill Floor Above Permanent Datum
EGL             .m                        34.03            :Elevation of Ground Level Above Permanent Datum
ECF             .m                      -999.25            :Elevation of Casing Flange above Permanent Datum
#--------------------------------------------------
~CURVE INFORMATION
#MNEM           .UNIT                  API CODE            :DESCRIPTION
#----            ------          --------------            -----------------------------
DEPT            .m                                         :                                                        Depth Index
TENS            .lbf                                       :        (WLWorkflow)            (1in)                   Cable Tension
BS              .in                                        :(RT)    (Borehole)              (6in)                   Bit Size
GR_CAL          .gAPI                                      :        (EDTC-B)                (6in)                   Calibrated Gamma Ray
DT              .us/ft                                     :        (ASLT-B)                (6in)                   Delta-T (also called Slowness or Interval Transit Time)
#-------------------------------------------------------------
#            DEPT         TENS           BS       GR_CAL           DT 
#                  (WLWorkflo)   (Borehole)     (EDTC-B)     (ASLT-B) 
#                                      (RT)                           
#                        (1in)        (6in)        (6in)        (6in) 
~ASCII
# ...
       1840.83960   2408.49960      8.50000     64.21392     59.82422
       1840.99200   2394.99983      8.50000     83.82723     64.75586
       1841.14440   2429.50126      8.50000    105.69670     72.29493
       1841.29680   2409.99908      8.50000    130.50150     76.71874
       1841.44920   2441.00023      8.50000    145.95300     79.04296
       1841.60160   2452.00013      8.50000    151.97140     81.70899
       1841.75400   2413.00028      8.50000    152.31710     85.28319
       1841.90640   2404.00118      8.50000    154.37520     87.96875
       1842.05880   2404.00118      8.50000    158.26450     88.20312
       1842.21120   2375.00082      8.50000    168.39660     88.48634
       1842.36360   2432.50021      8.50000    173.16260     88.56446
       1842.51600   2375.99898      8.50000    171.33930     89.02345
       1842.66840   2410.99948      8.50000    163.59140     89.88281
       1842.82080   2391.00048      8.50000    165.01290     89.55079
       1842.97320   2364.00092      8.50000    165.67820     86.20119
       1843.12560   2381.00097      8.50000    154.70490     78.80860
       1843.27800   2354.99957      8.50000    140.21930     72.97851
       1843.43040   2314.99932      8.50000    126.45100     71.64062
       1843.58280   2324.00067      8.50000    121.02660     72.04100
       1843.73520   2335.49964      8.50000    120.01800     72.63671
       1843.88760   2380.00057      8.50000    120.18640     71.14258
       1844.04000   2436.00048      8.50000    116.94610     68.63282
       1844.19240   2408.00053      8.50000    116.27230     69.31640
       1844.34480   2439.50076      8.50000    123.25530     72.58788
       1844.49720   2415.99923      8.50000    127.46180     74.93164
       1844.64960   2386.49980      8.50000    130.16080     75.98634
       1844.80200   2436.00048      8.50000    133.49200     76.99218
       1844.95440   2393.50035      8.50000    148.37330     79.82422
       1845.10680   2388.99968      8.50000    158.36220     83.60353
       1845.25920   2413.00028      8.50000    160.95930     84.90234
       1845.41160   2397.00063      8.50000    158.16090     83.95509
       1845.56400   2415.99923      8.50000    149.37160     82.76369
       1845.71640   2405.99973      8.50000    140.85770     81.94335
       1845.86880   2379.00017      8.50000    134.49350     80.36131
       1846.02120   2383.99993      8.50000    133.90310     77.39259
       1846.17360   2415.00108      8.50000    130.96370     74.91210
       1846.32600   2375.00082      8.50000    118.07330     73.49609
       1846.47840   2413.00028      8.50000    104.89010     72.06054
       1846.63080   2402.00038      8.50000     96.51991     70.88868
       1846.78320   2396.00023      8.50000     94.83640     70.83985
       1846.93560   2392.00088      8.50000     89.39005     70.37110
       1847.08800   2347.49995      8.50000     82.28051     68.67187
       1847.24040   2354.99957      8.50000     74.43633     66.97267
       1847.39280   2382.50045      8.50000     66.64276     64.80469
       1847.54520   2348.99942      8.50000     58.79128     65.81056
       1847.69760   2400.50090      8.50000     51.01717     72.15820
       1847.85000   2392.00088      8.50000     46.00129     78.07617
       1848.00240   2407.00013      8.50000     42.79767     80.58595
       1848.15480   2411.99988      8.50000     46.82151     81.06446
       1848.30720   2381.99913      8.50000     52.34457     80.17578
       1848.45960   2375.00082      8.50000     53.24538     77.74415
       1848.61200   2404.00118      8.50000     48.47813     77.12891
       1848.76440   2371.99962      8.50000     45.00279     78.78906
       1848.91680   2397.49970      8.50000     46.19687     80.06837
       1849.06920   2399.99958      8.50000     47.68863     80.89843
       1849.22160   2393.99943      8.50000     55.62760     81.74803
       1849.37400   2437.99903      8.50000     75.18916     82.57812
       1849.52640   2430.49941      8.50000    104.11080     80.91797
       1849.67880   2427.99953      8.50000    135.43860     80.86914
       1849.83120   2443.99918      8.50000    156.46230     86.75781
       1849.98360   2410.99948      8.50000    163.91250     90.99609
       1850.13600   2432.50021      8.50000    168.27230     91.11328
       1850.28840   2444.99958      8.50000    176.22630     91.01563
       1850.44080   2380.49965      8.50000    185.01940     90.83985
       1850.59320   2379.00017      8.50000    190.53160     91.03516
       1850.74560   2341.00072      8.50000    185.34670     91.80664
       1850.89800   2330.99897      8.50000    182.33170     93.18361
       1851.05040   2371.99962      8.50000    171.91790     94.48242
       1851.20280   2365.50040      8.50000    152.70540     93.59375
       1851.35520   2381.00097      8.50000    126.65830     86.53321
       1851.50760   2402.00038      8.50000    105.98630     74.32618
       1851.66000   2363.00052      8.50000     94.06314     66.65040
       1851.81240   2387.00113      8.50000     93.44954     65.57617
       1851.96480   2358.00077      8.50000     94.00826     67.73436
       1852.11720   2339.50124      8.50000     96.87634     70.34180
       1852.26960   2404.99933      8.50000     91.09791     70.42968
       1852.42200   2398.00103      8.50000     86.22222     70.30273
       1852.57440   2373.00002      8.50000     79.95340     71.98242
       1852.72680   2405.99973      8.50000     81.04000     73.94530
       1852.87920   2403.00078      8.50000     79.03975     74.67774
       1853.03160   2420.49991      8.50000     83.17049     74.48242
       1853.18400   2452.00013      8.50000     83.58585     74.28711
       1853.33640   2413.49936      8.50000     82.17648     74.51171
       1853.48880   2450.99973      8.50000     82.08173     74.52150
       1853.64120   2435.49916      8.50000     78.95322     74.96093
       1853.79360   2403.00078      8.50000     82.52099     75.51758
       1853.94600   2403.49985      8.50000     87.05492     74.89259
       1854.09840   2387.50020      8.50000     99.59555     73.61328
       1854.25080   2392.00088      8.50000    102.36430     72.61720
       1854.40320   2448.00078      8.50000     99.29026     72.22657
       1854.55560   2409.99908      8.50000     94.23235     72.33398
       1854.70800   2415.00108      8.50000     91.32286     72.56837
       1854.86040   2458.00029      8.50000     92.75240     72.59766
       1855.01280   2425.00058      8.50000     90.33075     72.64649
       1855.16520   2454.99909      8.50000     90.43939     72.82227
       1855.31760   2436.00048      8.50000     84.36777     72.99805
       1855.47000   2422.99978      8.50000     79.96642     73.01758
       1855.62240   2453.00053      8.50000     79.39230     73.27148
       1855.77480   2435.00008      8.50000     90.31322     74.18945
       1855.92720   2467.99979      8.50000     95.32914     74.34572
       1856.07960   2393.50035      8.50000    104.41490     73.37889
       1856.23200   2410.99948      8.50000    118.87730     74.60937
       1856.38440   2466.50031      8.50000    142.54980     77.08983
       1856.53680   2425.00058      8.50000    160.30950     78.29102
       1856.68920   2522.00114      8.50000    153.89790     78.43751
       1856.84160   2415.00108      8.50000    150.36260     78.09570
       1856.99400   2444.99958      8.50000    145.92170     77.27540
       1857.14640   2461.99964      8.50000    154.19100     77.82227
       1857.29880   2413.49936      8.50000    148.91890     80.01954
       1857.45120   2422.99978      8.50000    146.66180     81.31835
       1857.60360   2459.49976      8.50000    141.51730     81.18165
       1857.75600   2442.00063      8.50000    142.72190     79.65820
       1857.90840   2418.00003      8.50000    132.56980     76.71874
       1858.06080   2466.99939      8.50000    123.29060     74.38476
       1858.21320   2458.00029      8.50000    118.52000     73.65233
