~VERSION INFORMATION 
VERS  .    2.0                                     :CWLS Log ASCII Standard - VERSION 2.0
WRAP  .    NO                                      :One Line per Depth step
PROD  .    Schlumberger Technology Corp.           :LAS Producer
PROG  .    Horizon LASWriter 13.0.221437.3100      :LAS Program name and version
SOURCE.    S1R1-Log[4]/Up                          :Run&Pass Information
CREA  .    07/28/2024                              :LAS Creation date {MM/DD/YYYY}
#--------------------------------------------------
~WELL INFORMATION 
#MNEM           .UNIT                      DATA            :DESCRIPTION
#----            ------          --------------            -----------------------------
STRT            .m                   1495.04400            :START DEPTH
STOP            .m                   2360.37120            :STOP DEPTH
STEP            .m                       0.1524            :STEP
NULL            .                       -999.25            :NULL VALUE
COMP            .                PT Pertamina EP           :COMPANY
WELL            .                BNG-059 (BNG-H1)          :WELL NAME
FLD             .                         Adera            :FIELD NAME
RIGN            .                                          :Rig Name
RIGTYP          .                          Land            :Rig Type
SON             .                A.1009322.17.2            :Service Order Number
SRVC            .                  Schlumberger            :SERVICE COMPANY
DATE            .                    07/28/2024            :LOG DATE(Composite Date for Composite LAP) (MM/DD/YYYY)
CLAB            .                     Rig Name:            :County Label
CNTY            .                South Sumatera            :COUNTY
SLAB            .                     Province:            :State/Province Label
STAT            .                 South Sumatra            :STATE or PROVINCE
PROV            .                 South Sumatra            :STATE or PROVINCE
CTRY            .                     Indonesia            :COUNTRY
CONT_REGION     .                          Asia            :Continent Region
SECT            .                                          :Section
TOWN            .                                          :Township
RANG            .                                          :Range
API             .                                          :API NUMBER
UWI             .                                          :UNIQUE WELL ID
LUL             .                      ING/IDPR            :Logging Unit Location
LUN             .                   OSLC-E 2349            :Logging Unit Number
LOC             .                         Adera            :FIELD LOCATION
FL1             .                X: 397,029.172            :Field Location Line 1
FL2             .                Y: 9,625,078.797          :Field Location Line 2
LATI            .deg             3° 23' 29.559" S          :LATITUDE
LONG            .deg             104° 4' 22.998" E         :LONGITUDE
PDAT            .                           MSL            :Local Permanent Datum
LMF             .                            DF            :Logging Measured From
APD             .m                        25.78            :Elevation of Depth Reference (LMF) Above Permanent Datum
EPD             .m                         0.00            :Elevation of Permanent Datum (PDAT) above Mean Sea Level
EKB             .m                        25.78            :Elevation of Kelly Bushing Above Permanent Datum
EDF             .m                        25.78            :Elevation of Drill Floor Above Permanent Datum
EGL             .m                        16.64            :Elevation of Ground Level Above Permanent Datum
ECF             .m                      -999.25            :Elevation of Casing Flange above Permanent Datum
#--------------------------------------------------
~CURVE INFORMATION
#MNEM           .UNIT                  API CODE            :DESCRIPTION
#----            ------          --------------            -----------------------------
DEPT            .m                                         :                                                        Depth Index
HTEN            .lbf                                       :        (LEH-QT)                (6in)                   Head Tension
GR_CAL          .gAPI                                      :        (SGT-N)                 (6in)                   Calibrated Gamma Ray
DT_BHC          .us/ft                                     :        (MAST-B)                (6in)                   1.5 Feet Span Borehole Compensated Slowness from Near Spacing
BS              .in                                        :(RT)    (Borehole)              (6in)                   Bit Size
#-------------------------------------------------------------
#            DEPT         HTEN       GR_CAL       DT_BHC           BS 
#                     (LEH-QT)      (SGT-N)     (MAST-B)   (Borehole) 
#                                                                (RT) 
#                        (6in)        (6in)        (6in)        (6in) 
~ASCII
# ...
       1670.30400    522.56074     60.09588     92.50000      8.50000
       1670.45640    522.20307     60.16734     92.06249      8.50000
       1670.60880    519.67083     59.29198     90.79395      8.50000
       1670.76120    515.13913     57.28223     90.35412      8.50000
       1670.91360    518.90917     53.78082     90.00000      8.50000
       1671.06600    521.82225     53.78082     89.24937      8.50000
       1671.21840    524.77354     54.31675     88.91677      8.50000
       1671.37080    522.41799     51.31552     88.24999      8.50000
       1671.52320    519.25178     48.43935     92.49939      8.50000
       1671.67560    521.06082     47.36749     91.75001      8.50000
       1671.82800    518.10953     44.01791     89.75001      8.50000
       1671.98040    516.80788     41.76699     85.83384      8.50000
       1672.13280    519.68971     38.79257     89.17003      8.50000
       1672.28520    526.20175     41.47223     87.49875      8.50000
       1672.43760    521.68916     40.97203     88.33391      8.50000
       1672.59000    520.62267     39.59647     87.58105      8.50000
       1672.74240    521.28923     39.19452     91.49998      8.50000
       1672.89480    519.80414     40.94523     88.49999      8.50000
       1673.04720    519.48041     40.87378     81.91643      8.50000
       1673.19960    525.80182     41.94564     88.00000      8.50000
       1673.35200    526.70218     43.82140     85.41642      8.50000
       1673.50440    526.27774     57.08572     86.00063      8.50000
       1673.65680    522.05088     69.59082    110.41310      8.50000
       1673.80920    523.30756     77.59407    101.75001      8.50000
       1673.96160    521.55585     72.10077     67.00001      8.50000
       1674.11400    515.68586     64.72276     84.16607      8.50000
       1674.26640    513.00659     61.93591     57.50000      8.50000
       1674.41880    521.42254     64.86568     54.99930      8.50000
       1674.57120    526.96745     62.11456     62.50061      8.50000
       1674.72360    527.38222     57.52340     56.49998      8.50000
       1674.87600    528.42938     54.86161     58.99998      8.50000
       1675.02840    526.04933     56.73738     81.66735      8.50000
       1675.18080    524.77354     55.03132     59.99875      8.50000
       1675.33320    526.20175     50.19007     60.33446      8.50000
       1675.48560    525.98818     45.13444     64.16552      8.50000
       1675.63800    528.54359     40.96310     87.83681      8.50000
       1675.79040    526.79187     39.64113     69.16150      8.50000
       1675.94280    527.15112     40.06988     58.49999      8.50000
       1676.09520    524.35472     46.44747     58.49658      8.50000
       1676.24760    525.97312     49.79705     61.50001      8.50000
       1676.40000    527.98741     54.42393     64.50001      8.50000
       1676.55240    527.30601     59.98869     65.25000      8.50000
       1676.70480    523.45841     63.58837     65.66212      8.50000
       1676.85720    522.43170     62.01630     66.25343      8.50000
       1677.00960    532.08523     52.82506     69.66551      8.50000
       1677.16200    540.86019     42.66022     68.49999      8.50000
       1677.31440    535.43645     37.22943     69.25001      8.50000
       1677.46680    535.15072     36.10398     67.49939      8.50000
       1677.61920    533.72004     35.76455     69.24937      8.50000
       1677.77160    528.54359     35.13930     68.41553      8.50000
       1677.92400    535.77906     37.14905     63.74999      8.50000
       1678.07640    557.81304     43.90179     62.49814      8.50000
       1678.22880    557.71389     47.15312     64.75001      8.50000
       1678.38120    551.58268     47.28710     69.25123      8.50000
       1678.53360    548.28586     45.02725     65.99999      8.50000
       1678.68600    545.58500     46.77797     63.24938      8.50000
       1678.83840    544.00190     49.51122     62.50000      8.50000
       1678.99080    543.62377     53.12876     63.32763      8.50000
       1679.14320    547.40865     56.00493     65.83680      8.50000
       1679.29560    550.38310     59.00615     65.25000      8.50000
       1679.44800    547.75553     59.67607     62.83159      8.50000
       1679.60040    545.28039     56.11212     61.33106      8.50000
       1679.75280    545.41347     50.73493     60.83976      8.50000
       1679.90520    546.65397     48.99316     58.62499      8.50000
       1680.05760    545.20418     50.68134     58.00000      8.50000
       1680.21000    547.83174     58.09507     60.00000      8.50000
       1680.36240    560.75084     58.05933     65.58104      8.50000
       1680.51480    562.58820     54.93306     61.58679      8.50000
       1680.66720    561.42392     47.02806     62.24659      8.50000
       1680.81960    564.49233     48.53761     58.74267      8.50000
       1680.97200    567.15789     55.54046     59.16211      8.50000
       1681.12440    567.54412     57.55020     60.99999      8.50000
       1681.27680    567.27210     53.41459     62.91352      8.50000
       1681.42920    564.72074     56.04066     64.00001      8.50000
       1681.58160    552.20293     67.42922     61.16714      8.50000
       1681.73400    540.71047     76.68300     62.50000      8.50000
       1681.88640    535.92316     70.76987     66.65214      8.50000
       1682.03880    539.49201     60.61396     68.50063      8.50000
       1682.19120    543.37625     62.46292     72.00001      8.50000
       1682.34360    541.67625     74.00333     60.00000      8.50000
       1682.49600    538.00669     80.63103     69.99269      8.50000
       1682.64840    553.29640     79.15721     73.24999      8.50000
       1682.80080    566.19773     74.40527     47.09431      8.50000
       1682.95320    562.51199     80.07723     73.16553      8.50000
       1683.10560    563.95369     81.70289     69.15702      8.50000
       1683.25800    566.09162     81.74755     72.49875      8.50000
       1683.41040    573.38420     79.45197     70.83229      8.50000
       1683.56280    573.35835     80.77393     72.41320      8.50000
       1683.71520    569.00492     78.97856     70.74999      8.50000
       1683.86760    568.60499     74.72683     70.41554      8.50000
       1684.02000    569.61416     75.79870     65.74999      8.50000
       1684.17240    565.90121     83.42681     62.41524      8.50000
       1684.32480    563.74956     85.01673     71.08226      8.50000
       1684.47720    565.23488     85.82063     70.08544      8.50000
       1684.62960    560.36304     80.81860     70.50000      8.50000
       1684.78200    570.16629     82.56038     68.24999      8.50000
       1684.93440    584.49696     83.36428     68.00000      8.50000
       1685.08680    585.37978     86.68707     70.74957      8.50000
       1685.23920    584.10399     78.35330     71.75343      8.50000
       1685.39160    580.02933     62.94526     70.25000      8.50000
       1685.54400    576.14508     49.99356     60.33665      8.50000
       1685.69640    569.62495     50.36871     56.66832      8.50000
       1685.84880    578.22052     62.42719     56.75001      8.50000
       1686.00120    578.31561     81.54211     58.33384      8.50000
       1686.15360    574.98349    107.05250     64.00001      8.50000
       1686.30600    572.88917    132.91120     72.50000      8.50000
       1686.45840    579.62130    138.05620     85.50000      8.50000
       1686.61080    582.40938    144.05860     97.25123      8.50000
       1686.76320    581.60007    144.72850     97.25001      8.50000
       1686.91560    578.41093    158.48410     90.74999      8.50000
       1687.06800    580.15163    156.76910     79.91896      8.50000
       1687.22040    584.06600    156.59940     81.66381      8.50000
       1687.37280    574.11303    150.72200     81.66381      8.50000
       1687.52520    579.42010    152.06190     81.74998      8.50000
       1687.67760    584.10939    143.18330     81.75062      8.50000
