~VERSION INFORMATION 
VERS  .    2.0                                     :CWLS Log ASCII Standard - VERSION 2.0
WRAP  .    NO                                      :One Line per Depth step
PROD  .    Schlumberger Technology Corp.           :LAS Producer
PROG  .    Horizon LASWriter 13.0.221437.3100      :LAS Program name and version
SOURCE.    S1R1-Log[4]/Up                          :Run&Pass Information
CREA  .    07/28/2024                              :LAS Creation date {MM/DD/YYYY}
#--------------------------------------------------
~WELL INFORMATION 
#MNEM           .UNIT                      DATA            :DESCRIPTION
#----            ------          --------------            -----------------------------
STRT            .m                   1495.04400            :START DEPTH
STOP            .m                   2360.37120            :STOP DEPTH
STEP            .m                       0.1524            :STEP
NULL            .                       -999.25            :NULL VALUE
COMP            .                PT Pertamina EP           :COMPANY
WELL            .                BNG-059 (BNG-H1)          :WELL NAME
FLD             .                         Adera            :FIELD NAME
RIGN            .                                          :Rig Name
RIGTYP          .                          Land            :Rig Type
SON             .                A.1009322.17.2            :Service Order Number
SRVC            .                  Schlumberger            :SERVICE COMPANY
DATE            .                    07/28/2024            :LOG DATE(Composite Date for Composite LAP) (MM/DD/YYYY)
CLAB            .                     Rig Name:            :County Label
CNTY            .                South Sumatera            :COUNTY
SLAB            .                     Province:            :State/Province Label
STAT            .                 South Sumatra            :STATE or PROVINCE
PROV            .                 South Sumatra            :STATE or PROVINCE
CTRY            .                     Indonesia            :COUNTRY
CONT_REGION     .                          Asia            :Continent Region
SECT            .                                          :Section
TOWN            .                                          :Township
RANG            .                                          :Range
API             .                                          :API NUMBER
UWI             .                                          :UNIQUE WELL ID
LUL             .                      ING/IDPR            :Logging Unit Location
LUN             .                   OSLC-E 2349            :Logging Unit Number
LOC             .                         Adera            :FIELD LOCATION
FL1             .                X: 397,029.172            :Field Location Line 1
FL2             .                Y: 9,625,078.797          :Field Location Line 2
LATI            .deg             3° 23' 29.559" S          :LATITUDE
LONG            .deg             104° 4' 22.998" E         :LONGITUDE
PDAT            .                           MSL            :Local Permanent Datum
LMF             .                            DF            :Logging Measured From
APD             .m                        25.78            :Elevation of Depth Reference (LMF) Above Permanent Datum
EPD             .m                         0.00            :Elevation of Permanent Datum (PDAT) above Mean Sea Level
EKB             .m                        25.78            :Elevation of Kelly Bushing Above Permanent Datum
EDF             .m                        25.78            :Elevation of Drill Floor Above Permanent Datum
EGL             .m                        16.64            :Elevation of Ground Level Above Permanent Datum
ECF             .m                      -999.25            :Elevation of Casing Flange above Permanent Datum
#--------------------------------------------------
~CURVE INFORMATION
#MNEM           .UNIT                  API CODE            :DESCRIPTION
#----            ------          --------------            -----------------------------
DEPT            .m                                         :                                                        Depth Index
HTEN            .lbf                                       :        (LEH-QT)                (6in)                   Head Tension
GR_CAL          .gAPI                                      :        (SGT-N)                 (6in)                   Calibrated Gamma Ray
DT_BHC          .us/ft                                     :        (MAST-B)                (6in)                   1.5 Feet Span Borehole Compensated Slowness from Near Spacing
BS              .in                                        :(RT)    (Borehole)              (6in)                   Bit Size
#-------------------------------------------------------------
#            DEPT         HTEN       GR_CAL       DT_BHC           BS 
#                     (LEH-QT)      (SGT-N)     (MAST-B)   (Borehole) 
#                                                                (RT) 
#                        (6in)        (6in)        (6in)        (6in) 
~ASCII
# ...
       1722.88200    559.65602     59.87257     57.00001      8.50000
       1723.03440    565.05526     78.14787     57.58446      8.50000
       1723.18680    569.32865     88.65215     60.50000      8.50000
       1723.33920    579.93424     93.55593     66.75001      8.50000
       1723.49160    567.70733    116.46700     65.42236      8.50000
       1723.64400    558.13271    185.12000     62.75363      8.50000
       1723.79640    566.76897    256.85450     70.74999      8.50000
       1723.94880    569.76658    272.31620     95.50000      8.50000
       1724.10120    570.66536    219.54470    120.99999      8.50000
       1724.25360    571.65137    159.92220    110.99999      8.50000
       1724.40600    568.27857    127.03380     92.24507      8.50000
       1724.55840    572.96538    123.38950     76.65958      8.50000
       1724.71080    575.96950    126.03340     77.25001      8.50000
       1724.86320    572.85095    128.72200     76.50001      8.50000
       1725.01560    560.19983    133.61690     75.99999      8.50000
       1725.16800    548.70760    135.24250     78.24999      8.50000
       1725.32040    557.35195    134.57260     80.00000      8.50000
       1725.47280    560.40396    132.44670     80.99999      8.50000
       1725.62520    560.30324    126.97130     82.83900      8.50000
       1725.77760    565.01456    128.20390     83.12500      8.50000
       1725.93000    563.06412    134.41180     83.22802      8.50000
       1726.08240    567.70733    136.88600     82.75000      8.50000
       1726.23480    569.86167    130.38340     86.00063      8.50000
       1726.38720    575.23101    101.97900     86.66894      8.50000
       1726.53960    571.37936     75.71831     89.66555      8.50000
       1726.69200    564.83090     54.70976     87.49607      8.50000
       1726.84440    568.22416     56.71951     72.22370      8.50000
       1726.99680    564.47322     76.10239     81.66714      8.50000
       1727.14920    551.36641    109.61600     81.33106      8.50000
       1727.30160    552.38233    137.05580     84.25361      8.50000
       1727.45400    557.13973    148.43540     86.25063      8.50000
       1727.60640    553.56302    137.04680     90.00000      8.50000
       1727.75880    547.20475    122.79100     80.99999      8.50000
       1727.91120    558.83726    114.53770     68.49999      8.50000
       1728.06360    571.19591    114.42160     70.91553      8.50000
       1728.21600    565.17778    124.81860     71.66552      8.50000
       1728.36840    570.72674    124.81860     71.74931      8.50000
       1728.52080    569.95676    124.13090     75.75063      8.50000
       1728.67320    567.27210    118.11060     75.83448      8.50000
       1728.82560    579.37648    113.62660     74.50001      8.50000
       1728.97800    584.68063    116.06510     72.50000      8.50000
       1729.13040    577.02094    114.31440     73.16319      8.50000
       1729.28280    567.88133    117.29770     72.95946      8.50000
       1729.43520    566.62622    115.52920     73.33509      8.50000
       1729.58760    563.76867    117.78010     76.25246      8.50000
       1729.74000    562.32158    118.90550     73.21729      8.50000
       1729.89240    563.13763    126.54260     72.66895      8.50000
       1730.04480    569.11913    131.16940     76.24819      8.50000
       1730.19720    567.05448    141.12880     80.41554      8.50000
       1730.34960    566.79618    142.88850     81.74998      8.50000
       1730.50200    558.76105    145.13940     86.75001      8.50000
       1730.65440    557.77234    144.06760     84.25062      8.50000
       1730.80680    551.83019    148.81950     83.24999      8.50000
       1730.95920    536.45371    150.57020     85.00000      8.50000
       1731.11160    539.41580    149.90030     84.16616      8.50000
       1731.26400    544.53222    147.39930     85.74999      8.50000
       1731.41640    537.70208    144.39800     85.83448      8.50000
       1731.56880    554.56927    144.05860     88.49999      8.50000
       1731.72120    569.91877    145.40740     87.50000      8.50000
       1731.87360    573.35835    148.28360     85.25000      8.50000
       1732.02600    572.48924    152.53530     86.83106      8.50000
       1732.17840    582.29383    151.86540     86.58106      8.50000
       1732.33080    576.44970    153.61610     87.00001      8.50000
       1732.48320    562.64530    156.49220     90.75063      8.50000
       1732.63560    563.25993    157.56410     90.75063      8.50000
       1732.78800    561.29330    153.68750     90.75063      8.50000
       1732.94040    552.69256    141.93280     88.49999      8.50000
       1733.09280    547.58423    135.23360     88.33104      8.50000
       1733.24520    549.04077    129.73140     85.50000      8.50000
       1733.39760    548.84091    132.28600     81.49877      8.50000
       1733.55000    543.69998    129.98150     78.25063      8.50000
       1733.70240    548.36746    126.85520     77.50000      8.50000
       1733.85480    568.94760    122.16580     79.25001      8.50000
       1734.00720    577.05893    118.16410     93.00000      8.50000
       1734.15960    574.35785    122.54090     82.17237      8.50000
       1734.31200    574.46958    122.80890    114.22560      8.50000
       1734.46440    574.25601    127.06060     99.16470      8.50000
       1734.61680    577.21135    116.93150     76.75001      8.50000
       1734.76920    579.64176    111.03620     76.24938      8.50000
       1734.92160    577.51597     96.28024     71.75001      8.50000
       1735.07400    579.36300     91.90347     71.65263      8.50000
       1735.22640    579.00937     84.66838     69.78926      8.50000
       1735.37880    576.98272     87.79465     69.25001      8.50000
       1735.53120    578.81064     85.54373     71.58447      8.50000
       1735.68360    574.84748     83.03378     73.83448      8.50000
       1735.83600    579.47720     79.03216     72.00001      8.50000
       1735.98840    586.63916     76.03093     73.00243      8.50000
       1736.14080    578.41093     69.27819     75.99999      8.50000
       1736.29320    567.03402     58.27371     79.59413      8.50000
       1736.44560    571.84179     52.21767     54.10950      8.50000
       1736.59800    569.30954     53.46819     79.16644      8.50000
       1736.75040    564.73962     55.22783     93.31239      8.50000
       1736.90280    556.65032     60.78366     65.99938      8.50000
       1737.05520    552.36614     61.28387     89.75001      8.50000
       1737.20760    559.17987     73.61031     75.08333      8.50000
       1737.36000    554.61018     84.11458     75.41505      8.50000
       1737.51240    551.10114    107.49910     75.74999      8.50000
       1737.66480    569.21422    125.85480     76.66552      8.50000
       1737.81720    577.04004    141.48610     77.99756      8.50000
       1737.96960    570.07389    147.23850     79.25001      8.50000
       1738.12200    564.37791    151.81180     79.99936      8.50000
       1738.27440    565.34076    149.73060     81.50001      8.50000
       1738.42680    568.60499    152.48170     83.49999      8.50000
       1738.57920    562.15027    148.17640     85.74999      8.50000
       1738.73160    561.22001    153.75900     81.62501      8.50000
       1738.88400    565.92032    152.25840     83.24999      8.50000
       1739.03640    562.60709    150.81140     81.67128      8.50000
       1739.18880    562.58685    146.55960     85.08105      8.50000
       1739.34120    562.85483    145.25550     83.49999      8.50000
       1739.49360    559.27519    148.13170     85.00000      8.50000
       1739.64600    566.52416    148.00670     84.25001      8.50000
       1739.79840    575.25012    144.65710     84.16552      8.50000
       1739.95080    567.78893    140.78050     83.32638      8.50000
       1740.10320    565.40618    142.12030     85.00000      8.50000
       1740.25560    569.11913    145.64850     85.74999      8.50000
