~VERSION INFORMATION 
VERS  .    2.0                                     :CWLS Log ASCII Standard - VERSION 2.0
WRAP  .    NO                                      :One Line per Depth step
PROD  .    Schlumberger Technology Corp.           :LAS Producer
PROG  .    Horizon LASWriter 13.0.221437.3100      :LAS Program name and version
SOURCE.    S1R1-Log[4]/Up                          :Run&Pass Information
CREA  .    07/28/2024                              :LAS Creation date {MM/DD/YYYY}
#--------------------------------------------------
~WELL INFORMATION 
#MNEM           .UNIT                      DATA            :DESCRIPTION
#----            ------          --------------            -----------------------------
STRT            .m                   1495.04400            :START DEPTH
STOP            .m                   2360.37120            :STOP DEPTH
STEP            .m                       0.1524            :STEP
NULL            .                       -999.25            :NULL VALUE
COMP            .                PT Pertamina EP           :COMPANY
WELL            .                BNG-059 (BNG-H1)          :WELL NAME
FLD             .                         Adera            :FIELD NAME
RIGN            .                                          :Rig Name
RIGTYP          .                          Land            :Rig Type
SON             .                A.1009322.17.2            :Service Order Number
SRVC            .                  Schlumberger            :SERVICE COMPANY
DATE            .                    07/28/2024            :LOG DATE(Composite Date for Composite LAP) (MM/DD/YYYY)
CLAB            .                     Rig Name:            :County Label
CNTY            .                South Sumatera            :COUNTY
SLAB            .                     Province:            :State/Province Label
STAT            .                 South Sumatra            :STATE or PROVINCE
PROV            .                 South Sumatra            :STATE or PROVINCE
CTRY            .                     Indonesia            :COUNTRY
CONT_REGION     .                          Asia            :Continent Region
SECT            .                                          :Section
TOWN            .                                          :Township
RANG            .                                          :Range
API             .                                          :API NUMBER
UWI             .                                          :UNIQUE WELL ID
LUL             .                      ING/IDPR            :Logging Unit Location
LUN             .                   OSLC-E 2349            :Logging Unit Number
LOC             .                         Adera            :FIELD LOCATION
FL1             .                X: 397,029.172            :Field Location Line 1
FL2             .                Y: 9,625,078.797          :Field Location Line 2
LATI            .deg             3° 23' 29.559" S          :LATITUDE
LONG            .deg             104° 4' 22.998" E         :LONGITUDE
PDAT            .                           MSL            :Local Permanent Datum
LMF             .                            DF            :Logging Measured From
APD             .m                        25.78            :Elevation of Depth Reference (LMF) Above Permanent Datum
EPD             .m                         0.00            :Elevation of Permanent Datum (PDAT) above Mean Sea Level
EKB             .m                        25.78            :Elevation of Kelly Bushing Above Permanent Datum
EDF             .m                        25.78            :Elevation of Drill Floor Above Permanent Datum
EGL             .m                        16.64            :Elevation of Ground Level Above Permanent Datum
ECF             .m                      -999.25            :Elevation of Casing Flange above Permanent Datum
#--------------------------------------------------
~CURVE INFORMATION
#MNEM           .UNIT                  API CODE            :DESCRIPTION
#----            ------          --------------            -----------------------------
DEPT            .m                                         :                                                        Depth Index
HTEN            .lbf                                       :        (LEH-QT)                (6in)                   Head Tension
GR_CAL          .gAPI                                      :        (SGT-N)                 (6in)                   Calibrated Gamma Ray
DT_BHC          .us/ft                                     :        (MAST-B)                (6in)                   1.5 Feet Span Borehole Compensated Slowness from Near Spacing
BS              .in                                        :(RT)    (Borehole)              (6in)                   Bit Size
#-------------------------------------------------------------
#            DEPT         HTEN       GR_CAL       DT_BHC           BS 
#                     (LEH-QT)      (SGT-N)     (MAST-B)   (Borehole) 
#                                                                (RT) 
#                        (6in)        (6in)        (6in)        (6in) 
~ASCII
# ...
       2003.29800    561.05231    145.44980    106.00593      8.50000
       2003.45040    557.60913    140.86460    104.82938      8.50000
       2003.60280    562.63901    123.77430     81.50489      8.50000
       2003.75520    569.62045    116.92260     72.25001      8.50000
       2003.90760    580.02933    104.83430     65.83107      8.50000
       2004.06000    582.79021    100.04070     67.49875      8.50000
       2004.21240    581.83814     89.61980     68.16895      8.50000
       2004.36480    575.30092     86.85826     74.15979      8.50000
       2004.51720    578.91855     88.73402     76.58106      8.50000
       2004.66960    580.72736    104.99060     76.87452      8.50000
       2004.82200    581.81431    127.34350     77.92139      8.50000
       2004.97440    589.54954    143.18330     72.08362      8.50000
       2005.12680    604.33770    153.18730     68.49999      8.50000
       2005.27920    586.75696    160.89880     70.00000      8.50000
       2005.43160    590.12078    162.35770     70.00342      8.50000
       2005.58400    578.50602    164.85870     72.50000      8.50000
       2005.73640    570.82633    159.43990     77.66334      8.50000
       2005.88880    558.07314    156.10520     77.75000      8.50000
       2006.04120    564.51122    149.22740     75.25000      8.50000
       2006.19360    569.87426    147.97690     69.58386      8.50000
       2006.34600    578.06180    151.10310     66.66552      8.50000
       2006.49840    580.85438    155.40180     67.24940      8.50000
       2006.65080    580.47355    160.19540     68.33448      8.50000
       2006.80320    575.26922    166.03110     68.24658      8.50000
       2006.95560    568.85880    168.81870     70.25000      8.50000
       2007.10800    572.03220    161.31560     74.25062      8.50000
       2007.26040    572.47642    152.97890     70.25000      8.50000
       2007.41280    575.45964    143.60010     69.50001      8.50000
       2007.56520    578.91855    138.38960     66.25243      8.50000
       2007.71760    572.73046    139.43170     66.66784      8.50000
       2007.87000    577.30015    142.03700     64.91551      8.50000
       2008.02240    572.57174    159.12720     62.50488      8.50000
       2008.17480    573.36509    170.79870     71.75001      8.50000
       2008.32720    575.55473    179.86480     80.00000      8.50000
       2008.47960    577.77607    164.02510     79.25123      8.50000
       2008.63200    580.60057    138.59810     76.66320      8.50000
       2008.78440    574.41248    106.78820     85.87499      8.50000
       2008.93680    574.53927     88.23902     85.83025      8.50000
       2009.08920    570.25509     69.06456    104.99720      8.50000
       2009.24160    564.54292     56.48132     82.75000      8.50000
       2009.39400    564.92374     44.60148     85.75243      8.50000
       2009.54640    572.06390     41.05838     87.58446      8.50000
       2009.69880    568.70008     44.96622     85.25000      8.50000
       2009.85120    573.60317     44.34096     85.00000      8.50000
       2010.00360    567.01829     46.00831     81.66552      8.50000
       2010.15600    565.81241     47.31092     81.12499      8.50000
       2010.30840    569.30302     45.22674     80.74999      8.50000
       2010.46080    567.90696     46.47725     81.50001      8.50000
       2010.61320    568.85880     42.51730     64.14482      8.50000
       2010.76560    559.21157     46.06041     63.31168      8.50000
       2010.91800    562.07159     44.02834     80.00000      8.50000
       2011.07040    556.89514     43.61150     79.16613      8.50000
       2011.22280    564.95566     40.90206     80.25000      8.50000
       2011.37520    571.27077     43.14256     61.12499      8.50000
       2011.52760    566.12984     45.43516     82.58105      8.50000
       2011.68000    558.13271     46.47725     80.74999      8.50000
       2011.83240    555.84776     44.39306     84.25062      8.50000
       2011.98480    555.21717     52.93821     82.50000      8.50000
       2012.13720    554.80060     80.03257     81.66491      8.50000
       2012.28960    557.91060    119.00680     80.99999      8.50000
       2012.44200    562.09947    148.52400     79.25001      8.50000
       2012.59440    557.75189    163.73850    114.85291      8.50000
       2012.74680    549.81838    168.32370     69.64421      8.50000
       2012.89920    544.67722    174.86280     69.08447      8.50000
       2013.05160    534.76045    170.27760     69.91679      8.50000
       2013.20400    539.91712    169.44400     69.25001      8.50000
       2013.35640    535.28403    166.18740     69.25001      8.50000
       2013.50880    538.39404    168.68840     71.58106      8.50000
       2013.66120    540.90088    159.30960     70.08446      8.50000
       2013.81360    540.64707    147.35160     70.08446      8.50000
       2013.96600    538.10831    138.80650     74.66320      8.50000
       2014.11840    541.88465    142.97480     76.67235      8.50000
       2014.27080    541.50382    144.85060     78.99937      8.50000
       2014.42320    541.59914    150.26950     76.58447      8.50000
       2014.57560    544.22109    155.27150     77.58446      8.50000
       2014.72800    538.99698    167.15140     76.50001      8.50000
       2014.88040    541.85295    171.55420     78.49999      8.50000
       2015.03280    539.94904    177.18150     79.25001      8.50000
       2015.18520    537.83067    175.72250     79.25001      8.50000
       2015.33760    531.57109    184.45000     78.33104      8.50000
       2015.49000    538.86996    181.53220     76.50001      8.50000
       2015.64240    542.17038    169.65240     73.00000      8.50000
       2015.79480    542.67800    141.22930     69.00001      8.50000
       2015.94720    537.88620    128.51580     70.33105      8.50000
       2016.09960    530.80943    135.18520     73.00000      8.50000
       2016.25200    531.31728    151.93680     76.66893      8.50000
       2016.40440    535.15701    166.52610     78.25063      8.50000
       2016.55680    540.36539    176.32170     77.50000      8.50000
       2016.70920    545.05827    185.28370     84.25001      8.50000
       2016.86160    541.82125    184.86690    100.74999      8.50000
       2017.01400    536.14078    175.69650    107.90828      8.50000
       2017.16640    537.60046    151.93680     99.25001      8.50000
       2017.31880    533.47522    134.16920     73.00000      8.50000
       2017.47120    533.25311    122.91460     65.74658      8.50000
       2017.62360    534.83172    125.62400     61.67348      8.50000
       2017.77600    535.44275    132.97080     63.24999      8.50000
       2017.92840    533.95114    137.97280     65.91894      8.50000
       2018.08080    533.31650    135.05490     65.99999      8.50000
       2018.23320    534.90321    125.25930     63.24999      8.50000
       2018.38560    534.42728    117.75620     63.24999      8.50000
       2018.53800    531.38067    119.99670     63.25063      8.50000
       2018.69040    533.68946    124.22760     64.99875      8.50000
       2018.84280    533.91944    140.27580     68.62499      8.50000
       2018.99520    550.23090    157.62660    100.62625      8.50000
       2019.14760    558.03739    167.35980     73.16895      8.50000
       2019.30000    562.60731    166.94290     74.25001      8.50000
       2019.45240    566.03452    167.15140     73.24999      8.50000
       2019.60480    563.55915    170.69450     74.25062      8.50000
       2019.75720    572.67493    170.48600     72.41554      8.50000
       2019.90960    568.22416    170.69450     76.83447      8.50000
       2020.06200    556.60941    174.65440     73.24999      8.50000
       2020.21440    568.22416    177.15540     71.74937      8.50000
       2020.36680    567.77994    169.23550     77.75000      8.50000
       2020.51920    567.84334    143.18330     90.25000      8.50000
       2020.67160    554.22936    114.42160     99.25123      8.50000
