~VERSION INFORMATION 
VERS  .    2.0                                     :CWLS Log ASCII Standard - VERSION 2.0
WRAP  .    NO                                      :One Line per Depth step
PROD  .    Schlumberger Technology Corp.           :LAS Producer
PROG  .    Horizon LASWriter 13.0.221437.3100      :LAS Program name and version
SOURCE.    S1R1-Log[3]/Up                          :Run&Pass Information
CREA  .    05/17/2024                              :LAS Creation date {MM/DD/YYYY}
#--------------------------------------------------
~WELL INFORMATION 
#MNEM           .UNIT                      DATA            :DESCRIPTION
#----            ------          --------------            -----------------------------
STRT            .m                   1744.98000            :START DEPTH
STOP            .m                   2740.91400            :STOP DEPTH
STEP            .m                       0.1524            :STEP
NULL            .                       -999.25            :NULL VALUE
COMP            .                PT Pertamina EP           :COMPANY
WELL            .                BNG-056 (BNG-B3)          :WELL NAME
FLD             .                    Prabumulih            :FIELD NAME
RIGN            .                                          :Rig Name
RIGTYP          .                          Land            :Rig Type
SON             .                A.1009322.16.02           :Service Order Number
SRVC            .                  Schlumberger            :SERVICE COMPANY
DATE            .                    05/17/2024            :LOG DATE(Composite Date for Composite LAP) (MM/DD/YYYY)
CLAB            .                     Rig Name:            :County Label
CNTY            .                PDSI#39.3/D1500-E         :COUNTY
SLAB            .                     Province:            :State/Province Label
STAT            .                 South Sumatra            :STATE or PROVINCE
PROV            .                 South Sumatra            :STATE or PROVINCE
CTRY            .                     Indonesia            :COUNTRY
CONT_REGION     .                          Asia            :Continent Region
SECT            .                                          :Section
TOWN            .                                          :Township
RANG            .                                          :Range
API             .                                          :API NUMBER
UWI             .                                          :UNIQUE WELL ID
LUL             .                ING/IDPRA-WLES            :Logging Unit Location
LUN             .                  OSLC-AA 2175            :Logging Unit Number
LOC             .                         Adera            :FIELD LOCATION
FL1             .                 X: 389146.04             :Field Location Line 1
FL2             .                Y: 9628977.87             :Field Location Line 2
LATI            .deg             3° 21' 22.33" S           :LATITUDE
LONG            .deg             104° 0' 7.68" E           :LONGITUDE
PDAT            .                           MSL            :Local Permanent Datum
LMF             .                            DF            :Logging Measured From
APD             .m                        34.37            :Elevation of Depth Reference (LMF) Above Permanent Datum
EPD             .m                         0.00            :Elevation of Permanent Datum (PDAT) above Mean Sea Level
EKB             .m                        34.37            :Elevation of Kelly Bushing Above Permanent Datum
EDF             .m                        34.37            :Elevation of Drill Floor Above Permanent Datum
EGL             .m                        25.23            :Elevation of Ground Level Above Permanent Datum
ECF             .m                      -999.25            :Elevation of Casing Flange above Permanent Datum
#--------------------------------------------------
~CURVE INFORMATION
#MNEM           .UNIT                  API CODE            :DESCRIPTION
#----            ------          --------------            -----------------------------
DEPT            .m                                         :                                                        Depth Index
GR_CAL          .gAPI                                      :        (EDTC-B)                (6in)                   Calibrated Gamma Ray
TENS            .lbf                                       :        (WLWorkflow)            (6in)                   Cable Tension
DT              .us/ft                                     :        (DSLT-H)                (6in)                   Delta-T (also called Slowness or Interval Transit Time)
#-------------------------------------------------------------
#            DEPT       GR_CAL         TENS           DT 
#                     (EDTC-B)  (WLWorkflo)     (DSLT-H) 
#                                                        
#                        (6in)        (6in)        (6in) 
~ASCII
# ...
       2711.95800    152.05700   5187.00101     67.20590
       2712.11040    159.96350   5398.45405     70.11665
       2712.26280    166.50270   5423.92266     68.16694
       2712.41520    160.45110   5353.41583     69.58974
       2712.56760    160.12880   5266.41701     65.88100
       2712.72000    149.93460   5186.58286     66.13767
       2712.87240    141.28750   5162.81831     68.42025
       2713.02480    134.19100   5082.75036     66.34195
       2713.17720    137.86650   5028.91761     67.52890
       2713.32960    135.03900   4973.54492     69.43250
       2713.48200    143.29110   4904.27229     67.89740
       2713.63440    149.46080   4863.50094     68.21040
       2713.78680    159.20250   4826.45467     67.94830
       2713.93920    157.01880   4809.45462     67.44233
       2714.09160    147.35900   4793.81916     68.16886
       2714.24400    144.24080   4774.66768     68.39014
       2714.39640    144.28560   4764.09042     66.15349
       2714.54880    139.04310   4788.90933     66.43040
       2714.70120    132.25010   4755.54544     72.36010
       2714.85360    132.06490   4789.99965     71.24270
       2715.00600    137.17800   4842.18231     70.71211
       2715.15840    139.88440   4878.74973     71.05696
       2715.31080    130.81380   4959.18187     71.13709
       2715.46320    126.72290   4981.75044     70.99834
       2715.61560    130.55360   4961.92229     70.60689
       2715.76800    136.22150   4962.71362     72.13116
       2715.92040    135.45540   4873.78595     70.66483
       2716.07280    134.08300   4819.06745     69.64073
       2716.22520    139.14670   4760.42829     68.67991
       2716.37760    146.90940   4740.40006     68.04066
       2716.53000    151.25160   4784.71440     67.53658
       2716.68240    145.65140   4754.66643     68.39578
       2716.83480    139.91710   4787.46606     68.47817
       2716.98720    129.35310   4843.92907     70.78498
       2717.13960    126.84430   4836.46766     70.12735
       2717.29200    127.90850   4782.07064     73.71615
       2717.44440    126.13680   4731.13343     69.46520
       2717.59680    120.32880   4737.73382     71.93438
       2717.74920    118.95550   4783.53415     71.92262
       2717.90160    111.81720   4742.07264     72.40244
       2718.05400    102.65380   4705.33436     73.31687
       2718.20640     92.36475   4768.64280     73.28767
       2718.35880     92.04504   4736.92901     74.87729
       2718.51120    106.59920   4743.06629     72.70666
       2718.66360    116.88440   4713.00034     70.37875
       2718.81600    130.78270   4720.21446     66.23688
       2718.96840    134.55850   4705.64235     66.49855
       2719.12080    144.92060   4733.50067     67.13683
       2719.27320    144.87440   4829.26703     67.77362
       2719.42560    148.70910   5077.35719     69.39973
       2719.57800    138.09520   5257.75063     70.25101
       2719.73040    122.28330   5216.93657     73.25325
       2719.88280     97.74896   5176.93406     73.84387
       2720.03520     81.18034   5076.33431     72.18597
       2720.18760     72.37510   5031.81315     70.91715
       2720.34000     67.92393   4978.53343     69.93685
       2720.49240     70.29339   4978.80095     72.38878
       2720.64480     74.63575   5026.21316     72.18560
       2720.79720     79.82778   4908.93258     72.02512
       2720.94960     81.14446   4908.14350     71.57195
       2721.10200     79.19759   4844.26629     71.96669
       2721.25440     76.58769   4780.26768     72.90807
       2721.40680     72.31952   4824.80008     71.23978
       2721.55920     76.48423   4855.14254     70.77057
       2721.71160     79.97627   4804.73363     70.26362
       2721.86400     82.03011   4822.92967     70.72890
       2722.01640     82.37505   4835.07160     71.04708
       2722.16880     87.64646   4887.57123     70.87636
       2722.32120     96.19955   4950.86619     71.01133
       2722.47360     99.10141   4872.00096     71.47334
       2722.62600    100.80420   4839.07095     71.89854
       2722.77840    101.77640   4775.80072     69.68630
       2722.93080    105.94300   4740.42928     69.07856
       2723.08320    116.71030   4807.80003     68.83844
       2723.23560    124.52060   4803.57137     70.06904
       2723.38800    128.08170   4787.33342     69.75022
       2723.54040    122.87450   4821.85733     70.11549
       2723.69280    120.78390   4824.71465     71.93475
       2723.84520    120.12980   4815.66609     71.88812
       2723.99760    121.75410   4895.28667     72.61125
       2724.15000    134.00830   4855.42805     70.55821
       2724.30240    150.86480   4859.71516     70.56842
       2724.45480    164.57080   4906.99922     69.26946
       2724.60720    157.93430   4916.92903     70.42587
       2724.75960    151.49370   4905.73355     68.21028
       2724.91200    142.98450   4905.49975     72.23608
       2725.06440    143.06550   5008.39929     71.18574
       2725.21680    144.99610   5050.00019     72.35345
       2725.36920    148.98950   4967.13336     71.97380
       2725.52160    146.85130   4908.39978     74.55771
       2725.67400    140.48370   4884.79934     73.34637
       2725.82640    136.15990   4862.71411     72.57632
       2725.97880    144.00340   4943.64308     71.04915
       2726.13120    145.25420   4959.14366     73.11951
       2726.28360    145.23720   4912.26649     71.11749
       2726.43600    142.90120   4916.64352     73.33180
       2726.58840    142.25780   4847.46756     74.75958
       2726.74080    142.42020   4816.42819     73.21842
       2726.89320    143.44580   4820.92887     73.12743
       2727.04560    149.15000   4811.07100     73.32156
       2727.19800    148.55640   4865.30840     73.48496
       2727.35040    140.35230   4900.28643     73.53766
       2727.50280    137.32780   4860.46602     73.53206
       2727.65520    142.67520   4835.50098     73.40489
       2727.80760    142.41600   4762.71459     69.96227
       2727.96000    137.22640   4760.92961     71.63690
       2728.11240    137.59050   4782.07064     70.67270
       2728.26480    142.02840   4770.78523     69.93563
       2728.41720    150.08380   4788.19893     66.73523
       2728.56960    147.05810   4757.35740     68.81335
       2728.72200    149.35430   4776.26608     68.96201
       2728.87440    145.32420   4801.64251     67.68907
       2729.02680    145.50740   4753.21417     68.84515
       2729.17920    147.39440   4772.99960     69.89524
       2729.33160    144.48450   4802.07189     68.68284
       2729.48400    144.86980   4824.13240     70.79995
       2729.63640    140.66860   4802.92842     69.66073
       2729.78880    143.92480   4807.86747     69.89351
       2729.94120      -999.25   4791.78689     69.67332
       2730.09360      -999.25   4821.46616     69.33968
       2730.24600      -999.25   4848.42750     68.87285
       2730.39840      -999.25   4864.80033     69.43243
       2730.55080      -999.25   4814.71515     70.16624
       2730.70320      -999.25   4787.92916     69.79551
       2730.85560      -999.25   4794.21482     70.38222
       2731.00800      -999.25   4881.73294     69.94782
       2731.16040      -999.25   5072.28550     69.98321
       2731.31280      -999.25   5343.00043     70.02567
       2731.46520      -999.25   5259.06576     70.06965
       2731.61760      -999.25   5231.37604     70.09220
       2731.77000      -999.25   5175.13334     70.12860
       2731.92240      -999.25   5092.53404     70.11199
       2732.07480      -999.25   5010.86770     70.07980
       2732.22720      -999.25   4965.66761     70.16133
       2732.37960      -999.25   4904.86578     70.18922
       2732.53200      -999.25   4990.40109     70.19690
       2732.68440      -999.25   4974.86679     70.21470
       2732.83680      -999.25   4912.19905     70.22132
       2732.98920      -999.25   4854.00051     70.23662
       2733.14160      -999.25   4819.46761     70.24744
       2733.29400      -999.25   4800.99956     70.24585
