~VERSION INFORMATION 
VERS  .    2.0                                     :CWLS Log ASCII Standard - VERSION 2.0
WRAP  .    NO                                      :One Line per Depth step
PROD  .    Schlumberger Technology Corp.           :LAS Producer
PROG  .    Horizon LASWriter 13.0.221437.3100      :LAS Program name and version
SOURCE.    S1R1-Log[3]/Up                          :Run&Pass Information
CREA  .    05/17/2024                              :LAS Creation date {MM/DD/YYYY}
#--------------------------------------------------
~WELL INFORMATION 
#MNEM           .UNIT                      DATA            :DESCRIPTION
#----            ------          --------------            -----------------------------
STRT            .m                   1744.98000            :START DEPTH
STOP            .m                   2740.91400            :STOP DEPTH
STEP            .m                       0.1524            :STEP
NULL            .                       -999.25            :NULL VALUE
COMP            .                PT Pertamina EP           :COMPANY
WELL            .                BNG-056 (BNG-B3)          :WELL NAME
FLD             .                    Prabumulih            :FIELD NAME
RIGN            .                                          :Rig Name
RIGTYP          .                          Land            :Rig Type
SON             .                A.1009322.16.02           :Service Order Number
SRVC            .                  Schlumberger            :SERVICE COMPANY
DATE            .                    05/17/2024            :LOG DATE(Composite Date for Composite LAP) (MM/DD/YYYY)
CLAB            .                     Rig Name:            :County Label
CNTY            .                PDSI#39.3/D1500-E         :COUNTY
SLAB            .                     Province:            :State/Province Label
STAT            .                 South Sumatra            :STATE or PROVINCE
PROV            .                 South Sumatra            :STATE or PROVINCE
CTRY            .                     Indonesia            :COUNTRY
CONT_REGION     .                          Asia            :Continent Region
SECT            .                                          :Section
TOWN            .                                          :Township
RANG            .                                          :Range
API             .                                          :API NUMBER
UWI             .                                          :UNIQUE WELL ID
LUL             .                ING/IDPRA-WLES            :Logging Unit Location
LUN             .                  OSLC-AA 2175            :Logging Unit Number
LOC             .                         Adera            :FIELD LOCATION
FL1             .                 X: 389146.04             :Field Location Line 1
FL2             .                Y: 9628977.87             :Field Location Line 2
LATI            .deg             3° 21' 22.33" S           :LATITUDE
LONG            .deg             104° 0' 7.68" E           :LONGITUDE
PDAT            .                           MSL            :Local Permanent Datum
LMF             .                            DF            :Logging Measured From
APD             .m                        34.37            :Elevation of Depth Reference (LMF) Above Permanent Datum
EPD             .m                         0.00            :Elevation of Permanent Datum (PDAT) above Mean Sea Level
EKB             .m                        34.37            :Elevation of Kelly Bushing Above Permanent Datum
EDF             .m                        34.37            :Elevation of Drill Floor Above Permanent Datum
EGL             .m                        25.23            :Elevation of Ground Level Above Permanent Datum
ECF             .m                      -999.25            :Elevation of Casing Flange above Permanent Datum
#--------------------------------------------------
~CURVE INFORMATION
#MNEM           .UNIT                  API CODE            :DESCRIPTION
#----            ------          --------------            -----------------------------
DEPT            .m                                         :                                                        Depth Index
GR_CAL          .gAPI                                      :        (EDTC-B)                (6in)                   Calibrated Gamma Ray
TENS            .lbf                                       :        (WLWorkflow)            (6in)                   Cable Tension
DT              .us/ft                                     :        (DSLT-H)                (6in)                   Delta-T (also called Slowness or Interval Transit Time)
#-------------------------------------------------------------
#            DEPT       GR_CAL         TENS           DT 
#                     (EDTC-B)  (WLWorkflo)     (DSLT-H) 
#                                                        
#                        (6in)        (6in)        (6in) 
~ASCII
# ...
       1938.37560    151.57630   3295.29895     76.47834
       1938.52800    140.23170   3302.09042     77.36034
       1938.68040    137.16630   3298.50023     77.07194
       1938.83280    133.55610   3294.09172     76.52940
       1938.98520    141.40050   3314.60104     76.54762
       1939.13760    156.68410   3354.00106     76.89857
       1939.29000    160.56730   3351.80018     76.69850
       1939.44240    159.63080   3342.00076     77.12870
       1939.59480    146.19870   3339.79988     77.20459
       1939.74720    147.93650   3306.54614     76.65077
       1939.89960    154.32070   3324.69946     76.90424
       1940.05200    159.69480   3382.00101     77.33203
       1940.20440    164.06850   3349.10022     77.47178
       1940.35680    153.69860   3343.27317     77.62140
       1940.50920    149.73270   3372.50059     77.51658
       1940.66160    144.88540   3354.99921     77.49891
       1940.81400    149.17490   3335.90843     77.40158
       1940.96640    150.37980   3354.63727     77.14756
       1941.11880    156.27690   3378.59965     77.54539
       1941.27120    163.40590   3353.81896     78.09485
       1941.42360    166.74190   3352.63647     78.29437
       1941.57600    163.39940   3355.18130     76.45984
       1941.72840    152.94020   3339.18165     73.62791
       1941.88080    155.27730   3319.09947     73.71070
       1942.03320    157.34280   3310.63541     75.35034
       1942.18560    174.71280   3314.18290     77.50634
       1942.33800    170.85510   3297.27277     79.94233
       1942.49040    168.85120   3300.19978     79.99510
       1942.64280    158.45190   3321.90958     78.98200
       1942.79520    164.44500   3336.09053     79.99449
       1942.94760    172.84700   3317.19983     81.63861
       1943.10000    179.80010   3294.81785     84.68258
       1943.25240    177.15500   3321.36329     85.28423
       1943.40480    172.35650   3298.45526     84.11337
       1943.55720    170.35100   3269.80112     84.20658
       1943.70960    171.76940   3289.54609     84.29570
       1943.86200    181.40410   3296.72648     85.35540
       1944.01440    189.35880   3301.80042     85.77718
       1944.16680    190.95020   3305.63566     85.20818
       1944.31920    192.80190   3282.36344     86.17815
       1944.47160    186.58050   3257.09941     85.21885
       1944.62400    184.50800   3235.27271     85.84710
       1944.77640    172.54820   3221.70099     85.70665
       1944.92880    171.21370   3234.27231     87.33968
       1945.08120    173.20320   3245.00019     87.10364
       1945.23360    172.08730   3254.50062     86.41272
       1945.38600    167.06280   3285.36464     86.22396
       1945.53840    161.37630   3269.79887     84.93036
       1945.69080    161.85120   3256.27211     85.02186
       1945.84320    161.25430   3252.69990     85.36211
       1945.99560    165.35300   3241.54488     85.31443
       1946.14800    160.04280   3222.63620     85.50055
       1946.30040    161.68930   3227.59998     84.94078
       1946.45280    157.41200   3270.09112     84.41220
       1946.60520    159.77810   3292.29999     84.01821
       1946.75760    167.46770   3298.45526     85.84348
       1946.91000    172.00250   3248.90063     85.32196
       1947.06240    172.51280   3269.00080     87.69453
       1947.21480    167.50720   3250.49902     88.14587
       1947.36720    169.06230   3244.72817     88.54970
       1947.51960    171.31030   3260.45356     90.11089
       1947.67200    174.31960   3262.29924     90.34650
       1947.82440    172.79070   3284.45416     90.96704
       1947.97680    176.17130   3311.30085     91.25581
       1948.12920    180.16220   3304.36324     92.63866
       1948.28160    185.89190   3313.40056     94.17805
       1948.43400    184.82410   3315.63741     95.64167
       1948.58640    182.21030   3291.09951     96.11822
       1948.73880    169.63960   3318.36434    102.68395
       1948.89120    153.00190   3315.36314    112.96751
       1949.04360    127.08540   3294.79987    112.82114
       1949.19600    109.39650   3294.99995    105.67690
       1949.34840     95.91365   3269.99895     91.83243
       1949.50080     87.83968   3271.81765     76.12029
       1949.65320     83.55145   3296.20043     65.02743
       1949.80560     88.74674   3314.81911     64.49461
       1949.95800    100.69250   3302.63671     66.08966
       1950.11040    110.64990   3280.60094     69.80042
       1950.26280    116.13710   3240.72657     70.70430
       1950.41520    120.82220   3275.29994     73.06538
       1950.56760    134.59230   3296.27237     75.26841
       1950.72000    145.17080   3300.18180     75.01018
       1950.87240    154.42640   3289.30104     77.61543
       1951.02480    156.74460   3265.99960     79.45792
       1951.17720    167.25730   3243.99979     80.96378
       1951.32960    174.16050   3224.90902     81.94828
       1951.48200    173.90840   3239.18214     82.85897
       1951.63440    167.61220   3273.09007     83.48499
       1951.78680    161.69000   3287.99940     84.29601
       1951.93920    162.53220   3260.09162     84.70712
       1952.09160    173.04230   3269.90902     85.58641
       1952.24400    178.42500   3245.54648     86.65958
       1952.39640    179.61510   3253.99929     86.56957
       1952.54880    175.24780   3249.27381     88.28578
       1952.70120    176.26400   3239.54633     87.40259
       1952.85360    180.79080   3259.54533     87.56096
       1953.00600    180.17940   3277.63571     87.80761
       1953.15840    176.80080   3279.45441     86.99169
       1953.31080    172.85990   3274.90877     87.45776
       1953.46320    179.69210   3283.27167     88.05114
       1953.61560    175.94580   3288.90988     87.14424
       1953.76800    171.62080   3294.81785     87.90779
       1953.92040    163.97630   3259.27331     86.59139
       1954.07280    164.70670   3259.27331     88.69049
       1954.22520    162.42990   3251.60058     88.01283
       1954.37760    153.96230   3232.63570     90.44711
       1954.53000    156.94050   3245.54648     92.47885
       1954.68240    161.87540   3264.72718     92.17551
       1954.83480    169.86620   3254.81760     91.30522
       1954.98720    174.00950   3250.36413     90.20358
       1955.13960    174.74720   3240.60068     88.01274
       1955.29200    169.82660   3230.99909     87.29201
       1955.44440    162.08640   3247.90922     89.25336
       1955.59680    148.16410   3234.29929     89.42780
       1955.74920    126.66510   3268.45451     88.30693
       1955.90160    102.28730   3262.63645     83.38639
       1956.05400     88.51286   3236.59908     77.14613
       1956.20640     94.98161   3271.99975     69.20511
       1956.35880    114.56430   3283.27167     66.43896
       1956.51120    136.92120   3267.72838     67.83659
       1956.66360    159.48320   3247.36293     70.68282
       1956.81600    162.02360   3270.59919     72.82562
       1956.96840    167.02660   3285.81875     74.08560
       1957.12080    154.38350   3305.19953     73.19900
       1957.27320    149.95100   3303.00090     71.80881
       1957.42560    144.18590   3263.45476     70.98603
       1957.57800    141.78430   3257.54453     70.34357
       1957.73040    151.08480   3259.39921     71.22856
       1957.88280    151.72370   3287.99940     71.53220
       1958.03520    159.41650   3331.45497     72.16762
       1958.18760    153.31960   3370.45482     73.52319
       1958.34000    153.51720   3367.09168     74.23066
       1958.49240    153.25860   3335.69936     75.39191
       1958.64480    158.39610   3319.09048     76.34902
       1958.79720    166.17650   3302.54454     76.92256
       1958.94960    172.76000   3301.09902     77.78167
       1959.10200    171.03520   3304.45541     78.29803
       1959.25440    168.56350   3276.09127     78.48466
       1959.40680    163.43780   3284.27207     78.67906
       1959.55920    163.47780   3294.30079     78.95274
       1959.71160    162.13400   3282.99965     79.43118
