~Version Information
 VERS.                  2.0:   CWLS log ASCII Standard -VERSION 2.0
 WRAP.                   NO:   One line per depth step
~Well Information Block
#MNEM.UNIT     VALUE/NAME     DESCRIPTION
#---------     -----------    ---------------------------
 STRT.M              1700.1000: START DEPTH
 STOP.M              2733.9000: STOP DEPTH
 STEP.M                 0.1500: STEP DEPTH
 NULL.               -999.2500: NULL VALUE
 CNTY.         Tanjung Benuang:  COUNTY NAME
 CTRY.               Indonesia:  COUNTRY NAME
 PROV.          South Sumatera:  PROVINCE
 STAT.          South Sumatera:  STATE NAME
 FLD .                 Benuang:  FIELD NAME
 DATE.      15.00.00 14-May-24:  END TIME
 WELL.                  BNG-B3:  WELL NAME
 COMP.     PHR Region 1 Zona 4:  COMPANY
 API .                        :  API NUMBER
 SRVC.             Halliburton:  SERVICE COMPANY
 UWI .                        :  UNIQUE WELL IDENTIFIER
 LOC .                        :  LOCATION
~Parameter Information Block
#MNEM.UNIT       Value        Description
#---------     -----------    ---------------------------
 AV  .fpm             311.0000:  Ann Velocity 
 AVMX.fpm             315.0000:  Max Ann Veloc 
 AZIF.deg             294.2000:  Azm, Final 
 BHAT.        Rotary Steerable:  BHA Type 
 BROT.°/100'            0.2000:  Build Rotating 
 BS  .in                8.5000:  Bit Size 
 BSZ .in                8.5000:  Bit Size 
 BTPL.psig            496.0000:  Bit Press Loss 
 CABU.                      No:  Customer Abuse 
 CGEO.           Achmad Gazali:  Customer Geo 
 COMM.                     üQb:  Run Comments 1 
 TCS .hr               88.2729:  Time Ciculation Ended 
 CV  .fpm             378.0000:  Crit Velocity 
 CVMX.fpm             380.0000:  Max Crit Veloc 
 DD1 .          Yudi Kurniawan:  Direct Drillr 1 
 DD2 .               Aminuddin:  Direct Drillr 2 
 DDSV.               Geo-Pilot:  DD Service 
 DEFF.%               100.0000:  % Det Eff 
 DLRX.°/100'            0.5000:  Dogleg Rot Max 
 DLSO.°/100'            1.1000:  Dogleg Oriented 
 DLSX.°/100'            2.1900:  Dogleg Str Max 
 DRET.      10.25.00 13-May-24:  Drill End Time 
 DRST.      23.00.00 09-May-24:  Drill Start Tim 
 DTIM.hr               52.9642:  Time Drilling 
 EDEP.m              2734.0000:  End Depth 
 ENG1.      Andika BP Pulungan:  Engineer 1 
 ENG2.         Edward Joshua M:  Engineer 2 
 ENG3.       Pandamama Siahaan:  Engineer 3 
 ENG4.        Siti Nurfitriani:  Engineer 4 
 ETIM.      18.45.00 14-May-24:  End Time 
 FLOI.gpm             550.0000:  Flow In 
 FLON.gpm             400.0000:  Flow In Min 
 FLOS.mptm              4.2000:  Fluid Loss 
 FLOX.gpm             600.0000:  Flow In Max 
 DFT .                 Polymer:  Mud Type 
 HPRE.                      No:  High Pressure 
 HTEM.                      No:  High Temp 
 HYDO.m                 0.0000:  Hydro Offset 
 IFIN.deg              25.6000:  Inc, Final 
 IMAX.deg              26.9023:  Inc Max 
 IMIN.deg              20.4496:  Inc Min 
 IMND.m              2580.0901:  Inc Min Depth 
 IMXD.m              2034.3999:  Inc Max Depth 
 JARR.                      No:  Jarring 
 LETM.      10.25.00 13-May-24:  Log End Time 
 LOST.hr                     0:  Lost Rig Time 
 LSTM.      23.00.00 09-May-24:  Log Start Time 
 MDCL.ppm           42000.0000:  Mud Chlorides 
 MDES.             Fresh Water:  Mud Desc 
 DFD .SG                1.3000:  Mud Density 
 MDMN.SG                1.2500:  Dens Mud Min 
 MDMX.SG                1.3000:  Dens Mud Max 
 PH  .pH               10.0000:  Mud pH 
 MOIL.                       0:  Run Mud Oil % 
 MOWR.                   0 100:  Run Mud OWR 
 MSND.                     0.2:  Run Mud Sand % 
 MSOL.                     8.9:  Run Mud Solids% 
 DFV .spqt             80.0000:  Mud Viscosity 
 MWOD.in                6.7500:  MWD Tool OD 
 MWSI.                      No:  Serv Intrp, MWD 
 OTIM.hr              124.1140:  Time Operating 
 PMAX.psig           3200.0000:  Press Op, Max 
 PV  .cP               24.0000:  Mud PV 
 RMS .ohmm              0.0800:  Mud Resistivity 
 RMCS.ohmm              0.1050:  Mud Cake Resistivity 
 MCST.degF             81.0000:  Mud Cake Sample Temperature 
 RMFS.ohmm              0.0500:  Mud Filtrate Resistivity 
 RMFT.degF             81.0000:  Mud Filtrate Sample Temperature 
 RMMT.ohmm              0.0525:  Rm @ Max Temp 
 MST .degF             82.0000:  Mud Sample Temperature 
 RUN .                     500:  Run Number 
 ROPA.m/hr             30.0000:  ROP Avg 
 ROPN.m/hr              5.0000:  ROP Min 
 ROPX.m/hr             40.0000:  ROP Max 
 RPMA.rpm             120.0000:  RPM Surface Avg 
 RPMN.rpm              80.0000:  RPM Surface Min 
 RPMX.rpm             130.0000:  RPM Surface Max 
 RRUN.                     500:  Rig Run Number 
 RTIM.hr               10.0000:  Time Reaming 
 SAZI.deg             296.4800:  Azm, Start 
 SDEP.m              1782.9999:  Start Depth 
 SIDD.                      No:  Serv Intrp, DD 
 SINC.deg              23.5300:  Inc, Start 
 SPPA.psig           3000.0000:  SPP Avg 
 SPPN.psig           2000.0000:  SPP Min 
 SPPX.psig           3100.0000:  SPP Max 
 STIM.      10.00.00 09-May-24:  Start Time 
 SVCS.                 DD, MWD:  Services 
 SVER.                  9.2000:  Sperry Version 
 TDAT.m               951.0001:  Tot Depth Attmp 
 TDDF.                      No:  Trip for DD 
 TDLG.m               951.0001:  Tot Depth Loggd 
 TFF .                      No:  Trip for Fail 
 TQAA.f-p           15000.0000:  Torque Abs Avg 
 TQAN.f-p            7000.0000:  Torque Abs Min 
 TQAX.f-p           18000.0000:  Torque Abs Max 
 TRRT.°/100'            0.2000:  Turn Rotating 
 MRT .                  EWR-P4:  Maximum Recorded Temperature 
 TTMX.degC            101.9000:  Max Tool Temp 
 VS01.        JK90757141L2N1-6:  Virtual Str1 SN 
 VS02.     DR90758460H1WGV2R-6:  Virtual Str2 SN 
 WBMN.klb               5.0000:  WOB Min 
 WITN.            Eko Agustian:  Customer Rep 2 
 WITN.            Bagus Ardika:  Customer Rep 
 WOBA.klb              20.0000:  WOB Avg 
 WOBX.klb              30.0000:  WOB Max 
 YP  .lhf2             30.0000:  Yield Point 
~Curve Information Block
#MNEM.UNIT                 API CODE     Curve Description
#---------               -----------    ---------------------------
 DEPT.M                 00 000 000 000:  Depth
 TVD .m                 00 000 000 000:  True Vertical Depth
 ROPA.m/hr              00 000 000 000:  Avg Rate of Penetration
 DGRCC.api              00 000 000 000:  DGR Comb Gamma Ray BCorr
 DGDD.ptpm              00 000 000 000:  DGR Data Density
 R09PC.ohmm             00 000 000 000:  9in Phase Resistivity BC
 R15PC.ohmm             00 000 000 000:  15in Phase Resistivity BC
 R27PC.ohmm             00 000 000 000:  27in Phase Resistivity BC
 R39PC.ohmm             00 000 000 000:  39in Phase Resistivity BC
 EWDD.ptpm              00 000 000 000:  EWR Data Density
 EWXT.hr                00 000 000 000:  EWR Formation Exp Time
 EWTEMP.degC            00 000 000 000:  EWR Temperature
 ALCDLC.g/cc            00 000 000 000:  ALD LCRB Comp Density
 ALDD.ptpm              00 000 000 000:  ALD Data Density
 TNPL.v/v               00 000 000 000:  CTN Porosity Limestone
 TNPS.v/v               00 000 000 000:  CTN Porosity Sandstone
 TNDD.ptpm              00 000 000 000:  CTN Data Density
#Other Information
#Environmental Parameters (and sensors to which they are applied)
#Hole Size 		: 8.5" (all sensors)
#Tool Size 			: 6.75"
#Mud Type 		: WBM (Gamma Ray)
#Mud Weight 		: 1.25 - 1.30 SG (Gamma Ray)
#KCl Concentration by Weight 	: 4.21 - 5.05 pbw (Gamma Ray)
#Mud Resistivity at BHT 	: 0.07  ohmm @101.9 degC (Resistivity)
#Fluid Density 		: 1.00 g/cc (Density)
#Neutron Tool Lithology	: Limestone (Porosity)
#Whole Mud Chlorides 	: 28800 - 33426 ppm (Porosity)
#Formation Water Salinity 	: 20000 ppm Cl- (Porosity)
#Pressure and Temperature 	: from PWD and EWR (Density, Porosity)
#
#Comments:
#1) All depth are calibrated to the drillers pipe tally and are measured from drill floor.
#2) No depth correction have been made for pipe stretch or compression.
#3) LWD Resistivity Tool utilized in this run is EWRP4, with spacing configuration as below:
#    - Deep Resistivity = 39in Spacing / 1 Mhz Frequency
#    - Medium Resistivity = 27in Spacing / 2 MHz Frequency
#    - Shallow Resistivity = 15in Spacing / 2 MHz Frequency
#    - XShallow Resistivity = 9in Spacing /2 MHz Frequency
#4) CTN Alloy type used for CTN data processing is Mid Nickle.
#5) Density reading might be affected by detector standoff to borehole wall while sliding.
#6) All data presented is Memory data unless otherwise stated.
#WARRANTY: Halliburton will use its best efforts to furnish customers with 
#accurate information and interpretations that are part of, and incident to, the services 
#provided.  However, Halliburton cannot and does not warrant the accuracy 
#or correctness of such information and interpretations.  Under no circumstances should any 
#such information or interpretation be relied upon as the sole basis for any drilling, 
#completion, production, or financial decision or any procedure involving any risk to the 
#safety of any drilling venture, drilling rig or its crew or any other third party.  The 
#Customer has full responsibility for all drilling, completion and production operation.  
#Halliburton makes no representations or warranties, either expressed or 
#implied, including, but not limited to, the implied warranties of merchantability or fitness 
#for a particular purpose, with respect to the services rendered.  In no event will 
#Halliburton be liable for failure to obtain any particular results or for 
#any damages, including, but not limited to, indirect, special or consequential damages, 
#resulting from the use of any information or interpretation provided by Halliburton.
#
~A   DEPT       TVD      ROPA      DGRCC     DGDD      R09PC     R15PC     R27PC     R39PC     EWDD      EWXT     EWTEMP    ALCDLC      ALDD      TNPL      TNPS       TNDD    
# ...
   2045.1000 1907.6158   33.7303  189.8901   15.2817    3.3669    3.3626    3.3950    4.0058   10.0355    0.6943   87.8906    2.6994    14.3287    0.2347    0.2759    14.9159
   2045.2500 1907.7487   32.9050  184.7410   14.6560    3.4056    3.5170    3.6413    4.3299   10.3986    0.6941   87.8906    2.7163    13.3170    0.2542    0.2954    14.6125
   2045.4000 1907.8839   32.6181  196.6906   14.6862    3.7596    4.0835    4.3961    5.1036   10.9020    0.6939   87.8906    2.6776    11.9136    0.3089    0.3508    15.0579
   2045.5500 1908.0161   33.0463  191.5939   15.1440    5.3892    5.9699    6.4503    7.0081   13.1720    0.6946   87.8906    2.5949    10.9659    0.3494    0.3928    14.9779
   2045.7000 1908.1538   34.2163  160.7569   12.6491    8.8782    8.4202    8.5378    8.3333   12.7233    0.6957   87.8906    2.1907    12.1278    0.3780    0.4227    49.8877
   2045.8500 1908.2880   35.5105   80.1971    9.1111   13.6804   10.6110    9.4538    8.6159   13.8883    0.6972   87.8906    1.6851    12.7056    0.3494    0.3930   168.2137
   2046.0000 1908.4246   36.1239   87.7915   14.7127    9.6997    9.8011    8.0935    7.3797   14.4105    0.6989   87.8906    2.0800    11.2551    0.3176    0.3599    43.8151
   2046.1500 1908.5676   35.1397  100.0936   14.7073   10.2737   10.9037    9.0165    7.5638   12.5201    0.6998   87.8906    2.4351    14.7649    0.2338    0.2753    10.1376
   2046.3000 1908.6848   30.6083   93.2937   14.5469    7.6315    7.9586    7.3565    6.6482   12.1624    0.6998   87.8906    2.4355    25.1636    0.1826    0.2248    10.4289
   2046.4500 1908.8293   29.6999   88.1457   15.1243    4.9719    5.4843    5.5417    5.7943   15.4006    0.7006   87.8906    2.3755    22.4236    0.1618    0.2043    11.0039
   2046.6000 1908.9611   33.5063   63.8843   14.7503    4.4066    5.0631    5.4046    6.1937   12.4627    0.7017   87.8906    2.3050    19.5910    0.1585    0.2012    11.0966
   2046.7500 1909.0996   34.5623   52.1888   14.7595    4.2852    5.4019    6.0324    7.2043   10.8709    0.7021   87.8906    2.2821    18.5533    0.1449    0.1878    10.6584
   2046.9000 1909.2316   34.1896   45.2276   15.2681    4.7995    6.3154    7.4280    8.7185   10.7993    0.7020   87.8906    2.3158    19.0195    0.1355    0.1784    10.7975
   2047.0500 1909.3684   34.3639   42.7731   14.5696    6.2677    8.0395    9.3915   10.4370   10.1299    0.7017   87.8906    2.4018    24.9781    0.1376    0.1805    10.9425
   2047.2000 1909.5126   34.4106   62.3526   14.7753    8.0060    9.3084   10.0491   11.1602    9.7287    0.7006   87.8906    2.4767    17.7308    0.1482    0.1910    10.6089
   2047.3500 1909.6353   29.4508   90.5599   15.0787   10.9259   11.5397   11.1051   11.6821   10.5445    0.6997   87.8906    2.4955    17.7410    0.1505    0.1932    10.1574
   2047.5000 1909.7701   25.5182  102.1188   14.6812   14.1046   13.6367   11.5798   11.6627   11.8875    0.6990   87.8906    2.5241    19.8552    0.1469    0.1897    10.1358
   2047.6500 1909.9050   26.9737  117.5753   14.6181   12.2224   12.7899   10.9954   10.8585   11.6655    0.6985   87.8906    2.5628    20.2574    0.1502    0.1929    10.9266
   2047.8000 1910.0417   30.0196  133.4485   15.1309   11.0247   11.8461   10.8530   10.6538   12.1936    0.6987   87.8906    2.5975    13.3277    0.1567    0.1994    10.7164
   2047.9500 1910.1797   31.6213  146.4436   29.7339   10.4596   11.0660   10.7299   10.6576   12.5397    0.6991   87.8906    2.5970    10.7887    0.1702    0.2126    10.1438
   2048.1000 1910.3083   31.5146  157.7470  148.1833    9.8885   10.3603   10.4997   10.7229   14.2516    0.7002   87.8906    2.5977    10.6887    0.1815    0.2236     9.9836
   2048.2500 1910.4502   32.3937  159.9852   51.6282    9.7556   10.1113   10.3191   10.8537   15.1508    0.7018   87.8906    2.6035    10.7769    0.1789    0.2211     9.8010
   2048.4000 1910.5823   32.9327  149.0709   15.5377    9.5268    9.7279    9.9816   10.6687   14.9063    0.7032   87.8906    2.6109    11.1680    0.1779    0.2202     9.7772
   2048.5500 1910.7169   32.1580  148.4801   25.3896    9.2756    9.6313    9.5953   10.2826   14.6087    0.7044   87.8906    2.6088    11.5019    0.1774    0.2196    10.6116
   2048.7000 1910.8539   32.3210  155.9258   22.4831    8.8456    8.8992    8.9459    9.6604   15.0482    0.7061   87.8906    2.6067    11.2091    0.1865    0.2286    12.5646
   2048.8500 1910.9874   32.3096  154.1239   15.4703    8.3336    8.2682    8.2971    9.0245   14.9122    0.7077   87.8906    2.6067    11.5901    0.1959    0.2378    13.4272
   2049.0000 1911.1219   32.1039  160.2130   14.5959    7.6217    7.6748    7.5623    8.2839   14.5696    0.7092   87.8906    2.6059    11.4462    0.2004    0.2423    14.4701
   2049.1500 1911.2596   32.5546  152.1618   15.1048    6.7777    6.9403    6.8091    7.5019   14.9134    0.7109   87.8906    2.6123    11.6173    0.1988    0.2406    13.5119
   2049.3000 1911.3914   32.4582  157.9467   15.0311    6.0259    6.1271    6.1906    6.8336   14.8962    0.7124   87.8906    2.6233    11.3759    0.2071    0.2488    11.8867
   2049.4500 1911.6130   19.4906  153.7200   14.7230    5.6060    5.7049    5.8178    6.4910   14.2735    0.7137   87.8906    2.6172    11.0902    0.2104    0.2521    11.0359
   2049.6000 1911.6747   10.3143  156.7016   14.7224    5.3310    5.5012    5.6986    6.1680    8.7491    0.6775   87.8906    2.6288    11.2568    0.2187    0.2602    11.9684
   2049.7500 1911.7147    8.0383  159.4623   15.1906    5.3788    5.3468    5.4136    5.9007   13.9318    0.6570   87.8906    2.6179    10.7065    0.2337    0.2750    12.5993
   2049.9000 1911.9354   15.5314  144.9037   14.7357    4.6506    4.6083    4.5532    5.0208   14.5869    0.6505   87.8906    2.6496    10.9213    0.2396    0.2809    11.2213
   2050.0500 1912.0688   34.5213  147.8131   17.3891    4.2145    4.1861    4.1398    4.5516   15.1133    0.6523   87.8906    2.6530    10.6373    0.2371    0.2784    21.4721
   2050.2000 1912.2041   35.5836  169.0113   39.4447    3.9185    3.9951    3.9696    4.3495   14.8202    0.6542   87.8906    2.6519    10.2615    0.2389    0.2802    26.4486
   2050.3500 1912.3423   35.5829  174.7507   21.1766    3.8193    3.8453    3.8800    4.2676   14.6664    0.6563   87.8906    2.6490    10.0489    0.2384    0.2796    22.2474
   2050.5000 1912.4738   34.3684  179.7121   10.0836    3.7891    3.7897    3.8246    4.2054   15.0428    0.6581   87.8906    2.6664     9.8552    0.2438    0.2849    19.4348
   2050.6500 1912.6122   33.2294  174.9230   10.3921    3.7823    3.7651    3.7879    4.1463   14.8416    0.6596   87.8906    2.6771    10.2148    0.2314    0.2726    18.4342
   2050.8000 1912.7439   32.5815  154.6931   10.9788    3.7911    3.7534    3.7336    4.0673   14.4886    0.6610   87.8906    2.6734     9.9639    0.2288    0.2700    18.9378
   2050.9500 1912.8798   32.9441  162.1475   10.8470    3.7366    3.7102    3.6495    3.9669   15.0315    0.6625   87.8906    2.6693    11.4191    0.2363    0.2775    25.1774
   2051.1000 1913.0176   34.0040  183.6452   10.8487    3.6466    3.6126    3.5476    3.8074   14.7438    0.6642   87.8906    2.6785    11.9485    0.2378    0.2790    18.3336
   2051.2500 1913.1505   33.8362  177.3428   10.7375    3.5850    3.5991    3.5418    3.7699   14.6967    0.6661   87.8906    2.6641    12.1949    0.2433    0.2845    17.8220
   2051.4000 1913.2880   33.7703  162.4764    9.0517    3.6530    3.6865    3.6564    3.8702   15.2621    0.6678   87.8906    2.6550    14.0832    0.2419    0.2831    19.7450
   2051.5500 1913.4270   33.1414  169.7684    5.7038    3.7196    3.7007    3.6646    3.8916   14.6550    0.6691   87.8906    2.6798    14.4622    0.2428    0.2840    20.0671
   2051.7000 1913.5541   30.4459  167.2618    9.9621    3.7055    3.6699    3.6058    3.8673   14.7875    0.6706   87.8906    2.7262    12.7978    0.2461    0.2872    14.2538
   2051.8500 1913.6934   29.9394  173.6261   10.2064    3.7919    3.7617    3.6834    3.9722   75.0677    0.6794   87.8906    2.6654    12.0529    0.2547    0.2958    10.1862
