~VERSION INFORMATION 
VERS  .    2.0                                     :CWLS Log ASCII Standard - VERSION 2.0
WRAP  .    NO                                      :One Line per Depth step
PROD  .    Schlumberger Technology Corp.           :LAS Producer
PROG  .    Horizon LASWriter 13.0.221437.3100      :LAS Program name and version
SOURCE.    S1R1-Log[3]/Up                          :Run&Pass Information
CREA  .    05/17/2024                              :LAS Creation date {MM/DD/YYYY}
#--------------------------------------------------
~WELL INFORMATION 
#MNEM           .UNIT                      DATA            :DESCRIPTION
#----            ------          --------------            -----------------------------
STRT            .m                   1744.98000            :START DEPTH
STOP            .m                   2740.91400            :STOP DEPTH
STEP            .m                       0.1524            :STEP
NULL            .                       -999.25            :NULL VALUE
COMP            .                PT Pertamina EP           :COMPANY
WELL            .                BNG-056 (BNG-B3)          :WELL NAME
FLD             .                    Prabumulih            :FIELD NAME
RIGN            .                                          :Rig Name
RIGTYP          .                          Land            :Rig Type
SON             .                A.1009322.16.02           :Service Order Number
SRVC            .                  Schlumberger            :SERVICE COMPANY
DATE            .                    05/17/2024            :LOG DATE(Composite Date for Composite LAP) (MM/DD/YYYY)
CLAB            .                     Rig Name:            :County Label
CNTY            .                PDSI#39.3/D1500-E         :COUNTY
SLAB            .                     Province:            :State/Province Label
STAT            .                 South Sumatra            :STATE or PROVINCE
PROV            .                 South Sumatra            :STATE or PROVINCE
CTRY            .                     Indonesia            :COUNTRY
CONT_REGION     .                          Asia            :Continent Region
SECT            .                                          :Section
TOWN            .                                          :Township
RANG            .                                          :Range
API             .                                          :API NUMBER
UWI             .                                          :UNIQUE WELL ID
LUL             .                ING/IDPRA-WLES            :Logging Unit Location
LUN             .                  OSLC-AA 2175            :Logging Unit Number
LOC             .                         Adera            :FIELD LOCATION
FL1             .                 X: 389146.04             :Field Location Line 1
FL2             .                Y: 9628977.87             :Field Location Line 2
LATI            .deg             3° 21' 22.33" S           :LATITUDE
LONG            .deg             104° 0' 7.68" E           :LONGITUDE
PDAT            .                           MSL            :Local Permanent Datum
LMF             .                            DF            :Logging Measured From
APD             .m                        34.37            :Elevation of Depth Reference (LMF) Above Permanent Datum
EPD             .m                         0.00            :Elevation of Permanent Datum (PDAT) above Mean Sea Level
EKB             .m                        34.37            :Elevation of Kelly Bushing Above Permanent Datum
EDF             .m                        34.37            :Elevation of Drill Floor Above Permanent Datum
EGL             .m                        25.23            :Elevation of Ground Level Above Permanent Datum
ECF             .m                      -999.25            :Elevation of Casing Flange above Permanent Datum
#--------------------------------------------------
~CURVE INFORMATION
#MNEM           .UNIT                  API CODE            :DESCRIPTION
#----            ------          --------------            -----------------------------
DEPT            .m                                         :                                                        Depth Index
GR_CAL          .gAPI                                      :        (EDTC-B)                (6in)                   Calibrated Gamma Ray
TENS            .lbf                                       :        (WLWorkflow)            (6in)                   Cable Tension
DT              .us/ft                                     :        (DSLT-H)                (6in)                   Delta-T (also called Slowness or Interval Transit Time)
#-------------------------------------------------------------
#            DEPT       GR_CAL         TENS           DT 
#                     (EDTC-B)  (WLWorkflo)     (DSLT-H) 
#                                                        
#                        (6in)        (6in)        (6in) 
~ASCII
# ...
       2067.30600    182.43960   3421.27289     78.05239
       2067.45840    183.07350   3411.59936     79.34776
       2067.61080    179.07080   3394.99946     80.91852
       2067.76320    179.36330   3394.27333     83.75998
       2067.91560    185.74920   3400.19929     86.27327
       2068.06800    191.30540   3411.45548     87.97714
       2068.22040    189.98900   3421.90909     90.12073
       2068.37280    193.08470   3417.30051     98.68830
       2068.52520    201.82570   3428.18126    109.71194
       2068.67760    204.83920   3506.99928    110.70839
       2068.83000    196.96620   3597.70070    106.43832
       2068.98240    177.81030   3669.99925     94.71809
       2069.13480    159.75780   3585.72737     80.21300
       2069.28720    147.80520   3521.00038     70.98161
       2069.43960    132.94360   3493.90865     70.89892
       2069.59200    118.12870   3474.09175     71.07610
       2069.74440    103.29510   3461.99927     72.58004
       2069.89680    101.00090   3481.18222     73.79363
       2070.04920    112.66420   3475.45409     74.23547
       2070.20160    128.73710   3468.81773     73.81174
       2070.35400    136.94190   3471.20070     73.43126
       2070.50640    143.09540   3443.36261     73.47484
       2070.65880    146.81770   3452.45389     73.31745
       2070.81120    157.06570   3439.72745     73.46683
       2070.96360    161.97800   3443.89991     74.02065
       2071.11600    166.44520   3435.91020     74.20386
       2071.26840    172.76830   3421.00087     74.28455
       2071.42080    176.40530   3422.79934     75.08050
       2071.57320    177.76320   3445.99962     75.30151
       2071.72560    177.69510   3440.63568     75.82080
       2071.87800    178.34080   3435.54601     76.07058
       2072.03040    178.08080   3454.00057     75.83424
       2072.18280    174.83650   3420.36466     76.04288
       2072.33520    177.28220   3440.36366     76.24999
       2072.48760    177.75230   3452.72815     76.42253
       2072.64000    184.76320   3468.50075     76.88888
       2072.79240    181.49330   3494.90905     77.07374
       2072.94480    180.36270   3460.90895     77.22599
       2073.09720    176.97950   3481.18222     77.44502
       2073.24960    174.61910   3487.09020     77.45349
       2073.40200    177.06440   3477.00077     77.48360
       2073.55440    169.77260   3478.18102     77.50128
       2073.70680    167.04230   3475.45409     77.86113
       2073.85920    161.40210   3445.45558     78.59137
       2074.01160    159.80160   3464.45419     80.02902
       2074.16400    161.22180   3459.72645     81.42802
       2074.31640    171.50940   3451.54566     82.24595
       2074.46880    180.55430   3456.27339     84.13778
       2074.62120    185.72360   3440.27374     87.38470
       2074.77360    185.82170   3431.09029     92.47409
       2074.92600    188.73380   3417.27353    102.91033
       2075.07840    197.85570   3417.18136    109.86614
       2075.23080    193.51470   3422.45538    105.98685
       2075.38320    191.56100   3428.99957    100.81815
       2075.53560    176.84660   3415.72685     88.96280
       2075.68800    165.98650   3416.50019     76.56634
       2075.84040    152.39890   3384.72794     70.61430
       2075.99280    150.89880   3393.18301     71.98190
       2076.14520    141.76970   3418.72805     73.94363
       2076.29760    125.46730   3414.18241     74.31100
       2076.45000    100.49580   3432.27279     75.44763
       2076.60240     87.03230   3414.09923     77.44617
       2076.75480     73.69637   3393.36285     76.44768
       2076.90720     67.73517   3408.27218     76.34365
       2077.05960     60.90713   3422.59926     76.89726
       2077.21200     64.14301   3421.72700     75.50868
       2077.36440     64.20787   3444.18092     75.30413
       2077.51680     64.72442   3439.72745     75.32486
       2077.66920     68.14547   3455.90021     74.44786
       2077.82160     74.61281   3460.72685     74.89366
       2077.97400     90.59295   3440.45358     74.76400
       2078.12640     94.03950   3458.89916     75.25747
       2078.27880     89.53172   3456.27339     76.29077
       2078.43120     72.03754   3460.36266     75.74338
       2078.58360     58.26484   3493.40059     76.50763
       2078.73600     54.91749   3471.18272     76.10454
       2078.88840     54.79806   3475.08990     75.12793
       2079.04080     57.63260   3448.90865     75.36933
       2079.19320     58.22261   3425.80054     74.16448
       2079.34560     55.96885   3453.18227     73.29690
       2079.49800     57.78442   3461.99927     73.89080
       2079.65040     55.85024   3467.63748     73.54696
       2079.80280     52.83449   3458.81823     73.53846
       2079.95520     46.72501   3423.90989     73.59823
       2080.10760     42.58356   3402.40017     73.46415
       2080.26000     44.98500   3409.81887     73.17032
       2080.41240     50.32837   3396.18196     73.02651
       2080.56480     50.83688   3440.50079     73.63803
       2080.71720     50.15735   3456.18122     73.98962
       2080.86960     50.04762   3412.90999     74.02473
       2081.02200     52.65976   3399.79914     73.83820
       2081.17440     54.39187   3414.36451     73.20668
       2081.32680     51.33535   3462.09145     72.86915
       2081.47920     48.98049   3445.09139     72.54060
       2081.63160     45.81002   3394.39922     72.93105
       2081.78400     43.77332   3386.27238     72.82480
       2081.93640     43.95544   3403.54445     72.85071
       2082.08880     42.18355   3404.40097     72.78575
       2082.24120     45.99946   3421.99902     72.58995
       2082.39360     47.74265   3415.45483     72.42880
       2082.54600     51.66774   3404.36276     72.51610
       2082.69840     50.46949   3404.49989     72.40448
       2082.85080     47.38409   3401.81792     72.07075
       2083.00320     44.69445   3383.72754     71.95868
       2083.15560     42.04378   3411.09129     71.96288
       2083.30800     45.31446   3397.90849     71.89421
       2083.46040     44.29805   3403.00041     72.26558
       2083.61280     44.91561   3421.90909     72.42591
       2083.76520     42.40494   3407.63597     72.52149
       2083.91760     42.22235   3409.72670     72.43270
       2084.07000     40.40701   3445.90970     72.54179
       2084.22240     40.51661   3485.81778     72.51585
       2084.37480     43.49305   3466.90910     72.84842
       2084.52720     44.76060   3402.81832     73.21567
       2084.67960     45.88828   3413.45403     73.56900
       2084.83200     48.83915   3390.27173     73.71740
       2084.98440     48.58633   3364.60080     73.58451
       2085.13680     49.74991   3388.99931     73.65538
       2085.28920     47.79750   3438.27294     72.94998
       2085.44160     50.37442   3437.09044     72.26747
       2085.59400     48.12284   3379.45393     71.78881
       2085.74640     45.08355   3372.36345     70.96652
       2085.89880     44.10181   3356.81791     71.29671
       2086.05120     44.82975   3377.30026     71.62398
       2086.20360     46.66705   3378.18151     71.61465
       2086.35600     50.70004   3378.45577     71.09719
       2086.50840     53.97130   3416.72725     69.93337
       2086.66080     57.36556   3399.50014     69.75418
       2086.81320     56.09565   3398.27268     70.36406
       2086.96560     55.00817   3371.09103     70.63322
       2087.11800     52.21478   3364.09947     71.50584
       2087.27040     51.55799   3371.18096     71.74852
       2087.42280     46.21387   3367.18161     71.70475
       2087.57520     44.44420   3363.20024     72.94699
       2087.72760     41.06796   3387.63697     73.52309
       2087.88000     43.10342   3375.36465     73.92388
       2088.03240     43.81997   3365.27298     74.39629
       2088.18480     45.45481   3378.50074     74.42094
       2088.33720     43.59308   3354.54509     74.61553
       2088.48960     45.18913   3380.45433     74.92959
       2088.64200     40.75913   3358.20049     75.15131
