~VERSION INFORMATION 
VERS  .    2.0                                     :CWLS Log ASCII Standard - VERSION 2.0
WRAP  .    NO                                      :One Line per Depth step
PROD  .    Schlumberger Technology Corp.           :LAS Producer
PROG  .    Horizon LASWriter 13.0.221437.3100      :LAS Program name and version
SOURCE.    S1R1-Log[4]/Up                          :Run&Pass Information
CREA  .    07/28/2024                              :LAS Creation date {MM/DD/YYYY}
#--------------------------------------------------
~WELL INFORMATION 
#MNEM           .UNIT                      DATA            :DESCRIPTION
#----            ------          --------------            -----------------------------
STRT            .m                   1495.04400            :START DEPTH
STOP            .m                   2360.37120            :STOP DEPTH
STEP            .m                       0.1524            :STEP
NULL            .                       -999.25            :NULL VALUE
COMP            .                PT Pertamina EP           :COMPANY
WELL            .                BNG-059 (BNG-H1)          :WELL NAME
FLD             .                         Adera            :FIELD NAME
RIGN            .                                          :Rig Name
RIGTYP          .                          Land            :Rig Type
SON             .                A.1009322.17.2            :Service Order Number
SRVC            .                  Schlumberger            :SERVICE COMPANY
DATE            .                    07/28/2024            :LOG DATE(Composite Date for Composite LAP) (MM/DD/YYYY)
CLAB            .                     Rig Name:            :County Label
CNTY            .                South Sumatera            :COUNTY
SLAB            .                     Province:            :State/Province Label
STAT            .                 South Sumatra            :STATE or PROVINCE
PROV            .                 South Sumatra            :STATE or PROVINCE
CTRY            .                     Indonesia            :COUNTRY
CONT_REGION     .                          Asia            :Continent Region
SECT            .                                          :Section
TOWN            .                                          :Township
RANG            .                                          :Range
API             .                                          :API NUMBER
UWI             .                                          :UNIQUE WELL ID
LUL             .                      ING/IDPR            :Logging Unit Location
LUN             .                   OSLC-E 2349            :Logging Unit Number
LOC             .                         Adera            :FIELD LOCATION
FL1             .                X: 397,029.172            :Field Location Line 1
FL2             .                Y: 9,625,078.797          :Field Location Line 2
LATI            .deg             3° 23' 29.559" S          :LATITUDE
LONG            .deg             104° 4' 22.998" E         :LONGITUDE
PDAT            .                           MSL            :Local Permanent Datum
LMF             .                            DF            :Logging Measured From
APD             .m                        25.78            :Elevation of Depth Reference (LMF) Above Permanent Datum
EPD             .m                         0.00            :Elevation of Permanent Datum (PDAT) above Mean Sea Level
EKB             .m                        25.78            :Elevation of Kelly Bushing Above Permanent Datum
EDF             .m                        25.78            :Elevation of Drill Floor Above Permanent Datum
EGL             .m                        16.64            :Elevation of Ground Level Above Permanent Datum
ECF             .m                      -999.25            :Elevation of Casing Flange above Permanent Datum
#--------------------------------------------------
~CURVE INFORMATION
#MNEM           .UNIT                  API CODE            :DESCRIPTION
#----            ------          --------------            -----------------------------
DEPT            .m                                         :                                                        Depth Index
HTEN            .lbf                                       :        (LEH-QT)                (6in)                   Head Tension
GR_CAL          .gAPI                                      :        (SGT-N)                 (6in)                   Calibrated Gamma Ray
DT_BHC          .us/ft                                     :        (MAST-B)                (6in)                   1.5 Feet Span Borehole Compensated Slowness from Near Spacing
BS              .in                                        :(RT)    (Borehole)              (6in)                   Bit Size
#-------------------------------------------------------------
#            DEPT         HTEN       GR_CAL       DT_BHC           BS 
#                     (LEH-QT)      (SGT-N)     (MAST-B)   (Borehole) 
#                                                                (RT) 
#                        (6in)        (6in)        (6in)        (6in) 
~ASCII
# ...
       1547.62200    552.95761     62.41825     45.00000     12.25000
       1547.77440    541.07241     64.02605     37.27930     12.25000
       1547.92680    545.18507     64.71384     38.41084     12.25000
       1548.07920    551.28481     63.58838     49.99573     12.25000
       1548.23160    545.18507     62.11456     50.00000     12.25000
       1548.38400    546.00112     62.42719     51.24267     12.25000
       1548.53640    552.49653     65.29443     46.25794     12.25000
       1548.68880    556.09932     63.95459     50.74999     12.25000
       1548.84120    553.42701     60.42638     50.00000     12.25000
       1548.99360    551.97857     57.88069     52.24940     12.25000
       1549.14600    555.54853     59.62248     51.75342     12.25000
       1549.29840    566.22494     60.02443     49.99769     12.25000
       1549.45080    556.69101     63.64197     53.41333     12.25000
       1549.60320    552.65165     62.03417     50.00000     12.25000
       1549.75560    561.70965     59.89044     52.75000     12.25000
       1549.90800    559.87363     56.20144     52.50000     12.25000
       1550.06040    557.85395     55.53152     51.08448     12.25000
       1550.21280    563.27364     57.13932     45.50000     12.25000
       1550.36520    564.66768     59.35452     50.74938     12.25000
       1550.51760    559.83272     59.82791     51.66893     12.25000
       1550.67000    555.85450     62.50758     52.25244     12.25000
       1550.82240    557.62937     61.30173     50.00000     12.25000
       1550.97480    567.86244     59.08654     52.99268     12.25000
       1551.12720    565.72856     60.96231     54.50001     12.25000
       1551.27960    559.09827     59.82792     52.08203     12.25000
       1551.43200    557.50707     62.37360     48.49999     12.25000
       1551.58440    561.82655     61.56969     50.00000     12.25000
       1551.73680    558.48634     62.03417     50.74999     12.25000
       1551.88920    554.48789     61.23027     49.25001     12.25000
       1552.04160    565.59660     60.56036     49.33106     12.25000
       1552.19400    570.40031     60.72114     50.99755     12.25000
       1552.34640    569.91068     61.52504     50.62499     12.25000
       1552.49880    566.77707     59.64927     52.25000     12.25000
       1552.65120    566.32003     60.29239     52.25000     12.25000
       1552.80360    564.11690     59.89044     50.75063     12.25000
       1552.95600    556.05863     61.23027     52.25000     12.25000
       1553.10840    558.69024     58.46129     52.50488     12.25000
       1553.26080    573.66431     58.46129     50.91321     12.25000
       1553.41320    571.53717     57.12146     51.75001     12.25000
       1553.56560    572.56275     53.72722     51.83447     12.25000
       1553.71800    571.03270     51.31552     52.75000     12.25000
       1553.87040    558.85345     48.36790     52.49512     12.25000
       1554.02280    564.72883     50.76173     54.62501     12.25000
       1554.17520    574.39876     55.45113     51.33679     12.25000
       1554.32760    568.89050     62.01631     52.59406     12.25000
       1554.48000    564.07599     64.04391     56.37502     12.25000
       1554.63240    582.92352     64.98180     52.70946     12.25000
       1554.78480    589.04642     61.81980     51.66064     12.25000
       1554.93720    573.58271     65.97327     51.99757     12.25000
       1555.08960    571.80379     63.56158     54.00001     12.25000
       1555.24200    562.16781     65.38374     51.24694     12.25000
       1555.39440    553.92474     62.97205     51.74510     12.25000
       1555.54680    569.54334     63.24002     50.99999     12.25000
       1555.69920    573.72546     60.29239     50.74999     12.25000
       1555.85160    563.25993     58.55061     49.25001     12.25000
       1556.00400    558.44542     61.36425     51.49267     12.25000
       1556.15640    557.42816     62.03417     48.74755     12.25000
       1556.30880    558.79230     61.23027     47.24757     12.25000
       1556.46120    555.48739     57.54127     49.25001     12.25000
       1556.61360    551.87651     57.67525     50.00342     12.25000
       1556.76600    551.10676     56.33542     53.24999     12.25000
       1556.91840    556.42574     54.26315     51.50001     12.25000
       1557.07080    560.09395     53.32527     48.00000     12.25000
       1557.22320    560.41025     58.14866     52.50000     12.25000
       1557.37560    557.89464     62.83807     50.83741     12.25000
       1557.52800    554.83859     62.57011     50.33446     12.25000
       1557.68040    557.91510     61.11416     47.33446     12.25000
       1557.83280    563.60681     60.71221     53.49938     12.25000
       1557.98520    569.03347     61.38212     50.16895     12.25000
       1558.13760    571.19591     61.36425     52.50049     12.25000
       1558.29000    569.46174     60.02443     49.75000     12.25000
       1558.44240    572.08930     60.75687     52.50000     12.25000
       1558.59480    572.80757     58.21119     51.83447     12.25000
       1558.74720    578.31561     54.86161     51.66211     12.25000
       1558.89960    578.07079     52.38739     52.75000     12.25000
       1559.05200    571.54257     52.11942     47.50000     12.25000
       1559.20440    571.80379     51.18154     53.08449     12.25000
       1559.35680    573.05238     52.11942     50.00000     12.25000
       1559.50920    578.35653     54.45073     51.66643     12.25000
       1559.66160    580.62080     58.33624     58.25978     12.25000
       1559.81400    577.58116     60.74793     49.25022     12.25000
       1559.96640    574.39876     58.95256     51.83447     12.25000
       1560.11880    573.42219     55.46900     55.41102     12.25000
       1560.27120    566.52416     53.19128     50.74999     12.25000
       1560.42360    565.76925     53.86121     51.75001     12.25000
       1560.57600    563.46406     55.60299     51.75001     12.25000
       1560.72840    569.42104     52.65536     54.16552     12.25000
       1560.88080    572.62255     47.69798     52.50000     12.25000
       1561.03320    566.15682     45.71503     51.75001     12.25000
       1561.18560    561.01589     45.71503     53.24999     12.25000
       1561.33800    557.60913     49.46655     50.99999     12.25000
       1561.49040    554.26330     49.84171     52.49317     12.25000
       1561.64280    561.97470     50.91358     52.00062     12.25000
       1561.79520    561.69324     47.29603     51.66518     12.25000
       1561.94760    555.69151     45.67037     53.33384     12.25000
       1562.10000    559.60836     48.08207     55.00000     12.25000
       1562.25240    563.97415     50.89571     50.83509     12.25000
       1562.40480    562.40318     54.26315     54.66536     12.25000
       1562.55720    556.69101     53.72722     48.17236     12.25000
       1562.70960    563.52521     55.20103     52.75000     12.25000
       1562.86200    569.61416     56.80883     49.50001     12.25000
       1563.01440    565.95292     55.87095     51.50001     12.25000
       1563.16680    556.36459     54.40607     54.25245     12.25000
       1563.31920    561.22001     52.64367     52.07715     12.25000
       1563.47160    567.69114     52.73299     49.99939     12.25000
       1563.62400    568.99256     53.29091     54.50001     12.25000
       1563.77640    561.95447     51.82878     50.41889     12.25000
       1563.92880    559.87341     52.54336     53.50490     12.25000
       1564.08120    558.97597     52.11049     55.00000     12.25000
       1564.23360    558.52703     52.25341     55.00000     12.25000
       1564.38600    556.83781     49.84171     51.67360     12.25000
       1564.53840    558.36382     51.71747     49.83288     12.25000
       1564.69080    561.58713     56.32648     55.83323     12.25000
       1564.84320    557.01744     58.73819     54.00001     12.25000
       1564.99560    552.85577     59.54209     53.75977     12.25000
