~VERSION INFORMATION 
VERS  .    2.0                                     :CWLS Log ASCII Standard - VERSION 2.0
WRAP  .    NO                                      :One Line per Depth step
PROD  .    Schlumberger Technology Corp.           :LAS Producer
PROG  .    Horizon LASWriter 13.0.221437.3100      :LAS Program name and version
SOURCE.    S1R1-Log[4]/Up                          :Run&Pass Information
CREA  .    07/28/2024                              :LAS Creation date {MM/DD/YYYY}
#--------------------------------------------------
~WELL INFORMATION 
#MNEM           .UNIT                      DATA            :DESCRIPTION
#----            ------          --------------            -----------------------------
STRT            .m                   1495.04400            :START DEPTH
STOP            .m                   2360.37120            :STOP DEPTH
STEP            .m                       0.1524            :STEP
NULL            .                       -999.25            :NULL VALUE
COMP            .                PT Pertamina EP           :COMPANY
WELL            .                BNG-059 (BNG-H1)          :WELL NAME
FLD             .                         Adera            :FIELD NAME
RIGN            .                                          :Rig Name
RIGTYP          .                          Land            :Rig Type
SON             .                A.1009322.17.2            :Service Order Number
SRVC            .                  Schlumberger            :SERVICE COMPANY
DATE            .                    07/28/2024            :LOG DATE(Composite Date for Composite LAP) (MM/DD/YYYY)
CLAB            .                     Rig Name:            :County Label
CNTY            .                South Sumatera            :COUNTY
SLAB            .                     Province:            :State/Province Label
STAT            .                 South Sumatra            :STATE or PROVINCE
PROV            .                 South Sumatra            :STATE or PROVINCE
CTRY            .                     Indonesia            :COUNTRY
CONT_REGION     .                          Asia            :Continent Region
SECT            .                                          :Section
TOWN            .                                          :Township
RANG            .                                          :Range
API             .                                          :API NUMBER
UWI             .                                          :UNIQUE WELL ID
LUL             .                      ING/IDPR            :Logging Unit Location
LUN             .                   OSLC-E 2349            :Logging Unit Number
LOC             .                         Adera            :FIELD LOCATION
FL1             .                X: 397,029.172            :Field Location Line 1
FL2             .                Y: 9,625,078.797          :Field Location Line 2
LATI            .deg             3° 23' 29.559" S          :LATITUDE
LONG            .deg             104° 4' 22.998" E         :LONGITUDE
PDAT            .                           MSL            :Local Permanent Datum
LMF             .                            DF            :Logging Measured From
APD             .m                        25.78            :Elevation of Depth Reference (LMF) Above Permanent Datum
EPD             .m                         0.00            :Elevation of Permanent Datum (PDAT) above Mean Sea Level
EKB             .m                        25.78            :Elevation of Kelly Bushing Above Permanent Datum
EDF             .m                        25.78            :Elevation of Drill Floor Above Permanent Datum
EGL             .m                        16.64            :Elevation of Ground Level Above Permanent Datum
ECF             .m                      -999.25            :Elevation of Casing Flange above Permanent Datum
#--------------------------------------------------
~CURVE INFORMATION
#MNEM           .UNIT                  API CODE            :DESCRIPTION
#----            ------          --------------            -----------------------------
DEPT            .m                                         :                                                        Depth Index
HTEN            .lbf                                       :        (LEH-QT)                (6in)                   Head Tension
GR_CAL          .gAPI                                      :        (SGT-N)                 (6in)                   Calibrated Gamma Ray
DT_BHC          .us/ft                                     :        (MAST-B)                (6in)                   1.5 Feet Span Borehole Compensated Slowness from Near Spacing
BS              .in                                        :(RT)    (Borehole)              (6in)                   Bit Size
#-------------------------------------------------------------
#            DEPT         HTEN       GR_CAL       DT_BHC           BS 
#                     (LEH-QT)      (SGT-N)     (MAST-B)   (Borehole) 
#                                                                (RT) 
#                        (6in)        (6in)        (6in)        (6in) 
~ASCII
# ...
       1828.03800    566.30115    139.35360     77.75000      8.50000
       1828.19040    584.69434    142.75340     76.00042      8.50000
       1828.34280    569.13531    145.44980     71.67360      8.50000
       1828.49520    557.35195    145.44980     76.55000      8.50000
       1828.64760    545.38897    138.76740     75.14999      8.50000
       1828.80000    531.06796    137.00890     73.25060      8.50000
       1828.95240    529.22903    140.88550     76.66552      8.50000
       1829.10480    528.33406    156.71220     75.83790      8.50000
       1829.25720    530.99985    161.73770     75.83509      8.50000
       1829.40960    534.86251    164.34810     79.17287      8.50000
       1829.56200    535.93126    155.43820     79.16833      8.50000
       1829.71440    531.80219    152.56210     79.16842      8.50000
       1829.86680    527.45821    158.30660     80.91553      8.50000
       1830.01920    527.92626    163.11330     78.99998      8.50000
       1830.17160    525.91602    164.73890     79.91554      8.50000
       1830.32400    526.68172    158.87720     80.83448      8.50000
       1830.47640    529.85737    166.84910     83.24999      8.50000
       1830.62880    531.41867    166.97420     83.49999      8.50000
       1830.78120    526.90608    166.73970     85.83448      8.50000
       1830.93360    522.26040    155.71960     85.00000      8.50000
       1831.08600    523.04094    154.59410     84.25062      8.50000
       1831.23840    522.05088    147.20830     86.66256      8.50000
       1831.39080    524.08585    145.91870     87.75000      8.50000
       1831.54320    529.86928    142.16720     85.83680      8.50000
       1831.69560    536.77744    145.51680     96.49998      8.50000
       1831.84800    534.84610    149.16780    108.99999      8.50000
       1832.00040    539.34790    146.30950    108.87112      8.50000
       1832.15280    538.53994    138.53850    100.74999      8.50000
       1832.30520    530.49403    126.61400     89.08545      8.50000
       1832.45760    531.33301    112.92710     87.75000      8.50000
       1832.61000    536.33119    101.53860    107.28049      8.50000
       1832.76240    533.47522     85.62550     80.00061      8.50000
       1832.91480    529.11955     80.43108     83.99998      8.50000
       1833.06720    532.01149     82.70879     82.50000      8.50000
       1833.21960    535.68869    106.80510     80.25000      8.50000
       1833.37200    530.29777    126.51270     78.33384      8.50000
       1833.52440    529.01973    143.65220     77.33276      8.50000
       1833.67680    535.70645    139.75640     75.08446      8.50000
       1833.82920    547.38078    138.81850     74.00001      8.50000
       1833.98160    554.36019    132.31230     72.49939      8.50000
       1834.13400    560.93158    134.87020     73.49999      8.50000
       1834.28640    565.17778    134.71390     75.91321      8.50000
       1834.43880    562.72151    138.97700     77.21166      8.50000
       1834.59120    561.55408    143.58120     75.66553      8.50000
       1834.74360    551.21849    149.89050     75.83448      8.50000
       1834.89600    550.64972    147.84430     75.74999      8.50000
       1835.04840    551.03999    125.67610     77.50000      8.50000
       1835.20080    546.61305     93.44711     80.50061      8.50000
       1835.35320    547.77464     63.94647     96.25002      8.50000
       1835.50560    551.43273     54.38008    114.75001      8.50000
       1835.65800    553.57494     66.14623    132.00001      8.50000
       1835.81040    555.28843    104.51410    137.50061      8.50000
       1835.96280    560.55076    127.52350    135.25000      8.50000
       1836.11520    562.12532    139.23850    123.24999      8.50000
       1836.26760    552.09322    112.46620     99.75001      8.50000
       1836.42000    551.41138     92.54333     84.66210      8.50000
       1836.57240    550.12974     70.93796     79.25001      8.50000
       1836.72480    537.56292     60.76336     86.33448      8.50000
       1836.87720    527.82015     59.56969     87.50122      8.50000
       1837.02960    534.70672     69.17019     88.33445      8.50000
       1837.18200    542.78591     96.73822     88.33104      8.50000
       1837.33440    545.59557    123.16940     87.50000      8.50000
       1837.48680    547.00579    145.11590     81.50001      8.50000
       1837.63920    553.69611    154.66520     77.99939      8.50000
       1837.79160    551.34348    157.39360     76.66573      8.50000
       1837.94400    550.49730    156.71150     76.58323      8.50000
       1838.09640    550.89724    159.43990     84.49815      8.50000
       1838.24880    553.59270    157.90520     95.50000      8.50000
       1838.40120    552.07771    156.54100     98.91336      8.50000
       1838.55360    545.75631    137.27180     96.25002      8.50000
       1838.70600    541.24012    122.60670     89.16945      8.50000
       1838.85840    536.42651     99.07440    108.74856      8.50000
       1839.01080    528.53055     93.10607     77.00001      8.50000
       1839.16320    526.72758     86.62616     72.75000      8.50000
       1839.31560    527.43932     93.78816     75.00515      8.50000
       1839.46800    527.20957     99.07440     76.50184      8.50000
       1839.62040    525.26857    108.11220     79.25001      8.50000
       1839.77280    533.27874    118.00260     76.58447      8.50000
       1839.92520    539.33014    129.52710     75.00000      8.50000
       1840.07760    555.63846    140.81580     72.50000      8.50000
       1840.23000    560.48556    142.18000     74.25001      8.50000
       1840.38240    554.99775    143.78580     75.00000      8.50000
       1840.53480    548.28586    140.34120     79.50001      8.50000
       1840.68720    541.14570    145.11590     92.75000      8.50000
       1840.83960    537.59597    146.82110     99.15610      8.50000
       1840.99200    536.35322    152.27790    107.00001      8.50000
       1841.14440    539.88092    157.22310     93.49999      8.50000
       1841.29680    538.08875    159.09880     84.33447      8.50000
       1841.44920    537.47367    165.06720     84.24937      8.50000
       1841.60160    544.30786    172.82600     82.50000      8.50000
       1841.75400    557.00485    187.67860     85.00000      8.50000
       1841.90640    559.15807    192.11230     85.99999      8.50000
       1842.05880    559.48741    194.75540     87.25001      8.50000
       1842.21120    546.65712    190.13420     97.08544      8.50000
       1842.36360    544.13791    185.87110     95.24482      8.50000
       1842.51600    542.82884    183.48370     85.99999      8.50000
       1842.66840    547.72968    185.87110     79.66320      8.50000
       1842.82080    534.51361    186.89420     81.74998      8.50000
       1842.97320    529.16518    184.67740     92.25001      8.50000
       1843.12560    529.58040    182.97220    110.33681      8.50000
       1843.27800    526.73477    180.24380    111.50184      8.50000
       1843.43040    526.47782    183.82480    103.74999      8.50000
       1843.58280    536.61670    173.08180    102.41320      8.50000
       1843.73520    540.27771    181.60800    104.91335      8.50000
       1843.88760    541.86172    176.66280    105.24939      8.50000
       1844.04000    550.74144    181.09640    102.66554      8.50000
       1844.19240    556.32390    171.88810     99.99863      8.50000
       1844.34480    565.43721    164.89670    100.99938      8.50000
       1844.49720    564.71040    161.14510     86.50001      8.50000
       1844.64960    551.18274    157.39360     77.50000      8.50000
       1844.80200    546.61305    154.83570     71.49998      8.50000
       1844.95440    552.71482    159.78090     71.49998      8.50000
       1845.10680    552.09165    162.85030     75.00000      8.50000
       1845.25920    544.09452    166.26080     74.25001      8.50000
       1845.41160    531.24219    166.60190     71.58447      8.50000
