~Version Information
 VERS.                  2.0:   CWLS log ASCII Standard -VERSION 2.0
 WRAP.                   NO:   One line per depth step
~Well Information Block
#MNEM.UNIT     VALUE/NAME     DESCRIPTION
#---------     -----------    ---------------------------
 STRT.M              1700.1000: START DEPTH
 STOP.M              2733.9000: STOP DEPTH
 STEP.M                 0.1500: STEP DEPTH
 NULL.               -999.2500: NULL VALUE
 CNTY.         Tanjung Benuang:  COUNTY NAME
 CTRY.               Indonesia:  COUNTRY NAME
 PROV.          South Sumatera:  PROVINCE
 STAT.          South Sumatera:  STATE NAME
 FLD .                 Benuang:  FIELD NAME
 DATE.      15.00.00 14-May-24:  END TIME
 WELL.                  BNG-B3:  WELL NAME
 COMP.     PHR Region 1 Zona 4:  COMPANY
 API .                        :  API NUMBER
 SRVC.             Halliburton:  SERVICE COMPANY
 UWI .                        :  UNIQUE WELL IDENTIFIER
 LOC .                        :  LOCATION
~Parameter Information Block
#MNEM.UNIT       Value        Description
#---------     -----------    ---------------------------
 AV  .fpm             311.0000:  Ann Velocity 
 AVMX.fpm             315.0000:  Max Ann Veloc 
 AZIF.deg             294.2000:  Azm, Final 
 BHAT.        Rotary Steerable:  BHA Type 
 BROT.°/100'            0.2000:  Build Rotating 
 BS  .in                8.5000:  Bit Size 
 BSZ .in                8.5000:  Bit Size 
 BTPL.psig            496.0000:  Bit Press Loss 
 CABU.                      No:  Customer Abuse 
 CGEO.           Achmad Gazali:  Customer Geo 
 COMM.                     üQb:  Run Comments 1 
 TCS .hr               88.2729:  Time Ciculation Ended 
 CV  .fpm             378.0000:  Crit Velocity 
 CVMX.fpm             380.0000:  Max Crit Veloc 
 DD1 .          Yudi Kurniawan:  Direct Drillr 1 
 DD2 .               Aminuddin:  Direct Drillr 2 
 DDSV.               Geo-Pilot:  DD Service 
 DEFF.%               100.0000:  % Det Eff 
 DLRX.°/100'            0.5000:  Dogleg Rot Max 
 DLSO.°/100'            1.1000:  Dogleg Oriented 
 DLSX.°/100'            2.1900:  Dogleg Str Max 
 DRET.      10.25.00 13-May-24:  Drill End Time 
 DRST.      23.00.00 09-May-24:  Drill Start Tim 
 DTIM.hr               52.9642:  Time Drilling 
 EDEP.m              2734.0000:  End Depth 
 ENG1.      Andika BP Pulungan:  Engineer 1 
 ENG2.         Edward Joshua M:  Engineer 2 
 ENG3.       Pandamama Siahaan:  Engineer 3 
 ENG4.        Siti Nurfitriani:  Engineer 4 
 ETIM.      18.45.00 14-May-24:  End Time 
 FLOI.gpm             550.0000:  Flow In 
 FLON.gpm             400.0000:  Flow In Min 
 FLOS.mptm              4.2000:  Fluid Loss 
 FLOX.gpm             600.0000:  Flow In Max 
 DFT .                 Polymer:  Mud Type 
 HPRE.                      No:  High Pressure 
 HTEM.                      No:  High Temp 
 HYDO.m                 0.0000:  Hydro Offset 
 IFIN.deg              25.6000:  Inc, Final 
 IMAX.deg              26.9023:  Inc Max 
 IMIN.deg              20.4496:  Inc Min 
 IMND.m              2580.0901:  Inc Min Depth 
 IMXD.m              2034.3999:  Inc Max Depth 
 JARR.                      No:  Jarring 
 LETM.      10.25.00 13-May-24:  Log End Time 
 LOST.hr                     0:  Lost Rig Time 
 LSTM.      23.00.00 09-May-24:  Log Start Time 
 MDCL.ppm           42000.0000:  Mud Chlorides 
 MDES.             Fresh Water:  Mud Desc 
 DFD .SG                1.3000:  Mud Density 
 MDMN.SG                1.2500:  Dens Mud Min 
 MDMX.SG                1.3000:  Dens Mud Max 
 PH  .pH               10.0000:  Mud pH 
 MOIL.                       0:  Run Mud Oil % 
 MOWR.                   0 100:  Run Mud OWR 
 MSND.                     0.2:  Run Mud Sand % 
 MSOL.                     8.9:  Run Mud Solids% 
 DFV .spqt             80.0000:  Mud Viscosity 
 MWOD.in                6.7500:  MWD Tool OD 
 MWSI.                      No:  Serv Intrp, MWD 
 OTIM.hr              124.1140:  Time Operating 
 PMAX.psig           3200.0000:  Press Op, Max 
 PV  .cP               24.0000:  Mud PV 
 RMS .ohmm              0.0800:  Mud Resistivity 
 RMCS.ohmm              0.1050:  Mud Cake Resistivity 
 MCST.degF             81.0000:  Mud Cake Sample Temperature 
 RMFS.ohmm              0.0500:  Mud Filtrate Resistivity 
 RMFT.degF             81.0000:  Mud Filtrate Sample Temperature 
 RMMT.ohmm              0.0525:  Rm @ Max Temp 
 MST .degF             82.0000:  Mud Sample Temperature 
 RUN .                     500:  Run Number 
 ROPA.m/hr             30.0000:  ROP Avg 
 ROPN.m/hr              5.0000:  ROP Min 
 ROPX.m/hr             40.0000:  ROP Max 
 RPMA.rpm             120.0000:  RPM Surface Avg 
 RPMN.rpm              80.0000:  RPM Surface Min 
 RPMX.rpm             130.0000:  RPM Surface Max 
 RRUN.                     500:  Rig Run Number 
 RTIM.hr               10.0000:  Time Reaming 
 SAZI.deg             296.4800:  Azm, Start 
 SDEP.m              1782.9999:  Start Depth 
 SIDD.                      No:  Serv Intrp, DD 
 SINC.deg              23.5300:  Inc, Start 
 SPPA.psig           3000.0000:  SPP Avg 
 SPPN.psig           2000.0000:  SPP Min 
 SPPX.psig           3100.0000:  SPP Max 
 STIM.      10.00.00 09-May-24:  Start Time 
 SVCS.                 DD, MWD:  Services 
 SVER.                  9.2000:  Sperry Version 
 TDAT.m               951.0001:  Tot Depth Attmp 
 TDDF.                      No:  Trip for DD 
 TDLG.m               951.0001:  Tot Depth Loggd 
 TFF .                      No:  Trip for Fail 
 TQAA.f-p           15000.0000:  Torque Abs Avg 
 TQAN.f-p            7000.0000:  Torque Abs Min 
 TQAX.f-p           18000.0000:  Torque Abs Max 
 TRRT.°/100'            0.2000:  Turn Rotating 
 MRT .                  EWR-P4:  Maximum Recorded Temperature 
 TTMX.degC            101.9000:  Max Tool Temp 
 VS01.        JK90757141L2N1-6:  Virtual Str1 SN 
 VS02.     DR90758460H1WGV2R-6:  Virtual Str2 SN 
 WBMN.klb               5.0000:  WOB Min 
 WITN.            Eko Agustian:  Customer Rep 2 
 WITN.            Bagus Ardika:  Customer Rep 
 WOBA.klb              20.0000:  WOB Avg 
 WOBX.klb              30.0000:  WOB Max 
 YP  .lhf2             30.0000:  Yield Point 
~Curve Information Block
#MNEM.UNIT                 API CODE     Curve Description
#---------               -----------    ---------------------------
 DEPT.M                 00 000 000 000:  Depth
 TVD .m                 00 000 000 000:  True Vertical Depth
 ROPA.m/hr              00 000 000 000:  Avg Rate of Penetration
 DGRCC.api              00 000 000 000:  DGR Comb Gamma Ray BCorr
 DGDD.ptpm              00 000 000 000:  DGR Data Density
 R09PC.ohmm             00 000 000 000:  9in Phase Resistivity BC
 R15PC.ohmm             00 000 000 000:  15in Phase Resistivity BC
 R27PC.ohmm             00 000 000 000:  27in Phase Resistivity BC
 R39PC.ohmm             00 000 000 000:  39in Phase Resistivity BC
 EWDD.ptpm              00 000 000 000:  EWR Data Density
 EWXT.hr                00 000 000 000:  EWR Formation Exp Time
 EWTEMP.degC            00 000 000 000:  EWR Temperature
 ALCDLC.g/cc            00 000 000 000:  ALD LCRB Comp Density
 ALDD.ptpm              00 000 000 000:  ALD Data Density
 TNPL.v/v               00 000 000 000:  CTN Porosity Limestone
 TNPS.v/v               00 000 000 000:  CTN Porosity Sandstone
 TNDD.ptpm              00 000 000 000:  CTN Data Density
#Other Information
#Environmental Parameters (and sensors to which they are applied)
#Hole Size 		: 8.5" (all sensors)
#Tool Size 			: 6.75"
#Mud Type 		: WBM (Gamma Ray)
#Mud Weight 		: 1.25 - 1.30 SG (Gamma Ray)
#KCl Concentration by Weight 	: 4.21 - 5.05 pbw (Gamma Ray)
#Mud Resistivity at BHT 	: 0.07  ohmm @101.9 degC (Resistivity)
#Fluid Density 		: 1.00 g/cc (Density)
#Neutron Tool Lithology	: Limestone (Porosity)
#Whole Mud Chlorides 	: 28800 - 33426 ppm (Porosity)
#Formation Water Salinity 	: 20000 ppm Cl- (Porosity)
#Pressure and Temperature 	: from PWD and EWR (Density, Porosity)
#
#Comments:
#1) All depth are calibrated to the drillers pipe tally and are measured from drill floor.
#2) No depth correction have been made for pipe stretch or compression.
#3) LWD Resistivity Tool utilized in this run is EWRP4, with spacing configuration as below:
#    - Deep Resistivity = 39in Spacing / 1 Mhz Frequency
#    - Medium Resistivity = 27in Spacing / 2 MHz Frequency
#    - Shallow Resistivity = 15in Spacing / 2 MHz Frequency
#    - XShallow Resistivity = 9in Spacing /2 MHz Frequency
#4) CTN Alloy type used for CTN data processing is Mid Nickle.
#5) Density reading might be affected by detector standoff to borehole wall while sliding.
#6) All data presented is Memory data unless otherwise stated.
#WARRANTY: Halliburton will use its best efforts to furnish customers with 
#accurate information and interpretations that are part of, and incident to, the services 
#provided.  However, Halliburton cannot and does not warrant the accuracy 
#or correctness of such information and interpretations.  Under no circumstances should any 
#such information or interpretation be relied upon as the sole basis for any drilling, 
#completion, production, or financial decision or any procedure involving any risk to the 
#safety of any drilling venture, drilling rig or its crew or any other third party.  The 
#Customer has full responsibility for all drilling, completion and production operation.  
#Halliburton makes no representations or warranties, either expressed or 
#implied, including, but not limited to, the implied warranties of merchantability or fitness 
#for a particular purpose, with respect to the services rendered.  In no event will 
#Halliburton be liable for failure to obtain any particular results or for 
#any damages, including, but not limited to, indirect, special or consequential damages, 
#resulting from the use of any information or interpretation provided by Halliburton.
#
~A   DEPT       TVD      ROPA      DGRCC     DGDD      R09PC     R15PC     R27PC     R39PC     EWDD      EWXT     EWTEMP    ALCDLC      ALDD      TNPL      TNPS       TNDD    
# ...
   2514.3000 2335.2329   26.9594  142.1676  330.3175   26.0827   30.1271   30.0169   34.1686   16.1941    0.7634   97.6563    2.6302    57.9967    0.1550    0.1983    78.3591
   2514.4500 2335.3723   26.9222  136.2445   11.0696   27.2955   31.5578   29.7931   35.4183   15.9863    0.7644   97.6563    2.6306    10.0255    0.1527    0.1961    23.4644
   2514.6000 2335.5081   26.0874  132.8042   12.6258   26.3716   30.7112   30.1243   34.7065   15.6154    0.7653   97.6563    2.6203    10.7518    0.1495    0.1929    13.3247
   2514.7500 2335.6418   26.5430  150.9739   12.3790   25.4792   30.1659   29.3405   33.8743   15.3638    0.7668   97.6563    2.6226    13.6507    0.1519    0.1952    13.9358
   2514.9000 2335.7861   30.7731  148.2695   13.4601   25.9847   28.7908   28.9447   33.9940   15.8473    0.7685   97.6563    2.6376    17.4062    0.1511    0.1945    16.5915
   2515.0500 2335.9294   34.7133  147.2459   15.9077   25.8121   30.3820   29.4172   33.8179   16.2460    0.7707   97.6563    2.6224    18.5237    0.1521    0.1955    16.1323
   2515.2000 2336.0649   33.8697  143.6917   16.8637   24.9934   29.4978   28.6598   33.4616   16.6411    0.7730   97.6563    2.6241    17.3830    0.1598    0.2030    16.9422
   2515.3500 2336.2053   32.5886  146.3966   15.4388   25.7320   28.6353   28.4414   33.6461   16.4657    0.7752   97.6563    2.6264    22.0143    0.1604    0.2036    17.5100
   2515.5000 2336.3428   31.7147  147.7264   16.3289   26.4011   29.0818   28.4553   34.4038   16.6589    0.7774   97.6563    2.6268    21.4212    0.1638    0.2069    16.7365
   2515.6500 2336.4844   31.6540  161.9184   16.4442   25.5676   28.7363   28.5641   33.5027   16.6905    0.7796   97.6563    2.6289    14.1253    0.1647    0.2078    17.2748
   2515.8000 2336.6218   31.5206  150.4207   17.3923   23.9835   27.9196   27.5431   32.7400   16.3089    0.7815   97.6563    2.6238    11.4220    0.1657    0.2088    17.9272
   2515.9500 2336.7627   30.3324  142.0871   17.3035   23.9578   27.4880   27.6058   33.7029   16.3045    0.7832   97.6563    2.6329    17.8217    0.1605    0.2038    17.8096
   2516.1000 2336.8975   29.0902  147.6235   16.0511   24.3614   27.7622   28.0793   34.5537   16.5540    0.7846   97.6563    2.6283    17.1770    0.1564    0.1997    18.1165
   2516.2500 2337.0427   28.5900  136.4297   16.5621   26.2646   29.8717   29.5998   35.3618   15.7543    0.7860   97.6563    2.6404    16.1934    0.1493    0.1927    18.5015
   2516.4000 2337.1707   27.5737  141.7563   15.6743   25.9778   30.7747   29.9574   35.4799   15.9854    0.7873   97.6563    2.6403  1123.8158    0.1478    0.1912    24.3000
   2516.5500 2337.3154   28.9446  136.0230   14.2511   26.2914   31.2216   31.2108   36.4886   16.2751    0.7894   97.6563    2.6384  5607.4102    0.1511    0.1945    40.9367
   2516.7000 2337.4570   32.9663  138.0390   14.6062   26.4897   30.6604   31.4724   36.0939   16.1780    0.7914   97.6563    2.6392  1271.3881    0.1537    0.1971    16.5139
   2516.8500 2337.6123   29.1168  143.0695   14.0041   27.3501   31.4715   32.2560   37.2761   16.3031    0.7917   97.6563    2.6347     9.7092    0.1604    0.2037    15.4781
   2517.0000 2337.7131   22.8666  144.7289   13.9779   28.5220   33.1512   32.9458   38.1012   16.7220    0.7916   97.6563    2.6197     9.8279    0.1522    0.1956    17.8362
   2517.1500 2337.8789   23.1242  150.5542   13.2029   29.3168   34.7340   33.6167   37.9811   15.8002    0.7922   97.6563    2.6212    12.3861    0.1531    0.1965    20.5294
   2517.3000 2338.0142   27.9850  146.8062   14.4783   27.5616   30.9867   30.4772   35.9792   16.3193    0.7934   97.6563    2.6266    21.8807    0.1565    0.1998    57.6363
   2517.4500 2338.1511   24.5036  142.3761   14.5995   24.0660   28.5955   29.5150   34.7620   16.4151    0.7939   97.6563    2.6371    17.8315    0.1607    0.2039    63.4351
   2517.6000 2338.2886   22.9682  146.2524   14.2107   28.2059   34.5186   32.4870   37.7588   16.8366    0.7943   97.6563    2.6290    15.2997    0.1557    0.1990    11.4380
   2517.7500 2338.4287   22.9736  150.8051   14.1980   27.7938   32.9081   33.2652   38.4770   16.1031    0.7944   97.6563    2.6234    16.7434    0.1652    0.2083    15.3252
   2517.9000 2338.5715   22.2792  141.6168   15.1447   32.5078   39.1865   36.3226   42.3437  738.7432    0.8396   97.6563    2.6168    15.5841    0.1656    0.2088    30.3957
   2518.0500 2338.7073   21.8960  146.2225   14.6720   32.0988   38.2716   35.7523   41.8621  543.5541    1.0647   97.6563    2.6271    15.7760    0.1620    0.2052   125.1044
   2518.2000 2338.8286   13.7384  145.4796   14.1412   27.2687   32.3616   32.6856   38.6158   11.3877    1.5614   97.6563    2.6375    16.7443    0.1621    0.2053    62.0289
   2518.3500 2338.9858    1.3887  148.4868   15.1810   28.4345   34.7426   34.1966   40.4946   12.0512    1.5488   97.6563    2.6229    16.3121    0.1574    0.2007    10.1233
   2518.5000 2339.1301   18.6965  158.1672   22.4205   30.9670   36.4233   34.7084   42.6774   13.0082    1.5485   97.6563    2.6220    16.9491    0.1676    0.2107    10.6177
   2518.6500 2339.2620   26.3088  157.7522   80.0328   29.6178   34.8226   34.4783   40.8376   12.8126    1.5475   97.6563    2.6264    15.8545    0.1620    0.2052    13.4223
   2518.8000 2339.4055   22.8711  153.4870   29.0270   28.1400   33.3767   32.6487   38.8972   15.1946    1.5465   97.6563    2.6389    15.9919    0.1615    0.2047    17.4335
   2518.9500 2339.5374   20.7111  149.0642   15.2589   27.3506   33.7015   32.8752   38.8592   16.2734    1.5461   97.6131    2.6291    16.5139    0.1584    0.2017    18.5159
   2519.1000 2339.6763   20.0865  149.2645    6.4825   28.4734   35.2643   33.5193   39.6351   15.9093    1.5457   96.8480    2.6321    18.0282    0.1571    0.2004    17.4132
   2519.2500 2339.8191   21.3754  145.1223   14.6284   29.9972   36.7726   33.9793   40.9848   15.9792    1.5450   95.8252    2.6263    19.0600    0.1615    0.2047    21.7225
   2519.4000 2339.9602   21.7050  149.0571   16.3765   26.4470   32.7860   32.5978   39.2150   15.6907    1.5443   95.8252    2.6264    18.4380    0.1652    0.2083    22.2687
   2519.5500 2340.0942   20.3833  148.3843   16.7942   24.5571   30.9026   31.2662   37.6182   17.2967    1.5439   95.8252    2.6302    17.6259    0.1585    0.2017    27.5269
   2519.7000 2340.2339   19.4991  149.8327   17.6578   23.8687   30.0233   30.3738   37.4549   17.2925    1.5435   95.8252    2.6352    20.5193    0.1546    0.1979    15.3744
   2519.8500 2340.3740   20.0170  147.8238   16.5099   24.9811   31.3225   31.4268   38.0329   16.0956    1.5429   95.8252    2.6373    19.3399    0.1588    0.2020    16.9455
   2520.0000 2340.5105   20.3764  149.0787   17.7653   23.8613   32.2067   30.8640   37.3739   16.6114    1.5426   95.8252    2.6384    20.2589    0.1620    0.2051    17.6370
   2520.1500 2340.6519   20.5993  146.4420   17.2977   24.5118   31.6408   31.3179   38.0853   15.8350    1.5422   95.8252    2.6313    17.7957    0.1551    0.1983    16.1970
   2520.3000 2340.7905   20.9167  140.8906   17.7446   26.4993   32.2672   31.4280   38.7372   14.7769    1.5413   95.8252    2.6285    50.2379    0.1537    0.1970    20.6307
   2520.4500 2340.9270   21.3564  148.5538   18.3999   24.9230   31.1691   30.7542   38.4316   14.3134    1.5402   95.8252    2.6319   158.1675    0.1557    0.1990   664.1251
   2520.6000 2341.0701   21.8703  142.5946   18.3296   26.5935   34.3796   31.8173   38.7265   14.7274    1.5394   95.8252    2.6324    35.9089    0.1564    0.1997  1056.9409
   2520.7500 2341.2068   21.8036  140.8915   17.5567   26.7639   34.5198   31.4972   37.9089   13.8039    1.5382   95.8252    2.6394     9.7539    0.1610    0.2042    10.4985
   2520.9000 2341.3450   21.5523  153.6938   17.6890   26.8191   30.7214   31.2643   37.3350   13.5502    1.5372   95.8252    2.6409    11.7632    0.1639    0.2070     9.7432
   2521.0500 2341.4875   21.8297  157.1913   19.9272   26.0639   31.8176   31.1432   36.3468   14.0564    1.5356   95.8252    2.6194    17.1587    0.1646    0.2077    12.0978
