~VERSION INFORMATION 
VERS  .    2.0                                     :CWLS Log ASCII Standard - VERSION 2.0
WRAP  .    NO                                      :One Line per Depth step
PROD  .    Schlumberger Technology Corp.           :LAS Producer
PROG  .    Horizon LASWriter 13.0.221437.3100      :LAS Program name and version
SOURCE.    S1R1-Log[3]/Up                          :Run&Pass Information
CREA  .    05/17/2024                              :LAS Creation date {MM/DD/YYYY}
#--------------------------------------------------
~WELL INFORMATION 
#MNEM           .UNIT                      DATA            :DESCRIPTION
#----            ------          --------------            -----------------------------
STRT            .m                   1744.98000            :START DEPTH
STOP            .m                   2740.91400            :STOP DEPTH
STEP            .m                       0.1524            :STEP
NULL            .                       -999.25            :NULL VALUE
COMP            .                PT Pertamina EP           :COMPANY
WELL            .                BNG-056 (BNG-B3)          :WELL NAME
FLD             .                    Prabumulih            :FIELD NAME
RIGN            .                                          :Rig Name
RIGTYP          .                          Land            :Rig Type
SON             .                A.1009322.16.02           :Service Order Number
SRVC            .                  Schlumberger            :SERVICE COMPANY
DATE            .                    05/17/2024            :LOG DATE(Composite Date for Composite LAP) (MM/DD/YYYY)
CLAB            .                     Rig Name:            :County Label
CNTY            .                PDSI#39.3/D1500-E         :COUNTY
SLAB            .                     Province:            :State/Province Label
STAT            .                 South Sumatra            :STATE or PROVINCE
PROV            .                 South Sumatra            :STATE or PROVINCE
CTRY            .                     Indonesia            :COUNTRY
CONT_REGION     .                          Asia            :Continent Region
SECT            .                                          :Section
TOWN            .                                          :Township
RANG            .                                          :Range
API             .                                          :API NUMBER
UWI             .                                          :UNIQUE WELL ID
LUL             .                ING/IDPRA-WLES            :Logging Unit Location
LUN             .                  OSLC-AA 2175            :Logging Unit Number
LOC             .                         Adera            :FIELD LOCATION
FL1             .                 X: 389146.04             :Field Location Line 1
FL2             .                Y: 9628977.87             :Field Location Line 2
LATI            .deg             3° 21' 22.33" S           :LATITUDE
LONG            .deg             104° 0' 7.68" E           :LONGITUDE
PDAT            .                           MSL            :Local Permanent Datum
LMF             .                            DF            :Logging Measured From
APD             .m                        34.37            :Elevation of Depth Reference (LMF) Above Permanent Datum
EPD             .m                         0.00            :Elevation of Permanent Datum (PDAT) above Mean Sea Level
EKB             .m                        34.37            :Elevation of Kelly Bushing Above Permanent Datum
EDF             .m                        34.37            :Elevation of Drill Floor Above Permanent Datum
EGL             .m                        25.23            :Elevation of Ground Level Above Permanent Datum
ECF             .m                      -999.25            :Elevation of Casing Flange above Permanent Datum
#--------------------------------------------------
~CURVE INFORMATION
#MNEM           .UNIT                  API CODE            :DESCRIPTION
#----            ------          --------------            -----------------------------
DEPT            .m                                         :                                                        Depth Index
GR_CAL          .gAPI                                      :        (EDTC-B)                (6in)                   Calibrated Gamma Ray
TENS            .lbf                                       :        (WLWorkflow)            (6in)                   Cable Tension
DT              .us/ft                                     :        (DSLT-H)                (6in)                   Delta-T (also called Slowness or Interval Transit Time)
#-------------------------------------------------------------
#            DEPT       GR_CAL         TENS           DT 
#                     (EDTC-B)  (WLWorkflo)     (DSLT-H) 
#                                                        
#                        (6in)        (6in)        (6in) 
~ASCII
# ...
       2260.70160    159.92790   3693.41760     77.70724
       2260.85400    164.47080   3677.36399     77.14077
       2261.00640    169.80590   3666.41580     74.05247
       2261.15880    174.93790   3675.63521     73.12277
       2261.31120    172.40230   3669.81940     72.62643
       2261.46360    172.20700   3694.27187     72.23285
       2261.61600    168.60610   3712.72644     72.69574
       2261.76840    169.22940   3682.24909     73.44418
       2261.92080    163.26750   3704.54564     73.78367
       2262.07320    163.87470   3688.27172     74.18658
       2262.22560    164.83620   3647.08448     74.07832
       2262.37800    168.09480   3679.09053     74.32085
       2262.53040    171.41940   3703.16756     74.19716
       2262.68280    172.44040   3725.63722     73.94399
       2262.83520    170.23290   3764.49994     73.68412
       2262.98760    170.33490   3732.99971     72.68282
       2263.14000    165.13080   3721.83345     71.27062
       2263.29240    162.70700   3694.72824     68.78071
       2263.44480    140.47810   3625.16560     66.98221
       2263.59720    124.70520   3633.00020     66.87961
       2263.74960    114.32950   3648.24899     66.68408
       2263.90200    120.41910   3647.09122     66.95715
       2264.05440    129.78740   3669.58336     68.63051
       2264.20680    129.54060   3654.18169     68.50941
       2264.35920    130.02070   3656.45451     68.44647
       2264.51160    129.94470   3663.66638     68.23420
       2264.66400    129.43710   3657.99895     68.26938
       2264.81640    124.35100   3663.27297     67.77682
       2264.96880    111.01430   3659.83339     69.00593
       2265.12120    101.38180   3646.45501     71.60837
       2265.27360     89.39108   3668.16706     74.85025
       2265.42600     82.66982   3677.54609     74.72206
       2265.57840     78.59848   3689.54639     74.83797
       2265.73080     78.27378   3706.16651     74.92402
       2265.88320     83.68466   3703.81726     75.01469
       2266.03560     86.80849   3703.54524     75.11458
       2266.18800     98.69052   3704.54564     75.16484
       2266.34040    100.81380   3712.24984     75.23814
       2266.49280     97.29213   3717.63627     75.29715
       2266.64520     87.12707   3713.45482     75.66614
       2266.79760     84.95862   3689.72624     76.06202
       2266.95000     95.45395   3698.25099     78.77449
       2267.10240    109.98520   3702.90903     80.11823
       2267.25480    124.76690   3675.09117     82.08752
       2267.40720    117.03070   3664.99950     81.90010
       2267.55960    125.65500   3668.45481     78.69272
       2267.71200    138.95560   3736.00091     77.23464
       2267.86440    168.03600   3759.63732     74.68935
       2268.01680    169.01170   3750.41566     73.48109
       2268.16920    170.31230   3812.45393     73.25353
       2268.32160    171.83470   3807.45418     73.15950
       2268.47400    176.85400   3753.36290     73.55985
       2268.62640    173.73370   3712.24984     73.29687
       2268.77880    171.14450   3690.27252     72.96065
       2268.93120    170.49360   3687.09148     73.57016
       2269.08360    174.01890   3675.09117     74.76573
       2269.23600    176.44810   3574.54537     76.72197
       2269.38840    185.83630   3491.91685     80.87136
       2269.54080    198.51350   3504.36452     82.94303
       2269.69320    212.86940   3711.90814     85.32117
       2269.84560    217.85450   4276.54502     87.50083
       2269.99800    203.65600   4400.91607     90.29310
       2270.15040    175.16490   4313.08996     95.87831
       2270.30280    147.31410   4235.36452     97.23775
       2270.45520    128.02440   4096.66639     94.54436
       2270.60760    116.28890   4055.00030     87.18514
       2270.76000    112.90920   3999.36459     81.73194
       2270.91240    124.36580   3894.63734     84.72001
       2271.06480    143.42530   3826.25046     91.22368
       2271.21720    158.27110   3734.36430     94.72135
       2271.36960    155.40570   3693.63566    102.09858
       2271.52200    148.99170   3712.00031    102.29106
       2271.67440    125.41430   3724.90884     96.79479
       2271.82680     99.32468   3735.00051     86.73060
       2271.97920     77.00426   3721.72779     77.21654
       2272.13160     78.22987   3703.08214     78.21351
       2272.28400     91.34369   3696.00065     77.20700
       2272.43640    109.03420   3711.27193     77.00866
       2272.58880    128.75640   3697.33377     75.89297
       2272.74120    147.04290   3705.91023     74.31673
       2272.89360    159.80400   3710.81781     74.07329
       2273.04600    156.16640   3688.18180     72.03232
       2273.19840    149.73520   3713.25024     70.92248
       2273.35080    145.68190   3722.36400     70.11778
       2273.50320    153.70760   3764.81917     70.26359
       2273.65560    169.17100   3725.91598     71.70155
       2273.80800    179.63870   3704.27362     77.48074
       2273.96040    176.35400   3695.72639     80.01689
       2274.11280    164.91000   3741.41656     75.85795
       2274.26520    138.16450   3719.27288     79.04644
       2274.41760    103.82210   3710.63572     79.11849
       2274.57000     73.76732   3662.72668     79.21929
       2274.72240     63.84488   3646.83269     79.84044
       2274.87480     77.58430   3604.45396     82.39427
       2275.02720     94.60537   3595.90897     82.59025
       2275.17960     99.84014   3637.99995     80.81723
       2275.33200     90.17201   3671.72803     78.78757
       2275.48440     72.65876   3685.63696     78.73914
       2275.63680     72.98374   3713.54474     77.78368
       2275.78920     78.45097   3673.18255     76.25264
       2275.94160     89.53757   3702.00080     75.64962
       2276.09400     95.89969   3731.27318     73.89251
       2276.24640    109.48090   3709.90958     75.51249
       2276.39880    125.94310   3725.27303     76.08088
       2276.55120    137.17590   3727.58406     77.98927
       2276.70360    148.50880   3719.99901     76.71048
       2276.85600    156.39160   3742.36300     76.65885
       2277.00840    167.99010   3712.45442     79.22295
       2277.16080    169.37350   3684.45447     92.22193
       2277.31320    155.94850   3664.63756    106.92567
       2277.46560    124.49530   3643.63591    116.16187
       2277.61800    106.37230   3645.36469    118.86377
       2277.77040    115.94900   3619.72748    116.90241
       2277.92280    127.69150   3599.54638    106.37301
       2278.07520    116.42370   3602.99944     89.51821
       2278.22760     89.36705   3564.81789     77.96668
       2278.38000     78.27274   3538.91765     72.90478
       2278.53240     90.41637   3588.54648     70.90002
       2278.68480    105.08800   3687.63551     71.52739
       2278.83720    117.98730   3878.09140     71.11499
       2278.98960    112.60480   3840.90800     71.75775
       2279.14200    113.44730   3737.81737     75.62877
       2279.29440    113.83930   3647.45541     77.87311
       2279.44680    132.36760   3628.90867     79.00486
       2279.59920    145.19380   3668.54474     77.74223
       2279.75160    160.35090   3684.63656     75.35741
       2279.90400    167.12030   3691.27292     74.13321
       2280.05640    175.77410   3665.36369     72.95870
       2280.20880    182.44620   3650.54653     73.57997
       2280.36120    187.21320   3620.81780     74.32289
       2280.51360    188.09520   3598.81800     74.84477
       2280.66600    183.11380   3582.75090     74.98065
       2280.81840    182.40290   3565.72837     75.16767
       2280.97080    183.46450   3607.09097     74.85184
       2281.12320    186.36820   3614.90982     75.68528
       2281.27560    189.45220   3642.81760     78.75185
       2281.42800    190.40540   3696.63686     80.47991
       2281.58040    189.39940   3728.63617     84.58770
       2281.73280    185.02540   3744.18171     85.88462
       2281.88520    178.60420   3779.58237     84.35416
       2282.03760    181.59200   3737.36325     81.95654
