~Version Information
 VERS.                  2.0:   CWLS log ASCII Standard -VERSION 2.0
 WRAP.                   NO:   One line per depth step
~Well Information Block
#MNEM.UNIT     VALUE/NAME     DESCRIPTION
#---------     -----------    ---------------------------
 STRT.M              1700.1000: START DEPTH
 STOP.M              2733.9000: STOP DEPTH
 STEP.M                 0.1500: STEP DEPTH
 NULL.               -999.2500: NULL VALUE
 CNTY.         Tanjung Benuang:  COUNTY NAME
 CTRY.               Indonesia:  COUNTRY NAME
 PROV.          South Sumatera:  PROVINCE
 STAT.          South Sumatera:  STATE NAME
 FLD .                 Benuang:  FIELD NAME
 DATE.      15.00.00 14-May-24:  END TIME
 WELL.                  BNG-B3:  WELL NAME
 COMP.     PHR Region 1 Zona 4:  COMPANY
 API .                        :  API NUMBER
 SRVC.             Halliburton:  SERVICE COMPANY
 UWI .                        :  UNIQUE WELL IDENTIFIER
 LOC .                        :  LOCATION
~Parameter Information Block
#MNEM.UNIT       Value        Description
#---------     -----------    ---------------------------
 AV  .fpm             311.0000:  Ann Velocity 
 AVMX.fpm             315.0000:  Max Ann Veloc 
 AZIF.deg             294.2000:  Azm, Final 
 BHAT.        Rotary Steerable:  BHA Type 
 BROT.°/100'            0.2000:  Build Rotating 
 BS  .in                8.5000:  Bit Size 
 BSZ .in                8.5000:  Bit Size 
 BTPL.psig            496.0000:  Bit Press Loss 
 CABU.                      No:  Customer Abuse 
 CGEO.           Achmad Gazali:  Customer Geo 
 COMM.                     üQb:  Run Comments 1 
 TCS .hr               88.2729:  Time Ciculation Ended 
 CV  .fpm             378.0000:  Crit Velocity 
 CVMX.fpm             380.0000:  Max Crit Veloc 
 DD1 .          Yudi Kurniawan:  Direct Drillr 1 
 DD2 .               Aminuddin:  Direct Drillr 2 
 DDSV.               Geo-Pilot:  DD Service 
 DEFF.%               100.0000:  % Det Eff 
 DLRX.°/100'            0.5000:  Dogleg Rot Max 
 DLSO.°/100'            1.1000:  Dogleg Oriented 
 DLSX.°/100'            2.1900:  Dogleg Str Max 
 DRET.      10.25.00 13-May-24:  Drill End Time 
 DRST.      23.00.00 09-May-24:  Drill Start Tim 
 DTIM.hr               52.9642:  Time Drilling 
 EDEP.m              2734.0000:  End Depth 
 ENG1.      Andika BP Pulungan:  Engineer 1 
 ENG2.         Edward Joshua M:  Engineer 2 
 ENG3.       Pandamama Siahaan:  Engineer 3 
 ENG4.        Siti Nurfitriani:  Engineer 4 
 ETIM.      18.45.00 14-May-24:  End Time 
 FLOI.gpm             550.0000:  Flow In 
 FLON.gpm             400.0000:  Flow In Min 
 FLOS.mptm              4.2000:  Fluid Loss 
 FLOX.gpm             600.0000:  Flow In Max 
 DFT .                 Polymer:  Mud Type 
 HPRE.                      No:  High Pressure 
 HTEM.                      No:  High Temp 
 HYDO.m                 0.0000:  Hydro Offset 
 IFIN.deg              25.6000:  Inc, Final 
 IMAX.deg              26.9023:  Inc Max 
 IMIN.deg              20.4496:  Inc Min 
 IMND.m              2580.0901:  Inc Min Depth 
 IMXD.m              2034.3999:  Inc Max Depth 
 JARR.                      No:  Jarring 
 LETM.      10.25.00 13-May-24:  Log End Time 
 LOST.hr                     0:  Lost Rig Time 
 LSTM.      23.00.00 09-May-24:  Log Start Time 
 MDCL.ppm           42000.0000:  Mud Chlorides 
 MDES.             Fresh Water:  Mud Desc 
 DFD .SG                1.3000:  Mud Density 
 MDMN.SG                1.2500:  Dens Mud Min 
 MDMX.SG                1.3000:  Dens Mud Max 
 PH  .pH               10.0000:  Mud pH 
 MOIL.                       0:  Run Mud Oil % 
 MOWR.                   0 100:  Run Mud OWR 
 MSND.                     0.2:  Run Mud Sand % 
 MSOL.                     8.9:  Run Mud Solids% 
 DFV .spqt             80.0000:  Mud Viscosity 
 MWOD.in                6.7500:  MWD Tool OD 
 MWSI.                      No:  Serv Intrp, MWD 
 OTIM.hr              124.1140:  Time Operating 
 PMAX.psig           3200.0000:  Press Op, Max 
 PV  .cP               24.0000:  Mud PV 
 RMS .ohmm              0.0800:  Mud Resistivity 
 RMCS.ohmm              0.1050:  Mud Cake Resistivity 
 MCST.degF             81.0000:  Mud Cake Sample Temperature 
 RMFS.ohmm              0.0500:  Mud Filtrate Resistivity 
 RMFT.degF             81.0000:  Mud Filtrate Sample Temperature 
 RMMT.ohmm              0.0525:  Rm @ Max Temp 
 MST .degF             82.0000:  Mud Sample Temperature 
 RUN .                     500:  Run Number 
 ROPA.m/hr             30.0000:  ROP Avg 
 ROPN.m/hr              5.0000:  ROP Min 
 ROPX.m/hr             40.0000:  ROP Max 
 RPMA.rpm             120.0000:  RPM Surface Avg 
 RPMN.rpm              80.0000:  RPM Surface Min 
 RPMX.rpm             130.0000:  RPM Surface Max 
 RRUN.                     500:  Rig Run Number 
 RTIM.hr               10.0000:  Time Reaming 
 SAZI.deg             296.4800:  Azm, Start 
 SDEP.m              1782.9999:  Start Depth 
 SIDD.                      No:  Serv Intrp, DD 
 SINC.deg              23.5300:  Inc, Start 
 SPPA.psig           3000.0000:  SPP Avg 
 SPPN.psig           2000.0000:  SPP Min 
 SPPX.psig           3100.0000:  SPP Max 
 STIM.      10.00.00 09-May-24:  Start Time 
 SVCS.                 DD, MWD:  Services 
 SVER.                  9.2000:  Sperry Version 
 TDAT.m               951.0001:  Tot Depth Attmp 
 TDDF.                      No:  Trip for DD 
 TDLG.m               951.0001:  Tot Depth Loggd 
 TFF .                      No:  Trip for Fail 
 TQAA.f-p           15000.0000:  Torque Abs Avg 
 TQAN.f-p            7000.0000:  Torque Abs Min 
 TQAX.f-p           18000.0000:  Torque Abs Max 
 TRRT.°/100'            0.2000:  Turn Rotating 
 MRT .                  EWR-P4:  Maximum Recorded Temperature 
 TTMX.degC            101.9000:  Max Tool Temp 
 VS01.        JK90757141L2N1-6:  Virtual Str1 SN 
 VS02.     DR90758460H1WGV2R-6:  Virtual Str2 SN 
 WBMN.klb               5.0000:  WOB Min 
 WITN.            Eko Agustian:  Customer Rep 2 
 WITN.            Bagus Ardika:  Customer Rep 
 WOBA.klb              20.0000:  WOB Avg 
 WOBX.klb              30.0000:  WOB Max 
 YP  .lhf2             30.0000:  Yield Point 
~Curve Information Block
#MNEM.UNIT                 API CODE     Curve Description
#---------               -----------    ---------------------------
 DEPT.M                 00 000 000 000:  Depth
 TVD .m                 00 000 000 000:  True Vertical Depth
 ROPA.m/hr              00 000 000 000:  Avg Rate of Penetration
 DGRCC.api              00 000 000 000:  DGR Comb Gamma Ray BCorr
 DGDD.ptpm              00 000 000 000:  DGR Data Density
 R09PC.ohmm             00 000 000 000:  9in Phase Resistivity BC
 R15PC.ohmm             00 000 000 000:  15in Phase Resistivity BC
 R27PC.ohmm             00 000 000 000:  27in Phase Resistivity BC
 R39PC.ohmm             00 000 000 000:  39in Phase Resistivity BC
 EWDD.ptpm              00 000 000 000:  EWR Data Density
 EWXT.hr                00 000 000 000:  EWR Formation Exp Time
 EWTEMP.degC            00 000 000 000:  EWR Temperature
 ALCDLC.g/cc            00 000 000 000:  ALD LCRB Comp Density
 ALDD.ptpm              00 000 000 000:  ALD Data Density
 TNPL.v/v               00 000 000 000:  CTN Porosity Limestone
 TNPS.v/v               00 000 000 000:  CTN Porosity Sandstone
 TNDD.ptpm              00 000 000 000:  CTN Data Density
#Other Information
#Environmental Parameters (and sensors to which they are applied)
#Hole Size 		: 8.5" (all sensors)
#Tool Size 			: 6.75"
#Mud Type 		: WBM (Gamma Ray)
#Mud Weight 		: 1.25 - 1.30 SG (Gamma Ray)
#KCl Concentration by Weight 	: 4.21 - 5.05 pbw (Gamma Ray)
#Mud Resistivity at BHT 	: 0.07  ohmm @101.9 degC (Resistivity)
#Fluid Density 		: 1.00 g/cc (Density)
#Neutron Tool Lithology	: Limestone (Porosity)
#Whole Mud Chlorides 	: 28800 - 33426 ppm (Porosity)
#Formation Water Salinity 	: 20000 ppm Cl- (Porosity)
#Pressure and Temperature 	: from PWD and EWR (Density, Porosity)
#
#Comments:
#1) All depth are calibrated to the drillers pipe tally and are measured from drill floor.
#2) No depth correction have been made for pipe stretch or compression.
#3) LWD Resistivity Tool utilized in this run is EWRP4, with spacing configuration as below:
#    - Deep Resistivity = 39in Spacing / 1 Mhz Frequency
#    - Medium Resistivity = 27in Spacing / 2 MHz Frequency
#    - Shallow Resistivity = 15in Spacing / 2 MHz Frequency
#    - XShallow Resistivity = 9in Spacing /2 MHz Frequency
#4) CTN Alloy type used for CTN data processing is Mid Nickle.
#5) Density reading might be affected by detector standoff to borehole wall while sliding.
#6) All data presented is Memory data unless otherwise stated.
#WARRANTY: Halliburton will use its best efforts to furnish customers with 
#accurate information and interpretations that are part of, and incident to, the services 
#provided.  However, Halliburton cannot and does not warrant the accuracy 
#or correctness of such information and interpretations.  Under no circumstances should any 
#such information or interpretation be relied upon as the sole basis for any drilling, 
#completion, production, or financial decision or any procedure involving any risk to the 
#safety of any drilling venture, drilling rig or its crew or any other third party.  The 
#Customer has full responsibility for all drilling, completion and production operation.  
#Halliburton makes no representations or warranties, either expressed or 
#implied, including, but not limited to, the implied warranties of merchantability or fitness 
#for a particular purpose, with respect to the services rendered.  In no event will 
#Halliburton be liable for failure to obtain any particular results or for 
#any damages, including, but not limited to, indirect, special or consequential damages, 
#resulting from the use of any information or interpretation provided by Halliburton.
#
~A   DEPT       TVD      ROPA      DGRCC     DGDD      R09PC     R15PC     R27PC     R39PC     EWDD      EWXT     EWTEMP    ALCDLC      ALDD      TNPL      TNPS       TNDD    
# ...
   1782.9000 1669.5242    0.6944   99.7612   33.8613    3.0407    3.1868    3.3710    3.7061   63.9629    2.5171   75.0732    2.4975    12.4797    0.1499    0.1918    12.3201
   1783.0500 1669.7538    1.4189  110.9376   23.5448    3.5561    3.7307    4.1171    4.4895   43.0129    2.3797   75.0732    2.5192    12.8288    0.1427    0.1847    12.9565
   1783.2000 1669.8230    2.9629  117.7449   12.8391    4.6161    4.4950    4.8264    5.1763   13.7178    2.2473   75.0732    2.5978    13.0373    0.1220    0.1641    12.0303
   1783.3500 1669.9773    1.8137  108.9428   12.2957    5.0618    4.6584    4.5690    4.8847   13.1254    2.1584   75.0732    2.6436    13.4116    0.0954    0.1369    12.7715
   1783.5000 1670.1119    2.1732   79.9014   12.6135    5.3208    5.2830    4.8891    4.9173   13.4243    2.1168   75.0732    2.6387    12.8919    0.0832    0.1242    11.6377
   1783.6500 1670.2257    4.4163   78.1963   13.1435    5.8894    5.8757    5.3477    5.0543   13.0040    2.0968   75.0732    2.6203    13.5892    0.0836    0.1246    12.2013
   1783.8000 1670.4083    9.8686   77.7863   13.0159    5.2956    5.2264    4.7626    4.4372   13.3634    2.0853   75.0732    2.6281    13.1536    0.0877    0.1290    12.9883
   1783.9500 1670.5403   13.1248   88.1955   14.4997    4.4842    4.5006    4.1756    3.9173   13.2773    2.0775   75.0732    2.6208    12.9350    0.0926    0.1341    11.7233
   1784.1000 1670.6455   10.2972  116.1594   16.3567    3.6544    3.7637    3.6158    3.5259   13.0572    2.0713   75.0732    2.6157    13.8614    0.1166    0.1586    11.2542
   1784.2500 1670.8092   12.1386  123.6429   17.0623    3.0583    3.1106    3.1024    3.1848   13.5093    2.0668   75.0732    2.5926    14.2696    0.1410    0.1830    11.5425
   1784.4000 1670.9526   17.2012  105.7831   13.0760    2.7452    2.7192    2.7673    2.9828   13.0388    2.0620   75.0732    2.5810    11.8402    0.1451    0.1872    13.5555
   1784.5500 1671.0811   15.1108  104.0100   12.8972    2.5292    2.6273    2.6922    2.9858   13.7399    2.0356   75.0732    2.5469    11.7991    0.1553    0.1972    13.6283
   1784.7000 1671.2219   12.8370  101.8076   12.5414    2.6874    2.7885    2.9826    3.2628   13.4781    1.8459   75.0732    2.5693    11.9334    0.1630    0.2047    11.9615
   1784.8500 1671.3834    9.8661  102.5662   13.0729    2.9511    2.9880    3.1538    3.4341   13.5120    1.5300   75.0732    2.5852    12.2023    0.1425    0.1845    14.6914
   1785.0000 1671.4458    5.2276   97.1664   13.5245    3.1933    3.1913    3.2633    3.5114   21.5100    1.4005   75.0732    2.6116    12.3582    0.1230    0.1651    20.8353
   1785.1500 1671.6406    3.9225   85.4272   12.7029    3.4729    3.4319    3.3801    3.5796   19.6570    1.3969   75.0732    2.6179    12.5057    0.1100    0.1521    20.3902
   1785.3000 1671.7634   13.1534   75.9986   13.3173    3.6197    3.6568    3.4664    3.4699   14.2306    1.3928   75.0732    2.6185    12.4107    0.1021    0.1440    16.1759
   1785.4500 1671.9155   13.2716   71.0722   13.2750    3.4571    3.4675    3.2470    3.2222   13.6486    1.3858   75.0732    2.6078    11.9235    0.1096    0.1517    13.2848
   1785.6000 1672.0676    8.2324   69.6473   13.0987    2.9649    2.9711    2.8786    3.0149   13.0962    1.3476   75.0732    2.6226    12.1505    0.1111    0.1532    13.7617
   1785.7500 1672.2281    2.6307   72.5942   13.4957    2.9560    3.0005    3.0461    3.2852   12.8277    1.2746   75.0732    2.5719    13.1720    0.1258    0.1679    11.5206
   1785.9000 1672.2974    1.1879   84.2335   13.1266    2.7358    2.9390    3.1936    3.5967   12.7781    1.0830   75.0732    2.5536    12.3289    0.1462    0.1882    11.7055
   1786.0500 1672.4189    0.4474   95.8189   12.9691    3.0445    3.3396    3.8466    4.2147   12.5014    0.7843   75.1030    2.5676    10.6983    0.1359    0.1780    12.0137
   1786.2000 1672.5234    0.4476   98.1732   13.0017    3.7789    3.9739    4.5675    4.7707   15.0443    0.6177   75.5437    2.5705    10.7742    0.1350    0.1772    11.3801
   1786.3500 1672.7317   11.3681   98.2495   12.3738    4.2613    4.2561    4.4812    4.6806   14.8761    0.6065   75.6836    2.6226    76.1808    0.1171    0.1592    11.7459
   1786.5000 1672.8693   20.5865   76.4193   15.0930    4.2962    4.1614    4.0706    4.2442   12.6576    0.6046   75.6836    2.6280   337.7605    0.1026    0.1445    12.0989
   1786.6500 1673.0094   21.0532   73.7913   17.9009    4.0589    4.0410    3.8755    3.9234   25.5460    0.6048   75.6836    2.6298    88.7410    0.0966    0.1383    11.9259
   1786.8000 1673.1427   20.9587   84.3229   12.4523    3.7573    3.8601    3.7127    3.7268   31.8559    0.6083   75.6836    2.6221    10.8206    0.1051    0.1470    12.4390
   1786.9500 1673.2853   21.0894   77.1951   12.5413    3.3132    3.4206    3.3929    3.3433   13.8629    0.6080   75.6836    2.6092    11.4550    0.1074    0.1494    12.7159
   1787.1000 1673.4174   21.0541   80.4238   12.4684    3.3640    3.3680    3.3539    3.2401   12.6104    0.6061   75.6836    2.6186    11.8590    0.1098    0.1519    12.9529
   1787.2500 1673.5586   21.0101   75.3687   12.1088    3.0974    2.8596    2.7965    2.7332   12.8215    0.6042   75.6836    2.6174    11.8636    0.1183    0.1605    13.4767
   1787.4000 1673.6936   21.4072   68.1387   12.3790    2.4708    2.3007    2.1823    2.3237   12.5546    0.6023   75.6836    2.6107    12.6624    0.1214    0.1636    12.9927
   1787.5500 1673.8325   21.9608   71.7547   12.5726    2.1581    2.1415    2.0500    2.2577   12.8473    0.6011   75.6836    2.5708    25.9339    0.1427    0.1848    13.5405
   1787.7000 1673.9708   22.6942   89.1091   12.5604    1.9357    1.9389    1.9244    2.1629   14.2567    0.6002   75.6836    2.5425    77.4973    0.1660    0.2077    13.3178
   1787.8500 1674.1061   22.6342   87.5884   11.8199    1.8473    1.8448    1.8991    2.2009   14.6768    0.5996   75.6836    2.5328    35.6032    0.1705    0.2122    13.0505
   1788.0000 1674.2462   22.7075   92.5749   11.9232    1.8752    1.9045    1.9687    2.3876   18.5565    0.6002   75.6836    2.5328    16.9732    0.1745    0.2160    13.7683
   1788.1500 1674.3822   22.7438   95.7511   12.7654    2.1431    2.2085    2.3810    2.8613   14.6876    0.6002   75.6836    2.5666    15.3938    0.1658    0.2075    14.8190
   1788.3000 1674.5199   22.6282   98.7572   12.0197    2.6972    2.7685    3.0372    3.3891   12.4424    0.5989   75.6836    2.5991    14.4546    0.1564    0.1983    11.8739
   1788.4500 1674.7047   19.3947   91.4248   11.6949    3.2078    3.1836    3.3152    3.4160   12.4791    0.5972   75.6836    2.6241    15.5744    0.1406    0.1827    11.8572
   1788.6000 1674.8132   12.1444   68.3248   11.3884    3.1958    3.1515    3.0677    3.0318   13.1827    0.5902   75.6836    2.6317    18.1339    0.1235    0.1657    12.1776
   1788.7500 1674.8795    8.7427   69.1167   12.8536    2.9893    3.0346    2.8857    2.7794   13.2087    0.5724   75.6836    2.6153    38.6293    0.1259    0.1681    12.2765
   1788.9000 1675.0685   10.9119   84.1744   14.0864    2.5833    2.6574    2.6274    2.5344   12.6616    0.5587   75.6836    2.5910    61.1230    0.1380    0.1801    12.4485
   1789.0500 1675.2097   21.7538   90.0673   12.0250    2.5120    2.6069    2.7543    2.6331   13.4104    0.5555   75.6836    2.5813    62.1030    0.1452    0.1872    12.3092
   1789.2000 1675.3452   21.9857   89.9253   13.2943    2.3936    2.4618    2.6013    2.5694   13.1652    0.5542   75.6836    2.5940    34.7281    0.1491    0.1911    12.2451
   1789.3500 1675.4816   21.4341   95.0807   20.2457    2.2709    2.2436    2.2679    2.3458   13.0088    0.5529   75.6836    2.5742    15.7970    0.1439    0.1860    11.8068
   1789.5000 1675.6201   21.9392   87.0911   20.5233    1.9685    1.9260    1.8737    2.0176   13.9745    0.5519   75.7121    2.5433    18.9685    0.1490    0.1910    11.8646
   1789.6500 1675.7574   22.3481   93.3646   17.3293    1.7045    1.7386    1.7295    1.9568   12.8378    0.5504   76.1307    2.5246   116.1299    0.1684    0.2101    13.5902
