~VERSION INFORMATION 
VERS  .    2.0                                     :CWLS Log ASCII Standard - VERSION 2.0
WRAP  .    NO                                      :One Line per Depth step
PROD  .    Schlumberger Technology Corp.           :LAS Producer
PROG  .    Horizon LASWriter 13.0.221437.3100      :LAS Program name and version
SOURCE.    S1R1-Log[4]/Up                          :Run&Pass Information
CREA  .    07/28/2024                              :LAS Creation date {MM/DD/YYYY}
#--------------------------------------------------
~WELL INFORMATION 
#MNEM           .UNIT                      DATA            :DESCRIPTION
#----            ------          --------------            -----------------------------
STRT            .m                   1495.04400            :START DEPTH
STOP            .m                   2360.37120            :STOP DEPTH
STEP            .m                       0.1524            :STEP
NULL            .                       -999.25            :NULL VALUE
COMP            .                PT Pertamina EP           :COMPANY
WELL            .                BNG-059 (BNG-H1)          :WELL NAME
FLD             .                         Adera            :FIELD NAME
RIGN            .                                          :Rig Name
RIGTYP          .                          Land            :Rig Type
SON             .                A.1009322.17.2            :Service Order Number
SRVC            .                  Schlumberger            :SERVICE COMPANY
DATE            .                    07/28/2024            :LOG DATE(Composite Date for Composite LAP) (MM/DD/YYYY)
CLAB            .                     Rig Name:            :County Label
CNTY            .                South Sumatera            :COUNTY
SLAB            .                     Province:            :State/Province Label
STAT            .                 South Sumatra            :STATE or PROVINCE
PROV            .                 South Sumatra            :STATE or PROVINCE
CTRY            .                     Indonesia            :COUNTRY
CONT_REGION     .                          Asia            :Continent Region
SECT            .                                          :Section
TOWN            .                                          :Township
RANG            .                                          :Range
API             .                                          :API NUMBER
UWI             .                                          :UNIQUE WELL ID
LUL             .                      ING/IDPR            :Logging Unit Location
LUN             .                   OSLC-E 2349            :Logging Unit Number
LOC             .                         Adera            :FIELD LOCATION
FL1             .                X: 397,029.172            :Field Location Line 1
FL2             .                Y: 9,625,078.797          :Field Location Line 2
LATI            .deg             3° 23' 29.559" S          :LATITUDE
LONG            .deg             104° 4' 22.998" E         :LONGITUDE
PDAT            .                           MSL            :Local Permanent Datum
LMF             .                            DF            :Logging Measured From
APD             .m                        25.78            :Elevation of Depth Reference (LMF) Above Permanent Datum
EPD             .m                         0.00            :Elevation of Permanent Datum (PDAT) above Mean Sea Level
EKB             .m                        25.78            :Elevation of Kelly Bushing Above Permanent Datum
EDF             .m                        25.78            :Elevation of Drill Floor Above Permanent Datum
EGL             .m                        16.64            :Elevation of Ground Level Above Permanent Datum
ECF             .m                      -999.25            :Elevation of Casing Flange above Permanent Datum
#--------------------------------------------------
~CURVE INFORMATION
#MNEM           .UNIT                  API CODE            :DESCRIPTION
#----            ------          --------------            -----------------------------
DEPT            .m                                         :                                                        Depth Index
HTEN            .lbf                                       :        (LEH-QT)                (6in)                   Head Tension
GR_CAL          .gAPI                                      :        (SGT-N)                 (6in)                   Calibrated Gamma Ray
DT_BHC          .us/ft                                     :        (MAST-B)                (6in)                   1.5 Feet Span Borehole Compensated Slowness from Near Spacing
BS              .in                                        :(RT)    (Borehole)              (6in)                   Bit Size
#-------------------------------------------------------------
#            DEPT         HTEN       GR_CAL       DT_BHC           BS 
#                     (LEH-QT)      (SGT-N)     (MAST-B)   (Borehole) 
#                                                                (RT) 
#                        (6in)        (6in)        (6in)        (6in) 
~ASCII
# ...
       1880.61600    549.57311     69.11335     83.00061      8.50000
       1880.76840    547.21037     87.64930     86.17370      8.50000
       1880.92080    543.91287    117.14990     81.66644      8.50000
       1881.07320    555.85652    141.36430     79.50001      8.50000
       1881.22560    571.95442    150.91370     84.33679      8.50000
       1881.37800    568.81271    151.42520     80.00000      8.50000
       1881.53040    558.84244    143.00140     75.75063      8.50000
       1881.68280    557.75189    141.29610     75.50000      8.50000
       1881.83520    561.56869    151.35700     75.83189      8.50000
       1881.98760    560.11463    156.19990     77.00001      8.50000
       1882.14000    555.46693    157.05250     77.66554      8.50000
       1882.29240    558.27120    156.02940     76.24999      8.50000
       1882.44480    558.32313    157.90520     75.83680      8.50000
       1882.59720    557.69996    160.29250     78.24938      8.50000
       1882.74960    555.88238    159.61040     78.24999      8.50000
       1882.90200    551.54626    166.77240     80.08446      8.50000
       1883.05440    556.19396    173.54220     81.74998      8.50000
       1883.20680    561.54262    173.20120     81.50001      8.50000
       1883.35920    568.86464    171.66650     81.66893      8.50000
       1883.51160    569.15015    170.86500     81.50001      8.50000
       1883.66400    563.48991    180.07330     82.41554      8.50000
       1883.81640    565.20363    176.15120     85.74999      8.50000
       1883.96880    562.19186    181.09640     86.66894      8.50000
       1884.12120    553.31191    176.66280     87.25001      8.50000
       1884.27360    544.38025    188.08790     92.83446      8.50000
       1884.42600    538.53814    192.94780     91.79165      8.50000
       1884.57840    543.23777    200.28040     88.00000      8.50000
       1884.73080    547.70360    200.96240     88.49999      8.50000
       1884.88320    547.78161    210.59710     89.25001      8.50000
       1885.03560    545.86017    208.38020     90.74999      8.50000
       1885.18800    547.36616    203.09400     97.25001      8.50000
       1885.34040    551.39047    186.89420    113.74999      8.50000
       1885.49280    556.68742    166.60190    106.67878      8.50000
       1885.64520    570.14718    143.06960    111.37499      8.50000
       1885.79760    576.62797    118.30950     85.58251      8.50000
       1885.95000    577.45886    113.36430     70.99938      8.50000
       1886.10240    567.90403    109.78330     70.99999      8.50000
       1886.25480    559.17987    110.32900     71.58679      8.50000
       1886.40720    548.89801    101.12070     69.99939      8.50000
       1886.55960    545.52251    105.72480     68.83106      8.50000
       1886.71200    543.28970    100.60910     75.99999      8.50000
       1886.86440    540.53737     92.45808     78.40828      8.50000
       1887.01680    540.72958     76.59936     78.33604      8.50000
       1887.16920    539.81056     70.28996     74.16686      8.50000
       1887.32160    539.86227     75.03053     71.12273      8.50000
       1887.47400    541.96558     93.61764     78.24512      8.50000
       1887.62640    550.92309    126.35820     75.25000      8.50000
       1887.77880    559.75111    152.96000     74.99875      8.50000
       1887.93120    564.34688    168.64820     90.75243      8.50000
       1888.08360    562.68509    168.81870     95.25000      8.50000
       1888.23600    567.07314    163.36190     92.75000      8.50000
       1888.38840    571.77277    161.82720     85.41319      8.50000
       1888.54080    566.91982    151.93680     79.66893      8.50000
       1888.69320    564.60654    147.62260     68.00000      8.50000
       1888.84560    566.13838    133.29860     87.33389      8.50000
       1888.99800    566.68355    129.54700     65.00217      8.50000
       1889.15040    569.07237    133.69080     65.74999      8.50000
       1889.30280    571.66868    134.71390     67.49939      8.50000
       1889.45520    572.86309    137.17230     65.83448      8.50000
       1889.60760    567.46251    134.78500     68.33448      8.50000
       1889.76000    568.94760    132.22710     65.83448      8.50000
       1889.91240    574.23937    125.50560     67.50000      8.50000
       1890.06480    571.92834    124.82350     36.16162      8.50000
       1890.21720    564.55461    127.89290     47.06139      8.50000
       1890.36960    551.78006    134.37280     67.16591      8.50000
       1890.52200    540.32964    131.67290     68.24999      8.50000
       1890.67440    537.11015    137.47070     68.24999      8.50000
       1890.82680    535.26672    130.64970     69.24937      8.50000
       1890.97920    540.04414    133.52020     68.12134      8.50000
       1891.13160    542.99543    129.08660     66.66211      8.50000
       1891.28400    540.10124    135.22550     67.41554      8.50000
       1891.43640    542.74454    136.41920     68.33790      8.50000
       1891.58880    542.64045    137.78330     66.58447      8.50000
       1891.74120    535.55223    139.31810     67.50061      8.50000
       1891.89360    551.91000    139.31810     63.33741      8.50000
       1892.04600    559.17987    145.45690     67.37500      8.50000
       1892.19840    570.44842    142.50120     67.00001      8.50000
       1892.35080    563.92109    134.82760     63.49999      8.50000
       1892.50320    565.43721    126.81300     66.50001      8.50000
       1892.65560    564.24302    125.84670     67.58446      8.50000
       1892.80800    562.60731    129.25710     66.66893      8.50000
       1892.96040    556.63549    133.17920     67.58681      8.50000
       1893.11280    550.50787    140.34120     67.50061      8.50000
       1893.26520    549.57311    138.63600     68.14697      8.50000
       1893.41760    547.18429    133.56290     70.00000      8.50000
       1893.57000    543.08198    133.22180     69.62440      8.50000
       1893.72240    541.65399    143.62380     68.49999      8.50000
       1893.87480    539.24449    150.06110     71.75062      8.50000
       1894.02720    546.08947    150.40210     70.91553      8.50000
       1894.17960    553.58191    151.25470     68.24999      8.50000
       1894.33200    570.34456    151.08420     70.75060      8.50000
       1894.48440    571.27932    153.81260     72.41554      8.50000
       1894.63680    565.67101    153.64210     75.00000      8.50000
       1894.78920    561.38682    161.59990     72.50000      8.50000
       1894.94160    565.07369    167.05660     70.74938      8.50000
       1895.09400    578.74410    172.00180     74.99939      8.50000
       1895.24640    581.87276    178.53860     77.75000      8.50000
       1895.39880    579.95132    181.43750     83.33448      8.50000
       1895.55120    579.35423    180.75540     84.50001      8.50000
       1895.70360    583.56040    155.30470     83.24999      8.50000
       1895.85600    579.74360    122.90510     87.00001      8.50000
       1896.00840    572.68145     91.52872    110.00000      8.50000
       1896.16080    572.23992     92.08293    129.25001      8.50000
       1896.31320    573.51751    116.63840    132.50000      8.50000
       1896.46560    585.84536    154.49470    119.00002      8.50000
       1896.61800    588.02623    184.16580    117.48778      8.50000
       1896.77040    582.15849    183.32740    106.66211      8.50000
       1896.92280    562.11385    166.78660    106.08543      8.50000
       1897.07520    557.28451    131.31760    102.22803      8.50000
       1897.22760    555.80459     98.90388    115.00000      8.50000
       1897.38000    561.98414     66.67486     88.74267      8.50000
       1897.53240    569.17623     47.91723    115.00000      8.50000
       1897.68480    578.28976     42.80151    138.49999      8.50000
       1897.83720    575.17391     46.04147    140.00000      8.50000
       1897.98960    576.23860     48.94037    138.33287      8.50000
