~VERSION INFORMATION 
VERS  .    2.0                                     :CWLS Log ASCII Standard - VERSION 2.0
WRAP  .    NO                                      :One Line per Depth step
PROD  .    Schlumberger Technology Corp.           :LAS Producer
PROG  .    Horizon LASWriter 13.0.221437.3100      :LAS Program name and version
SOURCE.    S1R1-Log[3]/Up                          :Run&Pass Information
CREA  .    07/04/2024                              :LAS Creation date {MM/DD/YYYY}
#--------------------------------------------------
~WELL INFORMATION 
#MNEM           .UNIT                      DATA            :DESCRIPTION
#----            ------          --------------            -----------------------------
STRT            .m                   1718.15760            :START DEPTH
STOP            .m                   2673.85800            :STOP DEPTH
STEP            .m                       0.1524            :STEP
NULL            .                       -999.25            :NULL VALUE
COMP            .                PT Pertamina EP           :COMPANY
WELL            .                BNG-A4(BNG-058)           :WELL NAME
FLD             .                       Benuang            :FIELD NAME
RIGN            .                       Tiger-7            :Rig Name
RIGTYP          .                      Land Rig            :Rig Type
SON             .                A.1059389.01.02           :Service Order Number
SRVC            .                  Schlumberger            :SERVICE COMPANY
DATE            .                    07/04/2024            :LOG DATE(Composite Date for Composite LAP) (MM/DD/YYYY)
CLAB            .                     Rig Name:            :County Label
CNTY            .                       TIGER-7            :COUNTY
SLAB            .                     Province:            :State/Province Label
STAT            .                 South Sumatra            :STATE or PROVINCE
PROV            .                 South Sumatra            :STATE or PROVINCE
CTRY            .                     Indonesia            :COUNTRY
CONT_REGION     .                          Asia            :Continent Region
SECT            .                                          :Section
TOWN            .                                          :Township
RANG            .                                          :Range
API             .                                          :API NUMBER
UWI             .                                          :UNIQUE WELL ID
LUL             .                         IDPRA            :Logging Unit Location
LUN             .                   OSLC-A 2155            :Logging Unit Number
LOC             .                         Adera            :FIELD LOCATION
FL1             .                X: 387.623,270 mE         :Field Location Line 1
FL2             .                Y: 9.630.308,141 mN       :Field Location Line 2
LATI            .deg             3° 20' 38.96" S           :LATITUDE
LONG            .deg             103° 59' 18.38" E         :LONGITUDE
PDAT            .                           MSL            :Local Permanent Datum
LMF             .                            DF            :Logging Measured From
APD             .m                        44.63            :Elevation of Depth Reference (LMF) Above Permanent Datum
EPD             .m                         0.00            :Elevation of Permanent Datum (PDAT) above Mean Sea Level
EKB             .m                        44.63            :Elevation of Kelly Bushing Above Permanent Datum
EDF             .m                        44.63            :Elevation of Drill Floor Above Permanent Datum
EGL             .m                        34.03            :Elevation of Ground Level Above Permanent Datum
ECF             .m                      -999.25            :Elevation of Casing Flange above Permanent Datum
#--------------------------------------------------
~CURVE INFORMATION
#MNEM           .UNIT                  API CODE            :DESCRIPTION
#----            ------          --------------            -----------------------------
DEPT            .m                                         :                                                        Depth Index
TENS            .lbf                                       :        (WLWorkflow)            (1in)                   Cable Tension
BS              .in                                        :(RT)    (Borehole)              (6in)                   Bit Size
GR_CAL          .gAPI                                      :        (EDTC-B)                (6in)                   Calibrated Gamma Ray
DT              .us/ft                                     :        (ASLT-B)                (6in)                   Delta-T (also called Slowness or Interval Transit Time)
#-------------------------------------------------------------
#            DEPT         TENS           BS       GR_CAL           DT 
#                  (WLWorkflo)   (Borehole)     (EDTC-B)     (ASLT-B) 
#                                      (RT)                           
#                        (1in)        (6in)        (6in)        (6in) 
~ASCII
       1718.15760      -999.25      -999.25      -999.25      -999.25
       1718.31000      -999.25      -999.25      -999.25      -999.25
       1718.46240      -999.25     12.25000      -999.25      -999.25
       1718.61480      -999.25     12.25000      -999.25      -999.25
       1718.76720      -999.25     12.25000      -999.25      -999.25
       1718.91960      -999.25     12.25000      -999.25      -999.25
       1719.07200      -999.25     12.25000      -999.25      -999.25
       1719.22440      -999.25     12.25000      -999.25      -999.25
       1719.37680      -999.25     12.25000      -999.25      -999.25
       1719.52920      -999.25     12.25000      -999.25      -999.25
       1719.68160      -999.25     12.25000      -999.25      -999.25
       1719.83400      -999.25     12.25000      -999.25      -999.25
       1719.98640      -999.25     12.25000      -999.25      -999.25
       1720.13880      -999.25     12.25000      -999.25      -999.25
       1720.29120      -999.25     12.25000      -999.25      -999.25
       1720.44360      -999.25     12.25000      -999.25      -999.25
       1720.59600      -999.25     12.25000      -999.25      -999.25
       1720.74840      -999.25     12.25000      -999.25      -999.25
       1720.90080      -999.25     12.25000      -999.25      -999.25
       1721.05320      -999.25     12.25000     73.00756      -999.25
       1721.20560      -999.25     12.25000     74.56284      -999.25
       1721.35800      -999.25     12.25000     74.43639      -999.25
       1721.51040      -999.25     12.25000     75.29227      -999.25
       1721.66280      -999.25     12.25000     83.26192      -999.25
       1721.81520      -999.25     12.25000     82.77334      -999.25
       1721.96760      -999.25     12.25000     78.21687      -999.25
       1722.12000      -999.25     12.25000     68.07062      -999.25
       1722.27240      -999.25     12.25000     63.62962      -999.25
       1722.42480      -999.25     12.25000     67.81535      -999.25
       1722.57720      -999.25     12.25000     68.01956      -999.25
       1722.72960      -999.25     12.25000     70.62056      -999.25
       1722.88200      -999.25     12.25000     70.92115      -999.25
       1723.03440      -999.25     12.25000     66.26965      -999.25
       1723.18680      -999.25     12.25000     68.40034      -999.25
       1723.33920      -999.25     12.25000     65.64129      -999.25
       1723.49160      -999.25     12.25000     70.71317      -999.25
       1723.64400      -999.25     12.25000     72.39326      -999.25
       1723.79640      -999.25     12.25000     68.91079      -999.25
       1723.94880      -999.25     12.25000     66.97115      -999.25
       1724.10120      -999.25     12.25000     65.45487      -999.25
       1724.25360      -999.25     12.25000     73.60058      -999.25
       1724.40600      -999.25     12.25000     78.85999      -999.25
       1724.55840      -999.25     12.25000     78.76733      -999.25
       1724.71080      -999.25     12.25000     76.07775      -999.25
       1724.86320      -999.25     12.25000     77.35333      -999.25
       1725.01560      -999.25     12.25000     74.89207      -999.25
       1725.16800      -999.25     12.25000     68.02972      -999.25
       1725.32040      -999.25     12.25000     53.86590      -999.25
       1725.47280      -999.25     12.25000     50.94945      -999.25
       1725.62520      -999.25     12.25000     51.72943      -999.25
       1725.77760      -999.25     12.25000     53.78480     65.03908
       1725.93000      -999.25     12.25000     53.17018     64.87305
       1726.08240      -999.25     12.25000     52.88369     61.77735
       1726.23480      -999.25     12.25000     54.49024     68.68165
       1726.38720      -999.25     12.25000     56.17444     65.31251
       1726.53960      -999.25     12.25000     63.02340     58.87697
       1726.69200      -999.25     12.25000     65.30076     59.03321
       1726.84440      -999.25     12.25000     60.53211     63.48633
       1726.99680      -999.25     12.25000     56.97185     68.19336
       1727.14920      -999.25     12.25000     56.93579     63.23244
       1727.30160      -999.25     12.25000     62.31878     60.82031
       1727.45400      -999.25     12.25000     66.10162     60.95704
       1727.60640      -999.25     12.25000     66.55312     57.97851
       1727.75880   2308.00101     12.25000     62.96318     58.56445
       1727.91120   2283.49909     12.25000     56.43209     61.23048
       1728.06360   2313.00077     12.25000     50.42673     70.47851
       1728.21600   2234.49996     12.25000     49.74044     74.05274
       1728.36840   2219.00005     12.25000     50.78405     72.78319
       1728.52080   2315.50064     12.25000     56.41659     69.54100
       1728.67320   2242.99998     12.25000     60.90300     62.11912
       1728.82560   2277.50119     12.25000     57.83985     65.79102
       1728.97800   2306.00021     12.25000     56.73123     67.67578
       1729.13040   2274.99906     12.25000     57.49273     66.88476
       1729.28280   2284.00041     12.25000     67.39975     71.56250
       1729.43520   2302.99902     12.25000     69.66266     70.96680
       1729.58760   2263.00101     12.25000     69.18910     61.94335
       1729.74000   2304.99981     12.25000     66.41940     58.86718
       1729.89240   2265.99996     12.25000     68.88116     66.20116
       1730.04480   2274.99906     12.25000     69.61678     68.73048
       1730.19720   2307.00061     12.25000     65.43198     63.19336
       1730.34960   2288.50109     12.25000     59.30697     64.03321
       1730.50200   2286.99936     12.25000     50.70886     62.99805
       1730.65440   2293.99991     12.25000     50.67476     56.99217
       1730.80680   2267.49944     12.25000     53.18579     60.01954
       1730.95920   2298.99966     12.25000     63.38493     62.78319
       1731.11160   2313.00077     12.25000     63.22054     59.32618
       1731.26400   2284.00041     12.25000     63.92675     56.52345
       1731.41640   2281.99961     12.25000     59.57450     56.88476
       1731.56880   2289.00016     12.25000     58.87572     56.17187
       1731.72120   2276.50079     12.25000     54.46488     55.38085
       1731.87360   2305.50114     12.25000     53.76446     55.61524
       1732.02600   2279.00066     12.25000     51.29609     55.73244
       1732.17840   2290.49964     12.25000     44.96886     55.54687
       1732.33080   2293.99991     12.25000     40.98050     55.77148
       1732.48320   2268.00076     12.25000     42.69789     59.57033
       1732.63560   2300.49914     12.25000     46.76802     64.48242
       1732.78800   2297.00111     12.25000     46.35841     65.85939
       1732.94040   2295.00031     12.25000     44.93095     60.88868
       1733.09280   2289.49924     12.25000     50.92669     55.81056
       1733.24520   2265.99996     12.25000     56.14826     55.76173
       1733.39760   2262.49968     12.25000     62.40035     55.95704
       1733.55000   2307.00061     12.25000     62.40795     56.12304
       1733.70240   2254.50098     12.25000     67.83298     56.03516
       1733.85480   2289.00016     12.25000     66.89724     55.74219
       1734.00720   2295.49939     12.25000     73.14205     55.52734
       1734.15960   2292.99951     12.25000     73.34772     55.58595
       1734.31200   2304.99981     12.25000     73.53157     55.77148
       1734.46440   2295.00031     12.25000     67.69566     55.83985
       1734.61680   2252.99926     12.25000     62.59847     55.67382
       1734.76920   2292.99951     12.25000     63.22359     55.73244
       1734.92160   2272.49919     12.25000     59.93621     55.85939
       1735.07400   2273.00051     12.25000     58.92971     55.59570
       1735.22640   2285.00081     12.25000     58.68224     55.80077
       1735.37880   2280.00106     12.25000     59.98299     55.87889
       1735.53120   2263.00101     12.25000     60.61850     55.52734
