~VERSION INFORMATION 
VERS  .    2.0                                     :CWLS Log ASCII Standard - VERSION 2.0
WRAP  .    NO                                      :One Line per Depth step
PROD  .    Schlumberger Technology Corp.           :LAS Producer
PROG  .    Horizon LASWriter 13.0.221437.3100      :LAS Program name and version
SOURCE.    S1R1-Log[3]/Up                          :Run&Pass Information
CREA  .    07/04/2024                              :LAS Creation date {MM/DD/YYYY}
#--------------------------------------------------
~WELL INFORMATION 
#MNEM           .UNIT                      DATA            :DESCRIPTION
#----            ------          --------------            -----------------------------
STRT            .m                   1718.15760            :START DEPTH
STOP            .m                   2673.85800            :STOP DEPTH
STEP            .m                       0.1524            :STEP
NULL            .                       -999.25            :NULL VALUE
COMP            .                PT Pertamina EP           :COMPANY
WELL            .                BNG-A4(BNG-058)           :WELL NAME
FLD             .                       Benuang            :FIELD NAME
RIGN            .                       Tiger-7            :Rig Name
RIGTYP          .                      Land Rig            :Rig Type
SON             .                A.1059389.01.02           :Service Order Number
SRVC            .                  Schlumberger            :SERVICE COMPANY
DATE            .                    07/04/2024            :LOG DATE(Composite Date for Composite LAP) (MM/DD/YYYY)
CLAB            .                     Rig Name:            :County Label
CNTY            .                       TIGER-7            :COUNTY
SLAB            .                     Province:            :State/Province Label
STAT            .                 South Sumatra            :STATE or PROVINCE
PROV            .                 South Sumatra            :STATE or PROVINCE
CTRY            .                     Indonesia            :COUNTRY
CONT_REGION     .                          Asia            :Continent Region
SECT            .                                          :Section
TOWN            .                                          :Township
RANG            .                                          :Range
API             .                                          :API NUMBER
UWI             .                                          :UNIQUE WELL ID
LUL             .                         IDPRA            :Logging Unit Location
LUN             .                   OSLC-A 2155            :Logging Unit Number
LOC             .                         Adera            :FIELD LOCATION
FL1             .                X: 387.623,270 mE         :Field Location Line 1
FL2             .                Y: 9.630.308,141 mN       :Field Location Line 2
LATI            .deg             3° 20' 38.96" S           :LATITUDE
LONG            .deg             103° 59' 18.38" E         :LONGITUDE
PDAT            .                           MSL            :Local Permanent Datum
LMF             .                            DF            :Logging Measured From
APD             .m                        44.63            :Elevation of Depth Reference (LMF) Above Permanent Datum
EPD             .m                         0.00            :Elevation of Permanent Datum (PDAT) above Mean Sea Level
EKB             .m                        44.63            :Elevation of Kelly Bushing Above Permanent Datum
EDF             .m                        44.63            :Elevation of Drill Floor Above Permanent Datum
EGL             .m                        34.03            :Elevation of Ground Level Above Permanent Datum
ECF             .m                      -999.25            :Elevation of Casing Flange above Permanent Datum
#--------------------------------------------------
~CURVE INFORMATION
#MNEM           .UNIT                  API CODE            :DESCRIPTION
#----            ------          --------------            -----------------------------
DEPT            .m                                         :                                                        Depth Index
TENS            .lbf                                       :        (WLWorkflow)            (1in)                   Cable Tension
BS              .in                                        :(RT)    (Borehole)              (6in)                   Bit Size
GR_CAL          .gAPI                                      :        (EDTC-B)                (6in)                   Calibrated Gamma Ray
DT              .us/ft                                     :        (ASLT-B)                (6in)                   Delta-T (also called Slowness or Interval Transit Time)
#-------------------------------------------------------------
#            DEPT         TENS           BS       GR_CAL           DT 
#                  (WLWorkflo)   (Borehole)     (EDTC-B)     (ASLT-B) 
#                                      (RT)                           
#                        (1in)        (6in)        (6in)        (6in) 
~ASCII
# ...
       2226.41160   2825.99904      8.50000    190.68620     74.92188
       2226.56400   2837.50026      8.50000    201.00840     77.60741
       2226.71640   2813.49966      8.50000    213.22920     80.71290
       2226.86880   2848.99924      8.50000    229.42150     82.36327
       2227.02120   2860.99954      8.50000    220.66940     81.54296
       2227.17360   2858.00059      8.50000    205.11480     78.67187
       2227.32600   2847.49976      8.50000    180.17290     76.02538
       2227.47840   2851.00004      8.50000    182.70970     74.94142
       2227.63080   2804.99963      8.50000    181.47290     74.72657
       2227.78320   2839.50106      8.50000    175.26930     80.60546
       2227.93560   2809.50031      8.50000    158.41500     99.75586
       2228.08800   2847.00069      8.50000    148.56750    109.00392
       2228.24040   2876.50012      8.50000    150.53870     91.05467
       2228.39280   2840.00014      8.50000    158.01910     74.91210
       2228.54520   2847.49976      8.50000    164.10540     73.34960
       2228.69760   2859.00099      8.50000    162.65430     75.04883
       2228.85000   2872.50077      8.50000    152.78040     76.24023
       2229.00240   2897.00045      8.50000    156.20560     76.01563
       2229.15480   2878.99999      8.50000    157.44550     75.45897
       2229.30720   2848.00109      8.50000    159.53670     75.38085
       2229.45960   2868.00009      8.50000    136.78110     77.39259
       2229.61200   2817.50126      8.50000    106.50250     79.38476
       2229.76440   2798.99948      8.50000     73.99702     78.42772
       2229.91680   2829.00024      8.50000     54.19403     76.91405
       2230.06920   2865.99929      8.50000     48.43942     76.62108
       2230.22160   2886.00054      8.50000     49.93655     77.40234
       2230.37400   2841.00054      8.50000     52.58748     78.79882
       2230.52640   2832.50051      8.50000     55.03069     79.74610
       2230.67880   2874.00024      8.50000     60.22085     78.78906
       2230.83120   2877.99959      8.50000     59.77133     76.66991
       2230.98360   2902.00020      8.50000     55.83215     76.35743
       2231.13600   2860.99954      8.50000     49.69020     76.79689
       2231.28840   2818.49941      8.50000     53.42639     75.86914
       2231.44080   2837.99934      8.50000     55.70555     75.50780
       2231.59320   2852.49951      8.50000     54.47154     76.99218
       2231.74560   2853.00084      8.50000     50.47264     78.09570
       2231.89800   2888.99949      8.50000     50.13605     78.59375
       2232.05040   2876.50012      8.50000     50.05410     78.42772
       2232.20280   2829.49931      8.50000     52.78156     77.58791
       2232.35520   2885.00014      8.50000     49.19271     77.79298
       2232.50760   2844.99989      8.50000     46.22525     77.94922
       2232.66000   2870.00089      8.50000     41.68457     77.41210
       2232.81240   2859.99914      8.50000     43.03244     77.18749
       2232.96480   2830.49971      8.50000     46.02656     77.46093
       2233.11720   2801.00028      8.50000     49.14893     77.34376
       2233.26960   2827.99984      8.50000     50.96114     76.46484
       2233.42200   2816.50086      8.50000     48.97525     76.38672
       2233.57440   2825.99904      8.50000     45.91010     76.98242
       2233.72680   2819.99889      8.50000     45.96480     76.81640
       2233.87920   2826.99944      8.50000     48.45790     75.58595
       2234.03160   2870.00089      8.50000     52.79237     74.05274
       2234.18400   2823.00009      8.50000     49.54115     73.77931
       2234.33640   2842.50001      8.50000     47.04723     74.85352
       2234.48880   2842.50001      8.50000     47.53279     75.98634
       2234.64120   2810.99978      8.50000     54.01603     76.42580
       2234.79360   2826.50036      8.50000     54.65342     76.99218
       2234.94600   2812.00018      8.50000     46.54442     77.45117
       2235.09840   2807.00043      8.50000     40.13298     77.43164
       2235.25080   2840.00014      8.50000     40.50684     77.06054
       2235.40320   2820.50021      8.50000     43.16115     76.41601
       2235.55560   2857.00019      8.50000     44.43664     75.83006
       2235.70800   2866.99969      8.50000     42.90611     75.63478
       2235.86040   2825.99904      8.50000     43.06854     76.27931
       2236.01280   2840.00014      8.50000     42.35703     76.56250
       2236.16520   2829.49931      8.50000     43.02849     75.38085
       2236.31760   2838.99974      8.50000     45.96743     74.52150
       2236.47000   2878.50092      8.50000     48.88335     74.41405
       2236.62240   2806.49911      8.50000     47.07373     74.06250
       2236.77480   2784.00023      8.50000     43.67368     74.03321
       2236.92720   2823.00009      8.50000     42.17673     73.71094
       2237.07960   2810.99978      8.50000     48.87923     73.88672
       2237.23200   2830.00064      8.50000     49.06438     74.90234
       2237.38440   2830.49971      8.50000     47.90686     74.70703
       2237.53680   2780.99903      8.50000     47.36786     73.16407
       2237.68920   2809.99938      8.50000     51.14458     71.62108
       2237.84160   2797.00093      8.50000     49.05130     70.53712
       2237.99400   2762.00043      8.50000     43.35118     67.92968
       2238.14640   2799.99988      8.50000     37.05606     62.85156
       2238.29880   2797.99908      8.50000     35.22474     59.16991
       2238.45120   2785.49971      8.50000     33.80516     58.66211
       2238.60360   2790.00038      8.50000     37.14628     60.38085
       2238.75600   2773.49940      8.50000     42.90316     65.17578
       2238.90840   2780.99903      8.50000     45.25617     70.10741
       2239.06080   2818.49941      8.50000     50.67575     71.81640
       2239.21320   2806.00003      8.50000     60.84377     72.42188
       2239.36560   2845.49896      8.50000     88.31662     71.45509
       2239.51800   2800.50121      8.50000    116.04950     68.93555
       2239.67040   2775.50020      8.50000    131.75760     70.73244
       2239.82280   2797.00093      8.50000    132.09010     73.87694
       2239.97520   2785.00063      8.50000    118.93290     74.42384
       2240.12760   2799.99988      8.50000    109.31030     75.05858
       2240.28000   2827.50076      8.50000     97.57809     74.74610
       2240.43240   2785.00063      8.50000     84.86959     73.94530
       2240.58480   2795.00013      8.50000     71.86445     73.90626
       2240.73720   2825.00089      8.50000     68.23489     73.73048
       2240.88960   2798.99948      8.50000     82.06217     73.06641
       2241.04200   2836.99894      8.50000    108.42660     72.82227
       2241.19440   2796.49961      8.50000    124.83590     76.11328
       2241.34680   2763.99898      8.50000    122.18280     78.29102
       2241.49920   2773.00033      8.50000    100.64080     75.25390
       2241.65160   2759.50055      8.50000     83.58311     73.10546
       2241.80400   2780.99903      8.50000     84.66589     72.94922
       2241.95640   2803.99923      8.50000     91.99221     73.14453
       2242.10880   2803.50016      8.50000     95.00057     73.75977
       2242.26120   2808.49991      8.50000     81.06553     73.86718
       2242.41360   2806.00003      8.50000     72.59126     73.21290
       2242.56600   2815.99953      8.50000     63.76743     72.35352
       2242.71840   2871.99944      8.50000     71.50194     72.84181
       2242.87080   2825.99904      8.50000     75.40555     74.32618
       2243.02320   2842.99909      8.50000     83.47693     74.66795
       2243.17560   2838.99974      8.50000     91.35993     73.92580
       2243.32800   2770.99953      8.50000     96.04500     74.80469
       2243.48040   2830.00064      8.50000    100.23260     76.59179
       2243.63280   2830.00064      8.50000     88.19875     75.66407
       2243.78520   2824.00049      8.50000     77.58061     74.53125
