~VERSION INFORMATION 
VERS  .    2.0                                     :CWLS Log ASCII Standard - VERSION 2.0
WRAP  .    NO                                      :One Line per Depth step
PROD  .    Schlumberger Technology Corp.           :LAS Producer
PROG  .    Horizon LASWriter 13.0.221437.3100      :LAS Program name and version
SOURCE.    S1R1-Log[3]/Up                          :Run&Pass Information
CREA  .    05/17/2024                              :LAS Creation date {MM/DD/YYYY}
#--------------------------------------------------
~WELL INFORMATION 
#MNEM           .UNIT                      DATA            :DESCRIPTION
#----            ------          --------------            -----------------------------
STRT            .m                   1744.98000            :START DEPTH
STOP            .m                   2740.91400            :STOP DEPTH
STEP            .m                       0.1524            :STEP
NULL            .                       -999.25            :NULL VALUE
COMP            .                PT Pertamina EP           :COMPANY
WELL            .                BNG-056 (BNG-B3)          :WELL NAME
FLD             .                    Prabumulih            :FIELD NAME
RIGN            .                                          :Rig Name
RIGTYP          .                          Land            :Rig Type
SON             .                A.1009322.16.02           :Service Order Number
SRVC            .                  Schlumberger            :SERVICE COMPANY
DATE            .                    05/17/2024            :LOG DATE(Composite Date for Composite LAP) (MM/DD/YYYY)
CLAB            .                     Rig Name:            :County Label
CNTY            .                PDSI#39.3/D1500-E         :COUNTY
SLAB            .                     Province:            :State/Province Label
STAT            .                 South Sumatra            :STATE or PROVINCE
PROV            .                 South Sumatra            :STATE or PROVINCE
CTRY            .                     Indonesia            :COUNTRY
CONT_REGION     .                          Asia            :Continent Region
SECT            .                                          :Section
TOWN            .                                          :Township
RANG            .                                          :Range
API             .                                          :API NUMBER
UWI             .                                          :UNIQUE WELL ID
LUL             .                ING/IDPRA-WLES            :Logging Unit Location
LUN             .                  OSLC-AA 2175            :Logging Unit Number
LOC             .                         Adera            :FIELD LOCATION
FL1             .                 X: 389146.04             :Field Location Line 1
FL2             .                Y: 9628977.87             :Field Location Line 2
LATI            .deg             3° 21' 22.33" S           :LATITUDE
LONG            .deg             104° 0' 7.68" E           :LONGITUDE
PDAT            .                           MSL            :Local Permanent Datum
LMF             .                            DF            :Logging Measured From
APD             .m                        34.37            :Elevation of Depth Reference (LMF) Above Permanent Datum
EPD             .m                         0.00            :Elevation of Permanent Datum (PDAT) above Mean Sea Level
EKB             .m                        34.37            :Elevation of Kelly Bushing Above Permanent Datum
EDF             .m                        34.37            :Elevation of Drill Floor Above Permanent Datum
EGL             .m                        25.23            :Elevation of Ground Level Above Permanent Datum
ECF             .m                      -999.25            :Elevation of Casing Flange above Permanent Datum
#--------------------------------------------------
~CURVE INFORMATION
#MNEM           .UNIT                  API CODE            :DESCRIPTION
#----            ------          --------------            -----------------------------
DEPT            .m                                         :                                                        Depth Index
GR_CAL          .gAPI                                      :        (EDTC-B)                (6in)                   Calibrated Gamma Ray
TENS            .lbf                                       :        (WLWorkflow)            (6in)                   Cable Tension
DT              .us/ft                                     :        (DSLT-H)                (6in)                   Delta-T (also called Slowness or Interval Transit Time)
#-------------------------------------------------------------
#            DEPT       GR_CAL         TENS           DT 
#                     (EDTC-B)  (WLWorkflo)     (DSLT-H) 
#                                                        
#                        (6in)        (6in)        (6in) 
~ASCII
# ...
       1873.91040     54.91448   3187.99989     52.74738
       1874.06280     57.84723   3215.39960     52.08029
       1874.21520     62.56401   3238.72802     52.73567
       1874.36760     64.89810   3245.49927     54.40558
       1874.52000     63.16305   3248.54543     54.33139
       1874.67240     58.66226   3232.90098     53.55799
       1874.82480     59.81536   3262.45436     52.95751
       1874.97720     62.88805   3280.69985     53.57384
       1875.12960     67.17630   3270.27321     55.46540
       1875.28200     67.65840   3281.81715     58.51200
       1875.43440     72.16149   3243.90088     58.40968
       1875.58680     77.45277   3220.54548     58.15240
       1875.73920     83.05228   3252.09966     60.26618
       1875.89160     84.89721   3249.91002     61.50379
       1876.04400     88.81636   3222.40015     62.69520
       1876.19640     96.77765   3187.79981     66.35828
       1876.34880    102.20430   3236.63730     66.49947
       1876.50120    101.90450   3250.89918     68.00588
       1876.65360     99.13149   3255.81800     67.53009
       1876.80600    100.01610   3255.19977     67.75466
       1876.95840     99.94965   3238.63585     67.09797
       1877.11080     98.85880   3221.19967     68.99523
       1877.26320     99.33183   3225.72732     68.46244
       1877.41560    100.95420   3232.39965     67.44179
       1877.56800    103.70590   3224.18288     67.29509
       1877.72040     95.12933   3226.50067     64.15644
       1877.87280     82.46026   3204.27380     61.10704
       1878.02520     64.11349   3198.79971     58.52706
       1878.17760     55.48432   3228.45425     54.85336
       1878.33000     55.35804   3209.99969     59.53722
       1878.48240     69.62936   3215.45355     65.81589
       1878.63480     90.68504   3221.30083     70.66812
       1878.78720    115.89230   3229.81885     74.70956
       1878.93960    125.39910   3213.36283     74.63062
       1879.09200    115.14670   3213.79896     73.00838
       1879.24440     95.54925   3189.90851     72.90286
       1879.39680     77.79601   3221.45370     72.68215
       1879.54920     72.71555   3231.54538     73.87008
       1879.70160     70.78944   3197.39915     73.82384
       1879.85400     72.28089   3198.90986     73.46777
       1880.00640     76.59653   3203.09131     72.84796
       1880.15880     81.78734   3213.20097     71.90793
       1880.31120     88.26237   3240.45456     70.40127
       1880.46360     88.19211   3230.09086     69.81014
       1880.61600    101.64620   3252.20082     70.95137
       1880.76840    121.26310   3256.27211     72.84857
       1880.92080    140.45960   3235.54473     76.56485
       1881.07320    153.37290   3241.00084     79.26004
       1881.22560    156.35170   3226.72772     82.49772
       1881.37800    165.69960   3208.45525     83.14898
       1881.53040    161.88680   3218.00064     84.09545
       1881.68280    162.47680   3209.99969     84.67118
       1881.83520    160.87120   3209.36348     84.64131
       1881.98760    171.33030   3234.63650     86.74840
       1882.14000    177.69340   3212.60073     86.62840
       1882.29240    176.61700   3209.27356     86.25087
       1882.44480    161.28200   3203.90062     84.34484
       1882.59720    143.73930   3188.54617     80.61161
       1882.74960    137.73190   3209.99969     76.54979
       1882.90200    136.06440   3208.79921     74.44871
       1883.05440    135.67890   3207.09066     72.98960
       1883.20680    133.01770   3232.19957     72.29603
       1883.35920    129.57140   3210.09186     72.44392
       1883.51160    124.45710   3221.63580     72.12979
       1883.66400    113.09880   3262.00025     70.64173
       1883.81640    111.58830   3252.72688     69.56597
       1883.96880    114.18740   3290.89943     69.15482
       1884.12120    116.03350   3267.40016     70.11086
       1884.27360    113.22650   3253.72728     72.02589
       1884.42600    119.25720   3244.39995     73.69208
       1884.57840    125.32980   3237.72762     74.31530
       1884.73080    137.84560   3214.30028     75.17383
       1884.88320    140.70380   3208.81719     76.79406
       1885.03560    144.25430   3181.59957     78.48417
       1885.18800    143.78520   3213.54493     80.04197
       1885.34040    144.33540   3220.18129     80.85097
       1885.49280    145.39960   3206.49941     80.58665
       1885.64520    140.18330   3243.59963     78.70881
       1885.79760    130.09760   3264.09097     76.12734
       1885.95000    122.61590   3257.60073     73.89574
       1886.10240    113.69440   3251.72648     71.36404
       1886.25480    106.59470   3225.99934     70.31443
       1886.40720     94.21459   3240.90867     69.87775
       1886.55960     83.30193   3243.30064     70.22275
       1886.71200     87.76836   3232.27376     70.23641
       1886.86440     87.40787   3224.29979     70.57254
       1887.01680     88.79668   3227.70114     73.71847
       1887.16920     69.46370   3221.99999     77.75936
       1887.32160     60.01463   3243.99979     81.48548
       1887.47400     52.15332   3238.27166     82.20294
       1887.62640     53.63657   3237.19932     82.79922
       1887.77880     52.93467   3240.72657     83.03782
       1887.93120     48.89937   3224.20087     83.01484
       1888.08360     42.32365   3219.90927     81.89622
       1888.23600     39.96468   3217.80056     81.74373
       1888.38840     39.56496   3216.63605     81.53056
       1888.54080     43.14982   3237.59948     81.86053
       1888.69320     51.91370   3229.54458     80.04984
       1888.84560     67.23626   3233.49897     79.60233
       1888.99800     88.04476   3264.09097     79.86702
       1889.15040    111.88420   3267.18209     80.86442
       1889.30280    133.17750   3261.69900     83.56126
       1889.45520    147.31360   3269.81910     84.48032
       1889.60760    156.39880   3224.63700     85.43514
       1889.76000    163.37530   3221.81789     86.09088
       1889.91240    174.32500   3196.29983     87.66941
       1890.06480    170.02940   3190.90891     88.06599
       1890.21720    168.43880   3183.80045     88.36189
       1890.36960    167.99410   3165.45380     88.77980
       1890.52200    174.42760   3161.72646     88.67086
       1890.67440    171.92830   3168.63709     88.72978
       1890.82680    168.98600   3188.80021     88.81970
       1890.97920    171.26300   3182.91021     88.94021
       1891.13160    180.92760   3193.89887     89.08594
       1891.28400    170.20700   3163.45525     89.65695
       1891.43640    154.94280   3171.36402     89.75299
       1891.58880    122.49300   3163.27315     83.40605
       1891.74120    101.30630   3171.50116     78.05288
       1891.89360     80.12563   3242.81730     70.30099
       1892.04600     78.52962   3259.39921     65.07148
       1892.19840     86.80465   3247.27301     64.02077
       1892.35080     92.68816   3265.59944     63.90193
       1892.50320     93.06866   3251.90857     63.98737
       1892.65560     93.24426   3279.36449     64.56511
       1892.80800     99.34525   3263.09956     65.86624
       1892.96040    108.78880   3244.60003     68.39831
       1893.11280    117.61620   3241.18294     70.91285
       1893.26520    127.53470   3242.90048     73.48268
       1893.41760    136.79930   3231.54538     75.57775
       1893.57000    137.72120   3250.80026     76.53565
       1893.72240    130.57490   3282.54553     76.70106
       1893.87480    124.99280   3297.89999     76.70005
       1894.02720    113.08400   3284.90828     75.71991
       1894.17960    110.55050   3240.09936     75.04752
       1894.33200    102.97960   3243.54568     74.86446
       1894.48440    101.67810   3259.79937     75.20260
       1894.63680     96.19104   3263.27266     76.11380
       1894.78920     86.83436   3273.09906     76.87946
       1894.94160     81.96605   3208.99929     77.59080
       1895.09400     76.72836   3206.45445     78.26974
       1895.24640     77.20256   3172.40039     78.19382
