~VERSION INFORMATION 
VERS  .    2.0                                     :CWLS Log ASCII Standard - VERSION 2.0
WRAP  .    NO                                      :One Line per Depth step
PROD  .    Schlumberger Technology Corp.           :LAS Producer
PROG  .    Horizon LASWriter 13.0.221437.3100      :LAS Program name and version
SOURCE.    S1R1-Log[3]/Up                          :Run&Pass Information
CREA  .    07/04/2024                              :LAS Creation date {MM/DD/YYYY}
#--------------------------------------------------
~WELL INFORMATION 
#MNEM           .UNIT                      DATA            :DESCRIPTION
#----            ------          --------------            -----------------------------
STRT            .m                   1718.15760            :START DEPTH
STOP            .m                   2673.85800            :STOP DEPTH
STEP            .m                       0.1524            :STEP
NULL            .                       -999.25            :NULL VALUE
COMP            .                PT Pertamina EP           :COMPANY
WELL            .                BNG-A4(BNG-058)           :WELL NAME
FLD             .                       Benuang            :FIELD NAME
RIGN            .                       Tiger-7            :Rig Name
RIGTYP          .                      Land Rig            :Rig Type
SON             .                A.1059389.01.02           :Service Order Number
SRVC            .                  Schlumberger            :SERVICE COMPANY
DATE            .                    07/04/2024            :LOG DATE(Composite Date for Composite LAP) (MM/DD/YYYY)
CLAB            .                     Rig Name:            :County Label
CNTY            .                       TIGER-7            :COUNTY
SLAB            .                     Province:            :State/Province Label
STAT            .                 South Sumatra            :STATE or PROVINCE
PROV            .                 South Sumatra            :STATE or PROVINCE
CTRY            .                     Indonesia            :COUNTRY
CONT_REGION     .                          Asia            :Continent Region
SECT            .                                          :Section
TOWN            .                                          :Township
RANG            .                                          :Range
API             .                                          :API NUMBER
UWI             .                                          :UNIQUE WELL ID
LUL             .                         IDPRA            :Logging Unit Location
LUN             .                   OSLC-A 2155            :Logging Unit Number
LOC             .                         Adera            :FIELD LOCATION
FL1             .                X: 387.623,270 mE         :Field Location Line 1
FL2             .                Y: 9.630.308,141 mN       :Field Location Line 2
LATI            .deg             3° 20' 38.96" S           :LATITUDE
LONG            .deg             103° 59' 18.38" E         :LONGITUDE
PDAT            .                           MSL            :Local Permanent Datum
LMF             .                            DF            :Logging Measured From
APD             .m                        44.63            :Elevation of Depth Reference (LMF) Above Permanent Datum
EPD             .m                         0.00            :Elevation of Permanent Datum (PDAT) above Mean Sea Level
EKB             .m                        44.63            :Elevation of Kelly Bushing Above Permanent Datum
EDF             .m                        44.63            :Elevation of Drill Floor Above Permanent Datum
EGL             .m                        34.03            :Elevation of Ground Level Above Permanent Datum
ECF             .m                      -999.25            :Elevation of Casing Flange above Permanent Datum
#--------------------------------------------------
~CURVE INFORMATION
#MNEM           .UNIT                  API CODE            :DESCRIPTION
#----            ------          --------------            -----------------------------
DEPT            .m                                         :                                                        Depth Index
TENS            .lbf                                       :        (WLWorkflow)            (1in)                   Cable Tension
BS              .in                                        :(RT)    (Borehole)              (6in)                   Bit Size
GR_CAL          .gAPI                                      :        (EDTC-B)                (6in)                   Calibrated Gamma Ray
DT              .us/ft                                     :        (ASLT-B)                (6in)                   Delta-T (also called Slowness or Interval Transit Time)
#-------------------------------------------------------------
#            DEPT         TENS           BS       GR_CAL           DT 
#                  (WLWorkflo)   (Borehole)     (EDTC-B)     (ASLT-B) 
#                                      (RT)                           
#                        (1in)        (6in)        (6in)        (6in) 
~ASCII
# ...
       2278.98960   2851.49912      8.50000    150.49030     73.14453
       2279.14200   2857.00019      8.50000    169.16740     70.33202
       2279.29440   2848.00109      8.50000    178.03190     68.60350
       2279.44680   2852.00044      8.50000    177.20980     69.31640
       2279.59920   2878.99999      8.50000    188.94910     72.13866
       2279.75160   2825.00089      8.50000    185.77510     74.74610
       2279.90400   2852.49951      8.50000    188.73580     74.66795
       2280.05640   2819.49981      8.50000    171.33630     72.45117
       2280.20880   2826.99944      8.50000    172.45000     71.02538
       2280.36120   2843.99949      8.50000    170.20380     70.72265
       2280.51360   2860.99954      8.50000    182.15190     71.21094
       2280.66600   2832.99959      8.50000    187.13660     73.24219
       2280.81840   2843.99949      8.50000    192.29960     75.37110
       2280.97080   2853.99899      8.50000    188.12290     77.07033
       2281.12320   2837.50026      8.50000    167.57280     78.87697
       2281.27560   2861.99994      8.50000    141.80940     77.49022
       2281.42800   2824.49956      8.50000    115.90410     73.25194
       2281.58040   2842.00094      8.50000    116.32940     71.04492
       2281.73280   2853.00084      8.50000    138.08670     71.32814
       2281.88520   2804.50056      8.50000    151.58360     70.15624
       2282.03760   2857.00019      8.50000    155.63130     68.23241
       2282.19000   2842.99909      8.50000    149.05820     70.64453
       2282.34240   2864.00074      8.50000    151.62790     73.44726
       2282.49480   2911.50062      8.50000    161.52360     72.08008
       2282.64720   2847.00069      8.50000    170.63250     70.32227
       2282.79960   2872.99984      8.50000    167.26970     69.31640
       2282.95200   2884.50107      8.50000    160.27860     69.69727
       2283.10440   2886.00054      8.50000    144.62660     73.13478
       2283.25680   2933.99950      8.50000    145.93400     73.97462
       2283.40920   2902.00020      8.50000    149.41370     70.41017
       2283.56160   2905.99955      8.50000    161.03060     69.92188
       2283.71400   2875.49972      8.50000    167.30710     72.94922
       2283.86640   2849.50056      8.50000    169.13200     72.97851
       2284.01880   2862.50126      8.50000    164.95320     71.22070
       2284.17120   2893.99925      8.50000    158.22600     71.18165
       2284.32360   2860.99954      8.50000    155.57770     71.44530
       2284.47600   2922.99960      8.50000    160.65780     70.81056
       2284.62840   2902.00020      8.50000    168.20630     69.57033
       2284.78080   2881.99894      8.50000    171.34670     69.16991
       2284.93320   2893.99925      8.50000    164.80920     70.86914
       2285.08560   2855.99979      8.50000    165.34380     71.18165
       2285.23800   2875.00064      8.50000    164.68150     69.39452
       2285.39040   2899.50032      8.50000    161.50540     68.87697
       2285.54280   2860.50047      8.50000    152.82620     69.95117
       2285.69520   2865.99929      8.50000    155.08810     72.21678
       2285.84760   2897.00045      8.50000    166.70420     74.10157
       2286.00000   2886.00054      8.50000    171.59920     74.47267
       2286.15240   2927.00120      8.50000    171.25010     73.75977
       2286.30480   2887.00094      8.50000    172.00100     73.35939
       2286.45720   2858.00059      8.50000    167.78390     72.64649
       2286.60960   2881.99894      8.50000    158.94560     71.65040
       2286.76200   2817.50126      8.50000    150.25140     72.27540
       2286.91440   2864.49982      8.50000    157.39120     73.72070
       2287.06680   2914.00050      8.50000    161.83280     74.00392
       2287.21920   2981.00031      8.50000    166.00860     73.36914
       2287.37160   2922.99960      8.50000    166.30150     71.79686
       2287.52400   2920.00065      8.50000    164.56280     70.30273
       2287.67640   2897.00045      8.50000    158.27610     71.91405
       2287.82880   2927.99935      8.50000    145.72050     74.12108
       2287.98120   2899.99940      8.50000    145.29620     72.52929
       2288.13360   2856.50111      8.50000    150.90270     70.09766
       2288.28600   2869.33321      8.50000    159.45980     69.71678
       2288.43840   2854.99939      8.50000    166.30360     70.13671
       2288.59080   2927.99935      8.50000    169.63110     70.86914
       2288.74320   2924.00000      8.50000    174.03650     71.22070
       2288.89560   2871.99944      8.50000    177.82760     71.58204
       2289.04800   2887.00094      8.50000    172.44800     72.05079
       2289.20040   2856.50111      8.50000    167.30540     72.60741
       2289.35280   2848.99924      8.50000    167.18340     73.12499
       2289.50520   2872.99984      8.50000    173.15990     73.83789
       2289.65760   2862.50126      8.50000    181.33270     78.23244
       2289.81000   2874.00024      8.50000    181.58840     82.79298
       2289.96240   2900.99980      8.50000    181.39720     81.83593
       2290.11480   2881.00079      8.50000    186.59840     78.57421
       2290.26720   2921.50012      8.50000    193.21110     78.45704
       2290.41960   2908.00035      8.50000    203.93830     81.36718
       2290.57200   2930.00015      8.50000    198.99700     83.85743
       2290.72440   2947.00020      8.50000    195.18260     84.36523
       2290.87680   2934.99990      8.50000    183.11480     83.02734
       2291.02920   2893.50017      8.50000    169.55210     76.01563
       2291.18160   2955.99930      8.50000    146.60720     75.64453
       2291.33400   2857.00019      8.50000    120.03450     80.00000
       2291.48640   2877.99959      8.50000    103.92350     78.23244
       2291.63880   2904.99915      8.50000     99.67982     77.50000
       2291.79120   2854.99939      8.50000    109.06890     77.18749
       2291.94360   2908.00035      8.50000    114.01080     77.10937
       2292.09600   2893.99925      8.50000    104.87960     76.67969
       2292.24840   2858.49967      8.50000     87.83462     75.62499
       2292.40080   2883.66703      8.50000     77.10570     75.00976
       2292.55320   2868.00009      8.50000     77.66357     75.83006
       2292.70560   2930.00015      8.50000     75.49503     76.85547
       2292.85800   2914.00050      8.50000     77.58056     77.10937
       2293.01040   2838.50066      8.50000     82.58676     77.41210
       2293.16280   2773.49940      8.50000     91.74255     79.98046
       2293.31520   2868.00009      8.50000     99.51958     83.83789
       2293.46760   3059.49909      8.50000     99.92756     84.71681
       2293.62000   3116.00033      8.50000     95.81710     81.25977
       2293.77240   3016.00081      8.50000     83.22355     75.44922
       2293.92480   2914.00050      8.50000     69.13810     72.34376
       2294.07720   2934.99990      8.50000     57.74167     74.01367
       2294.22960   2902.00020      8.50000     51.13321     77.57812
       2294.38200   2871.99944      8.50000     46.19849     79.14062
       2294.53440   2878.99999      8.50000     48.58717     78.32031
       2294.68680   2845.50121      8.50000     50.48661     77.94922
       2294.83920   2877.99959      8.50000     51.42130     77.42188
       2294.99160   2866.50062      8.50000     51.19654     76.97267
       2295.14400   2836.49986      8.50000     50.93342     78.11524
       2295.29640   2870.99904      8.50000     51.15702     80.18553
       2295.44880   2833.50091      8.50000     46.82273     81.11328
       2295.60120   2872.50077      8.50000     44.85445     80.27344
       2295.75360   2893.00109      8.50000     44.40639     79.10157
       2295.90600   2887.00094      8.50000     46.20111     78.08595
       2296.05840   2914.00050      8.50000     41.72768     78.31056
       2296.21080   2883.99974      8.50000     39.56023     78.98438
       2296.36320   2849.99964      8.50000     40.79367     78.04687
