~VERSION INFORMATION 
VERS  .    2.0                                     :CWLS Log ASCII Standard - VERSION 2.0
WRAP  .    NO                                      :One Line per Depth step
PROD  .    Schlumberger Technology Corp.           :LAS Producer
PROG  .    Horizon LASWriter 13.0.221437.3100      :LAS Program name and version
SOURCE.    S1R1-Log[3]/Up                          :Run&Pass Information
CREA  .    07/04/2024                              :LAS Creation date {MM/DD/YYYY}
#--------------------------------------------------
~WELL INFORMATION 
#MNEM           .UNIT                      DATA            :DESCRIPTION
#----            ------          --------------            -----------------------------
STRT            .m                   1718.15760            :START DEPTH
STOP            .m                   2673.85800            :STOP DEPTH
STEP            .m                       0.1524            :STEP
NULL            .                       -999.25            :NULL VALUE
COMP            .                PT Pertamina EP           :COMPANY
WELL            .                BNG-A4(BNG-058)           :WELL NAME
FLD             .                       Benuang            :FIELD NAME
RIGN            .                       Tiger-7            :Rig Name
RIGTYP          .                      Land Rig            :Rig Type
SON             .                A.1059389.01.02           :Service Order Number
SRVC            .                  Schlumberger            :SERVICE COMPANY
DATE            .                    07/04/2024            :LOG DATE(Composite Date for Composite LAP) (MM/DD/YYYY)
CLAB            .                     Rig Name:            :County Label
CNTY            .                       TIGER-7            :COUNTY
SLAB            .                     Province:            :State/Province Label
STAT            .                 South Sumatra            :STATE or PROVINCE
PROV            .                 South Sumatra            :STATE or PROVINCE
CTRY            .                     Indonesia            :COUNTRY
CONT_REGION     .                          Asia            :Continent Region
SECT            .                                          :Section
TOWN            .                                          :Township
RANG            .                                          :Range
API             .                                          :API NUMBER
UWI             .                                          :UNIQUE WELL ID
LUL             .                         IDPRA            :Logging Unit Location
LUN             .                   OSLC-A 2155            :Logging Unit Number
LOC             .                         Adera            :FIELD LOCATION
FL1             .                X: 387.623,270 mE         :Field Location Line 1
FL2             .                Y: 9.630.308,141 mN       :Field Location Line 2
LATI            .deg             3° 20' 38.96" S           :LATITUDE
LONG            .deg             103° 59' 18.38" E         :LONGITUDE
PDAT            .                           MSL            :Local Permanent Datum
LMF             .                            DF            :Logging Measured From
APD             .m                        44.63            :Elevation of Depth Reference (LMF) Above Permanent Datum
EPD             .m                         0.00            :Elevation of Permanent Datum (PDAT) above Mean Sea Level
EKB             .m                        44.63            :Elevation of Kelly Bushing Above Permanent Datum
EDF             .m                        44.63            :Elevation of Drill Floor Above Permanent Datum
EGL             .m                        34.03            :Elevation of Ground Level Above Permanent Datum
ECF             .m                      -999.25            :Elevation of Casing Flange above Permanent Datum
#--------------------------------------------------
~CURVE INFORMATION
#MNEM           .UNIT                  API CODE            :DESCRIPTION
#----            ------          --------------            -----------------------------
DEPT            .m                                         :                                                        Depth Index
TENS            .lbf                                       :        (WLWorkflow)            (1in)                   Cable Tension
BS              .in                                        :(RT)    (Borehole)              (6in)                   Bit Size
GR_CAL          .gAPI                                      :        (EDTC-B)                (6in)                   Calibrated Gamma Ray
DT              .us/ft                                     :        (ASLT-B)                (6in)                   Delta-T (also called Slowness or Interval Transit Time)
#-------------------------------------------------------------
#            DEPT         TENS           BS       GR_CAL           DT 
#                  (WLWorkflo)   (Borehole)     (EDTC-B)     (ASLT-B) 
#                                      (RT)                           
#                        (1in)        (6in)        (6in)        (6in) 
~ASCII
# ...
       2664.56160   3403.00041      8.50000    152.82120     69.66798
       2664.71400   3451.99977      8.50000    157.71410     70.37110
       2664.86640   3397.49934      8.50000    158.06780     70.82031
       2665.01880   3464.49915      8.50000    161.85880     69.91210
       2665.17120   3453.00017      8.50000    165.48400     70.00000
       2665.32360   3447.49910      8.50000    169.84560     69.28711
       2665.47600   3478.00117      8.50000    166.23890     68.57421
       2665.62840   3408.49924      8.50000    161.40700     68.85743
       2665.78080   3439.50039      8.50000    159.85590     68.93555
       2665.93320   3466.00087      8.50000    164.56080     70.93751
       2666.08560   3398.00066      8.50000    168.16330     73.63282
       2666.23800   3427.99917      8.50000    168.11560     74.05274
       2666.39040   3484.99948      8.50000    167.07500     74.46288
       2666.54280   3410.99912      8.50000    166.99050     73.63282
       2666.69520   3492.00003      8.50000    167.50230     71.27931
       2666.84760   3460.66616      8.50000      -999.25     69.68749
       2667.00000   3487.49935      8.50000      -999.25     69.43359
       2667.15240   3539.49991      8.50000      -999.25     69.58008
       2667.30480   3416.99927      8.50000      -999.25     72.23632
       2667.45720   3442.00027      8.50000      -999.25     74.95117
       2667.60960   3440.66715      8.50000      -999.25     72.42188
       2667.76200   3415.00072      8.50000      -999.25     69.16991
       2667.91440   3484.99948      8.50000      -999.25     68.38868
       2668.06680   3502.33449      8.50000      -999.25     70.42968
       2668.21920   3479.19941      8.50000      -999.25     75.83006
       2668.37160   3528.25047      8.50000      -999.25     75.08788
       2668.52400   3423.19950      8.50000      -999.25     69.52150
       2668.67640   3332.79933      8.50000      -999.25     68.73048
       2668.82880   3317.75062      8.50000      -999.25     69.25781
       2668.98120   3306.49893      8.50000      -999.25     67.48046
       2669.13360   3355.75007      8.50000      -999.25     66.61133
       2669.28600   3301.00010      8.50000      -999.25     67.83202
       2669.43840   3323.19998      8.50000      -999.25     68.21290
       2669.59080   3381.80093      8.50000      -999.25     68.20311
       2669.74320   3354.00106      8.50000      -999.25     68.37889
       2669.89560   3359.20089      8.50000      -999.25     68.48633
       2670.04800   3413.24945      8.50000      -999.25     68.55467
       2670.20040   3351.40002      8.50000      -999.25     68.68165
       2670.35280   3375.49954      8.50000      -999.25     68.79882
       2670.50520   3323.49898      8.50000      -999.25     68.85743
       2670.65760   3325.20078      8.50000      -999.25     68.88672
       2670.81000   3287.25079      8.50000      -999.25     68.88672
       2670.96240   3237.99964      8.50000      -999.25     68.84764
       2671.11480   3297.00075      8.50000      -999.25     68.83789
       2671.26720   3269.25033      8.50000      -999.25      -999.25
       2671.41960   3304.99945      8.50000      -999.25      -999.25
       2671.57200   3291.74921      8.50000      -999.25      -999.25
       2671.72440   3276.99950      8.50000      -999.25      -999.25
       2671.87680   3217.49931      8.50000      -999.25      -999.25
       2672.02920   3129.99918      8.50000      -999.25      -999.25
       2672.18160   3036.75068      8.50000      -999.25      -999.25
       2672.33400   2888.39926      8.50000      -999.25      -999.25
       2672.48640   2888.19918      8.50000      -999.25      -999.25
       2672.63880   2738.24936      8.50000      -999.25      -999.25
       2672.79120   2747.33389      8.50000      -999.25      -999.25
       2672.94360   2690.00087      8.50000      -999.25      -999.25
       2673.09600   2561.99915      8.50000      -999.25      -999.25
       2673.24840   2471.66642      8.50000      -999.25      -999.25
       2673.40080   2380.66601      8.50000      -999.25      -999.25
       2673.55320   2257.60110      8.50000      -999.25      -999.25
       2673.70560   1794.79997      8.50000      -999.25      -999.25
       2673.85800      -999.25      -999.25      -999.25      -999.25
