~VERSION INFORMATION 
VERS  .    2.0                                     :CWLS Log ASCII Standard - VERSION 2.0
WRAP  .    NO                                      :One Line per Depth step
PROD  .    Schlumberger Technology Corp.           :LAS Producer
PROG  .    Horizon LASWriter 13.0.221437.3100      :LAS Program name and version
SOURCE.    S1R1-Log[4]/Up                          :Run&Pass Information
CREA  .    07/28/2024                              :LAS Creation date {MM/DD/YYYY}
#--------------------------------------------------
~WELL INFORMATION 
#MNEM           .UNIT                      DATA            :DESCRIPTION
#----            ------          --------------            -----------------------------
STRT            .m                   1495.04400            :START DEPTH
STOP            .m                   2360.37120            :STOP DEPTH
STEP            .m                       0.1524            :STEP
NULL            .                       -999.25            :NULL VALUE
COMP            .                PT Pertamina EP           :COMPANY
WELL            .                BNG-059 (BNG-H1)          :WELL NAME
FLD             .                         Adera            :FIELD NAME
RIGN            .                                          :Rig Name
RIGTYP          .                          Land            :Rig Type
SON             .                A.1009322.17.2            :Service Order Number
SRVC            .                  Schlumberger            :SERVICE COMPANY
DATE            .                    07/28/2024            :LOG DATE(Composite Date for Composite LAP) (MM/DD/YYYY)
CLAB            .                     Rig Name:            :County Label
CNTY            .                South Sumatera            :COUNTY
SLAB            .                     Province:            :State/Province Label
STAT            .                 South Sumatra            :STATE or PROVINCE
PROV            .                 South Sumatra            :STATE or PROVINCE
CTRY            .                     Indonesia            :COUNTRY
CONT_REGION     .                          Asia            :Continent Region
SECT            .                                          :Section
TOWN            .                                          :Township
RANG            .                                          :Range
API             .                                          :API NUMBER
UWI             .                                          :UNIQUE WELL ID
LUL             .                      ING/IDPR            :Logging Unit Location
LUN             .                   OSLC-E 2349            :Logging Unit Number
LOC             .                         Adera            :FIELD LOCATION
FL1             .                X: 397,029.172            :Field Location Line 1
FL2             .                Y: 9,625,078.797          :Field Location Line 2
LATI            .deg             3° 23' 29.559" S          :LATITUDE
LONG            .deg             104° 4' 22.998" E         :LONGITUDE
PDAT            .                           MSL            :Local Permanent Datum
LMF             .                            DF            :Logging Measured From
APD             .m                        25.78            :Elevation of Depth Reference (LMF) Above Permanent Datum
EPD             .m                         0.00            :Elevation of Permanent Datum (PDAT) above Mean Sea Level
EKB             .m                        25.78            :Elevation of Kelly Bushing Above Permanent Datum
EDF             .m                        25.78            :Elevation of Drill Floor Above Permanent Datum
EGL             .m                        16.64            :Elevation of Ground Level Above Permanent Datum
ECF             .m                      -999.25            :Elevation of Casing Flange above Permanent Datum
#--------------------------------------------------
~CURVE INFORMATION
#MNEM           .UNIT                  API CODE            :DESCRIPTION
#----            ------          --------------            -----------------------------
DEPT            .m                                         :                                                        Depth Index
HTEN            .lbf                                       :        (LEH-QT)                (6in)                   Head Tension
GR_CAL          .gAPI                                      :        (SGT-N)                 (6in)                   Calibrated Gamma Ray
DT_BHC          .us/ft                                     :        (MAST-B)                (6in)                   1.5 Feet Span Borehole Compensated Slowness from Near Spacing
BS              .in                                        :(RT)    (Borehole)              (6in)                   Bit Size
#-------------------------------------------------------------
#            DEPT         HTEN       GR_CAL       DT_BHC           BS 
#                     (LEH-QT)      (SGT-N)     (MAST-B)   (Borehole) 
#                                                                (RT) 
#                        (6in)        (6in)        (6in)        (6in) 
~ASCII
# ...
       2055.87600    559.08478    189.00920     90.25000      8.50000
       2056.02840    569.74747    180.46410     95.99999      8.50000
       2056.18080    571.52458    177.96310     87.50061      8.50000
       2056.33320    564.89204    176.32170     85.24784      8.50000
       2056.48560    559.37029    170.90290     73.74999      8.50000
       2056.63800    555.27652    166.10930     73.33619      8.50000
       2056.79040    560.53660    167.04710     71.49998      8.50000
       2056.94280    553.11857    166.42190     70.74999      8.50000
       2057.09520    537.56876    161.83670     68.49999      8.50000
       2057.24760    527.06479    162.77460     70.00000      8.50000
       2057.40000    528.55640    163.19140     70.50000      8.50000
       2057.55240    525.50664    166.31770     70.00000      8.50000
       2057.70480    521.94364    164.44190     71.75001      8.50000
       2057.85720    530.07970    170.90290     70.83448      8.50000
       2058.00960    548.39017    172.57020     70.74999      8.50000
       2058.16200    548.61228    172.77860     73.41553      8.50000
       2058.31440    558.25951    173.61230     74.00001      8.50000
       2058.46680    551.14723    159.59620     79.75001      8.50000
       2058.61920    547.18429    146.88270     88.00000      8.50000
       2058.77160    549.31054    128.75030     89.42238      8.50000
       2058.92400    550.29430    122.13300     88.00125      8.50000
       2059.07640    558.60863    111.50370     74.99677      8.50000
       2059.22880    556.75216    102.75010     75.82653      8.50000
       2059.38120    552.70605    101.62990     69.00001      8.50000
       2059.53360    551.24637    106.63190     71.49937      8.50000
       2059.68600    535.72825    113.30130     70.50061      8.50000
       2059.83840    522.97125    121.09100     70.91553      8.50000
       2059.99080    525.01408    131.72030     70.83448      8.50000
       2060.14320    532.58655    140.49990     69.25001      8.50000
       2060.29560    538.58445    137.79050     70.99999      8.50000
       2060.44800    550.80214    113.19710     97.25004      8.50000
       2060.60040    556.95854     87.11878     76.66893      8.50000
       2060.75280    548.51719     69.82008     74.87500      8.50000
       2060.90520    544.00707     65.86013     78.33680      8.50000
       2061.05760    546.04204     59.39917     75.37500      8.50000
       2061.21000    548.64420     54.97028     79.75001      8.50000
       2061.36240    550.61173     53.92819     83.74755      8.50000
       2061.51480    549.85008     54.76186     85.00000      8.50000
       2061.66720    546.50604     57.31499     83.41553      8.50000
       2061.81960    541.66254     62.52544     80.00061      8.50000
       2061.97200    542.36079     72.73793     80.00000      8.50000
       2062.12440    540.01244     79.32916     79.08447      8.50000
       2062.27680    542.70992     82.45543     80.42066      8.50000
       2062.42920    545.43910     87.24905     78.66321      8.50000
       2062.58160    544.74084     98.37336     78.24999      8.50000
       2062.73400    542.40036    117.75620     78.99998      8.50000
       2062.88640    546.26415    120.25730     80.08681      8.50000
       2063.03880    545.43888    105.61590     80.00000      8.50000
       2063.19120    550.16728     84.14883     80.74999      8.50000
       2063.34360    554.86399     75.39526     59.50004      8.50000
       2063.49600    558.16441     92.95449     77.99268      8.50000
       2063.64840    550.96063    107.54380     82.33105      8.50000
       2063.80080    542.00762    131.30340     80.83509      8.50000
       2063.95320    541.44042    137.19120     81.24999      8.50000
       2064.10560    545.05827    143.44380     78.74999      8.50000
       2064.25800    546.01012    142.19330     76.24999      8.50000
       2064.41040    549.56435    145.05900     74.16211      8.50000
       2064.56280    552.42054    146.93480     72.41320      8.50000
       2064.71520    550.46875    148.55000     70.83741      8.50000
       2064.86760    544.51873    151.67630     72.50000      8.50000
       2065.02000    539.75863    154.17730     73.49999      8.50000
       2065.17240    541.05960    157.56410     70.74999      8.50000
       2065.32480    538.52083    158.81460     94.38723      8.50000
       2065.47720    533.06269    144.98090     77.50000      8.50000
       2065.62960    528.54831    129.14110     81.99940      8.50000
       2065.78200    531.92022    118.09490    100.99999      8.50000
       2065.93440    539.21909    131.72030    112.44630      8.50000
       2066.08680    549.81838    151.10320    133.99999      8.50000
       2066.23920    555.21312    159.23150    123.49999      8.50000
       2066.39160    545.93480    164.65030    117.74939      8.50000
       2066.54400    541.91635    158.42380    112.75363      8.50000
       2066.69640    543.24924    161.96690    106.24999      8.50000
       2066.84880    542.58290    154.04700     79.41896      8.50000
       2067.00120    538.15192    151.31160     73.24999      8.50000
       2067.15360    534.49068    140.05700     70.00000      8.50000
       2067.30600    526.65227    139.22330     68.24999      8.50000
       2067.45840    522.68551    134.63810     64.91551      8.50000
       2067.61080    526.36676    137.55600     61.58447      8.50000
       2067.76320    527.47732    143.60010     62.50000      8.50000
       2067.91560    540.23455    152.77050     67.99878      8.50000
       2068.06800    544.07833    167.35980     73.08680      8.50000
       2068.22040    543.09075    172.36180     74.25001      8.50000
       2068.37280    534.14155    177.78070     75.16554      8.50000
       2068.52520    528.93723    170.46000     77.25001      8.50000
       2068.67760    527.25521    167.54210     82.50000      8.50000
       2068.83000    529.00062    163.58220     83.00000      8.50000
       2068.98240    531.97574    161.52400     77.50000      8.50000
       2069.13480    535.75995    165.48400     72.49659      8.50000
       2069.28720    541.59914    159.85670     76.24999      8.50000
       2069.43960    535.12532    144.22540     74.17018      8.50000
       2069.59200    526.58887    129.11500     69.59172      8.50000
       2069.74440    526.68397    121.61200     64.75061      8.50000
       2069.89680    530.99985    131.19920     65.00000      8.50000
       2070.04920    542.54311    127.96870     64.75001      8.50000
       2070.20160    556.26028    124.84250     65.00000      8.50000
       2070.35400    564.73333    127.55190     75.92577      8.50000
       2070.50640    558.76735    148.36770     68.24999      8.50000
       2070.65880    555.46693    173.58630     71.49998      8.50000
       2070.81120    551.75398    188.38390     86.24999      8.50000
       2070.96360    553.72151    184.24160     94.49608      8.50000
       2071.11600    550.42132    178.82280     89.00002      8.50000
       2071.26840    559.62432    160.50800     84.41320      8.50000
       2071.42080    562.79750    148.83660     89.50001      8.50000
       2071.57320    559.33859    134.87260    111.92369      8.50000
       2071.72560    557.75189    134.63810    102.33334      8.50000
       2071.87800    560.32235    129.84450     84.73778      8.50000
       2072.03040    558.86267    137.89460     75.97189      8.50000
       2072.18280    554.95931    145.60610     74.17235      8.50000
       2072.33520    541.72616    156.65230     75.74938      8.50000
       2072.48760    549.29075    158.81460     75.00061      8.50000
       2072.64000    558.22781    155.06310     72.58446      8.50000
       2072.79240    556.57771    146.10110     77.58446      8.50000
       2072.94480    555.49863    128.17720     78.49999      8.50000
       2073.09720    553.21389    106.50170     80.00000      8.50000
       2073.24960    550.16728     91.70398     80.74999      8.50000
