~Version Information
 VERS.                  2.0:   CWLS log ASCII Standard -VERSION 2.0
 WRAP.                   NO:   One line per depth step
~Well Information Block
#MNEM.UNIT     VALUE/NAME     DESCRIPTION
#---------     -----------    ---------------------------
 STRT.M              1700.1000: START DEPTH
 STOP.M              2733.9000: STOP DEPTH
 STEP.M                 0.1500: STEP DEPTH
 NULL.               -999.2500: NULL VALUE
 CNTY.         Tanjung Benuang:  COUNTY NAME
 CTRY.               Indonesia:  COUNTRY NAME
 PROV.          South Sumatera:  PROVINCE
 STAT.          South Sumatera:  STATE NAME
 FLD .                 Benuang:  FIELD NAME
 DATE.      15.00.00 14-May-24:  END TIME
 WELL.                  BNG-B3:  WELL NAME
 COMP.     PHR Region 1 Zona 4:  COMPANY
 API .                        :  API NUMBER
 SRVC.             Halliburton:  SERVICE COMPANY
 UWI .                        :  UNIQUE WELL IDENTIFIER
 LOC .                        :  LOCATION
~Parameter Information Block
#MNEM.UNIT       Value        Description
#---------     -----------    ---------------------------
 AV  .fpm             311.0000:  Ann Velocity 
 AVMX.fpm             315.0000:  Max Ann Veloc 
 AZIF.deg             294.2000:  Azm, Final 
 BHAT.        Rotary Steerable:  BHA Type 
 BROT.°/100'            0.2000:  Build Rotating 
 BS  .in                8.5000:  Bit Size 
 BSZ .in                8.5000:  Bit Size 
 BTPL.psig            496.0000:  Bit Press Loss 
 CABU.                      No:  Customer Abuse 
 CGEO.           Achmad Gazali:  Customer Geo 
 COMM.                     üQb:  Run Comments 1 
 TCS .hr               88.2729:  Time Ciculation Ended 
 CV  .fpm             378.0000:  Crit Velocity 
 CVMX.fpm             380.0000:  Max Crit Veloc 
 DD1 .          Yudi Kurniawan:  Direct Drillr 1 
 DD2 .               Aminuddin:  Direct Drillr 2 
 DDSV.               Geo-Pilot:  DD Service 
 DEFF.%               100.0000:  % Det Eff 
 DLRX.°/100'            0.5000:  Dogleg Rot Max 
 DLSO.°/100'            1.1000:  Dogleg Oriented 
 DLSX.°/100'            2.1900:  Dogleg Str Max 
 DRET.      10.25.00 13-May-24:  Drill End Time 
 DRST.      23.00.00 09-May-24:  Drill Start Tim 
 DTIM.hr               52.9642:  Time Drilling 
 EDEP.m              2734.0000:  End Depth 
 ENG1.      Andika BP Pulungan:  Engineer 1 
 ENG2.         Edward Joshua M:  Engineer 2 
 ENG3.       Pandamama Siahaan:  Engineer 3 
 ENG4.        Siti Nurfitriani:  Engineer 4 
 ETIM.      18.45.00 14-May-24:  End Time 
 FLOI.gpm             550.0000:  Flow In 
 FLON.gpm             400.0000:  Flow In Min 
 FLOS.mptm              4.2000:  Fluid Loss 
 FLOX.gpm             600.0000:  Flow In Max 
 DFT .                 Polymer:  Mud Type 
 HPRE.                      No:  High Pressure 
 HTEM.                      No:  High Temp 
 HYDO.m                 0.0000:  Hydro Offset 
 IFIN.deg              25.6000:  Inc, Final 
 IMAX.deg              26.9023:  Inc Max 
 IMIN.deg              20.4496:  Inc Min 
 IMND.m              2580.0901:  Inc Min Depth 
 IMXD.m              2034.3999:  Inc Max Depth 
 JARR.                      No:  Jarring 
 LETM.      10.25.00 13-May-24:  Log End Time 
 LOST.hr                     0:  Lost Rig Time 
 LSTM.      23.00.00 09-May-24:  Log Start Time 
 MDCL.ppm           42000.0000:  Mud Chlorides 
 MDES.             Fresh Water:  Mud Desc 
 DFD .SG                1.3000:  Mud Density 
 MDMN.SG                1.2500:  Dens Mud Min 
 MDMX.SG                1.3000:  Dens Mud Max 
 PH  .pH               10.0000:  Mud pH 
 MOIL.                       0:  Run Mud Oil % 
 MOWR.                   0 100:  Run Mud OWR 
 MSND.                     0.2:  Run Mud Sand % 
 MSOL.                     8.9:  Run Mud Solids% 
 DFV .spqt             80.0000:  Mud Viscosity 
 MWOD.in                6.7500:  MWD Tool OD 
 MWSI.                      No:  Serv Intrp, MWD 
 OTIM.hr              124.1140:  Time Operating 
 PMAX.psig           3200.0000:  Press Op, Max 
 PV  .cP               24.0000:  Mud PV 
 RMS .ohmm              0.0800:  Mud Resistivity 
 RMCS.ohmm              0.1050:  Mud Cake Resistivity 
 MCST.degF             81.0000:  Mud Cake Sample Temperature 
 RMFS.ohmm              0.0500:  Mud Filtrate Resistivity 
 RMFT.degF             81.0000:  Mud Filtrate Sample Temperature 
 RMMT.ohmm              0.0525:  Rm @ Max Temp 
 MST .degF             82.0000:  Mud Sample Temperature 
 RUN .                     500:  Run Number 
 ROPA.m/hr             30.0000:  ROP Avg 
 ROPN.m/hr              5.0000:  ROP Min 
 ROPX.m/hr             40.0000:  ROP Max 
 RPMA.rpm             120.0000:  RPM Surface Avg 
 RPMN.rpm              80.0000:  RPM Surface Min 
 RPMX.rpm             130.0000:  RPM Surface Max 
 RRUN.                     500:  Rig Run Number 
 RTIM.hr               10.0000:  Time Reaming 
 SAZI.deg             296.4800:  Azm, Start 
 SDEP.m              1782.9999:  Start Depth 
 SIDD.                      No:  Serv Intrp, DD 
 SINC.deg              23.5300:  Inc, Start 
 SPPA.psig           3000.0000:  SPP Avg 
 SPPN.psig           2000.0000:  SPP Min 
 SPPX.psig           3100.0000:  SPP Max 
 STIM.      10.00.00 09-May-24:  Start Time 
 SVCS.                 DD, MWD:  Services 
 SVER.                  9.2000:  Sperry Version 
 TDAT.m               951.0001:  Tot Depth Attmp 
 TDDF.                      No:  Trip for DD 
 TDLG.m               951.0001:  Tot Depth Loggd 
 TFF .                      No:  Trip for Fail 
 TQAA.f-p           15000.0000:  Torque Abs Avg 
 TQAN.f-p            7000.0000:  Torque Abs Min 
 TQAX.f-p           18000.0000:  Torque Abs Max 
 TRRT.°/100'            0.2000:  Turn Rotating 
 MRT .                  EWR-P4:  Maximum Recorded Temperature 
 TTMX.degC            101.9000:  Max Tool Temp 
 VS01.        JK90757141L2N1-6:  Virtual Str1 SN 
 VS02.     DR90758460H1WGV2R-6:  Virtual Str2 SN 
 WBMN.klb               5.0000:  WOB Min 
 WITN.            Eko Agustian:  Customer Rep 2 
 WITN.            Bagus Ardika:  Customer Rep 
 WOBA.klb              20.0000:  WOB Avg 
 WOBX.klb              30.0000:  WOB Max 
 YP  .lhf2             30.0000:  Yield Point 
~Curve Information Block
#MNEM.UNIT                 API CODE     Curve Description
#---------               -----------    ---------------------------
 DEPT.M                 00 000 000 000:  Depth
 TVD .m                 00 000 000 000:  True Vertical Depth
 ROPA.m/hr              00 000 000 000:  Avg Rate of Penetration
 DGRCC.api              00 000 000 000:  DGR Comb Gamma Ray BCorr
 DGDD.ptpm              00 000 000 000:  DGR Data Density
 R09PC.ohmm             00 000 000 000:  9in Phase Resistivity BC
 R15PC.ohmm             00 000 000 000:  15in Phase Resistivity BC
 R27PC.ohmm             00 000 000 000:  27in Phase Resistivity BC
 R39PC.ohmm             00 000 000 000:  39in Phase Resistivity BC
 EWDD.ptpm              00 000 000 000:  EWR Data Density
 EWXT.hr                00 000 000 000:  EWR Formation Exp Time
 EWTEMP.degC            00 000 000 000:  EWR Temperature
 ALCDLC.g/cc            00 000 000 000:  ALD LCRB Comp Density
 ALDD.ptpm              00 000 000 000:  ALD Data Density
 TNPL.v/v               00 000 000 000:  CTN Porosity Limestone
 TNPS.v/v               00 000 000 000:  CTN Porosity Sandstone
 TNDD.ptpm              00 000 000 000:  CTN Data Density
#Other Information
#Environmental Parameters (and sensors to which they are applied)
#Hole Size 		: 8.5" (all sensors)
#Tool Size 			: 6.75"
#Mud Type 		: WBM (Gamma Ray)
#Mud Weight 		: 1.25 - 1.30 SG (Gamma Ray)
#KCl Concentration by Weight 	: 4.21 - 5.05 pbw (Gamma Ray)
#Mud Resistivity at BHT 	: 0.07  ohmm @101.9 degC (Resistivity)
#Fluid Density 		: 1.00 g/cc (Density)
#Neutron Tool Lithology	: Limestone (Porosity)
#Whole Mud Chlorides 	: 28800 - 33426 ppm (Porosity)
#Formation Water Salinity 	: 20000 ppm Cl- (Porosity)
#Pressure and Temperature 	: from PWD and EWR (Density, Porosity)
#
#Comments:
#1) All depth are calibrated to the drillers pipe tally and are measured from drill floor.
#2) No depth correction have been made for pipe stretch or compression.
#3) LWD Resistivity Tool utilized in this run is EWRP4, with spacing configuration as below:
#    - Deep Resistivity = 39in Spacing / 1 Mhz Frequency
#    - Medium Resistivity = 27in Spacing / 2 MHz Frequency
#    - Shallow Resistivity = 15in Spacing / 2 MHz Frequency
#    - XShallow Resistivity = 9in Spacing /2 MHz Frequency
#4) CTN Alloy type used for CTN data processing is Mid Nickle.
#5) Density reading might be affected by detector standoff to borehole wall while sliding.
#6) All data presented is Memory data unless otherwise stated.
#WARRANTY: Halliburton will use its best efforts to furnish customers with 
#accurate information and interpretations that are part of, and incident to, the services 
#provided.  However, Halliburton cannot and does not warrant the accuracy 
#or correctness of such information and interpretations.  Under no circumstances should any 
#such information or interpretation be relied upon as the sole basis for any drilling, 
#completion, production, or financial decision or any procedure involving any risk to the 
#safety of any drilling venture, drilling rig or its crew or any other third party.  The 
#Customer has full responsibility for all drilling, completion and production operation.  
#Halliburton makes no representations or warranties, either expressed or 
#implied, including, but not limited to, the implied warranties of merchantability or fitness 
#for a particular purpose, with respect to the services rendered.  In no event will 
#Halliburton be liable for failure to obtain any particular results or for 
#any damages, including, but not limited to, indirect, special or consequential damages, 
#resulting from the use of any information or interpretation provided by Halliburton.
#
~A   DEPT       TVD      ROPA      DGRCC     DGDD      R09PC     R15PC     R27PC     R39PC     EWDD      EWXT     EWTEMP    ALCDLC      ALDD      TNPL      TNPS       TNDD    
# ...
   2314.2000 2152.1150   23.6803   44.9142   11.8868    3.9892    4.4311    4.5708    5.0411   12.3673    0.5482   95.1919    2.3569    12.6811    0.0992    0.1421    10.8725
   2314.3500 2152.2576   24.3973   37.4966   12.5584    3.9731    4.5035    4.5673    4.9745   13.4624    0.5475   95.2148    2.3531    14.3611    0.1062    0.1493    10.8378
   2314.5000 2152.3965   28.2063   32.0308   12.1894    4.0127    4.5690    4.6232    4.9552   18.8470    0.5490   95.2148    2.3523    16.2165    0.1080    0.1512    11.6355
   2314.6500 2152.5339   29.0946   41.7093   12.1221    3.9821    4.5059    4.5820    4.9303   20.9751    0.5523   95.2148    2.3512    13.8197    0.1040    0.1470    18.0257
   2314.8000 2152.6672   28.1907   43.9530   12.0348    4.0620    4.5314    4.6183    5.0441   15.1944    0.5540   95.2148    2.3711    13.9151    0.1071    0.1503    31.9632
   2314.9500 2152.8037   27.5367   40.8758   12.7808    4.3754    4.8714    4.9301    5.3749   12.4456    0.5537   95.2148    2.4127    14.4988    0.1214    0.1648    39.4012
   2315.1000 2152.9368   28.2739   60.8585   12.1998    4.7156    5.1696    5.3114    6.0439  113.5577    0.5692   95.2148    2.5463    13.6755    0.1415    0.1848    47.3400
   2315.2500 2153.0803   30.9478  108.4370   10.7764    4.8076    5.2331    5.4055    6.1925   85.3715    0.5770   95.2148    2.6925    12.5936    0.1730    0.2158    62.7242
   2315.4000 2153.2166   31.7447  168.7756   10.6639    5.3499    5.7026    5.9665    6.8603   12.4773    0.5899   95.2148    2.7229    12.1030    0.2045    0.2467    66.5292
   2315.5500 2153.3481   29.0991  190.0557   10.2803    5.9161    6.0593    6.3350    7.5382   13.6325    0.5901   95.2148    2.7361    13.0468    0.2124    0.2544    60.3159
   2315.7000 2153.4861   27.5941  191.7879   12.3505    6.5360    6.7199    6.9803    8.4432   14.3525    0.5908   95.2148    2.7189    13.1724    0.2277    0.2695   100.5026
   2315.8500 2153.6223   27.6659  195.7379   16.7516    7.8279    8.2341    8.6215   10.2943   14.2060    0.5914   95.2148    2.6782    11.8838    0.2433    0.2850    52.8056
   2316.0000 2153.7563   28.1817  184.3833   47.8522    9.6762   10.3692   10.9378   12.3756   16.6084    0.5925   95.2148    2.6280    11.6198    0.2801    0.3219    24.2330
   2316.1500 2153.8958   29.0710  175.9975   42.1172    9.6509   10.8625   11.6212   12.8331   13.7808    0.5934   95.2148    2.5425    12.2455    0.3218    0.3643    14.6979
   2316.3000 2154.0249   30.1028  159.8329   11.8319   12.2193   14.4091   14.4733   15.1425   12.9750    0.5943   95.2148    2.2884    12.4199    0.3578    0.4018    13.3093
   2316.4500 2154.1665   33.6995  137.3510   10.4847   16.8995   20.5682   18.2668   17.1331   16.8894    0.5973   95.2148    1.7230    11.9572    0.4631    0.5106    16.1870
   2316.6000 2154.3035   37.4463   92.6462   11.1158   19.9548   39.9753   28.7201   21.5092  134.7798    0.6632   95.2148    1.4219    13.3234    0.5634    0.6097    14.7621
   2316.7500 2154.4412   38.1027   68.0465   12.0855   25.3790  223.0665  140.9690   34.2985   93.9812    0.9871   95.2148    1.3879    15.1425    0.6109    0.6542    13.3668
   2316.9000 2154.5754   37.9410   61.7896   11.7055  715.4410 1104.2909 1216.2111   81.3642   10.3269    1.5898   95.2148    1.4745    19.2834    0.5458    0.5931    14.2725
   2317.0500 2154.7126   37.9351   65.2986   10.9943  352.9806  233.0286  260.0659   27.3704   10.5257    1.5903   95.2148    1.9096    19.1918    0.4768    0.5244    15.7579
   2317.2000 2154.8494   38.1103   91.6015   12.2682   10.0364   15.4857   16.8070   16.9529   10.8785    1.5908   95.2148    2.4023    17.2182    0.3426    0.3861    14.6777
   2317.3500 2154.9861   37.8835  139.6078   12.2418   11.1574   14.5526   16.5027   18.6531   11.2572    1.5915   95.2148    2.5315    17.6189    0.2433    0.2852    13.5275
   2317.5000 2155.1223   37.1510  154.3466   11.7681   10.3142   13.1810   14.5855   18.2846   12.1681    1.5922   95.2148    2.5110    14.9756    0.1892    0.2317    13.2134
   2317.6500 2155.2761   33.0089  159.0051   12.1441    8.8575   10.8562   13.1292   17.7036   12.4889    1.5927   95.1160    2.4776    17.5249    0.1563    0.1994    13.8290
   2317.8000 2155.3892   24.5397  135.7341   12.7552    9.0950   11.6033   14.1517   18.9314   11.9669    1.5907   93.6311    2.4581    14.1226    0.1248    0.1682    13.2312
   2317.9500 2155.5322   19.2379   90.1369   12.8116   14.5385   19.4768   20.3112   24.0525   12.0331    1.5872   92.1631    2.4653    14.7942    0.1117    0.1550    12.3306
   2318.1000 2155.6548   19.5221   82.6535   12.5470   22.1929   25.7703   23.5694   25.9023   11.7846    1.5850   92.1631    2.5370    19.0060    0.1191    0.1625    12.6575
   2318.2500 2155.8567   18.6453  100.9442   15.7806   20.0484   21.6151   19.8999   21.1990   11.9040    1.5834   92.1631    2.5684    22.0551    0.1312    0.1746    14.0776
   2318.4000 2155.9309   13.0955  105.5036   12.0934   22.3880   22.0384   19.8763   20.0382   12.5608    1.5740   92.1631    2.5881    20.1125    0.1384    0.1818    16.3321
   2318.5500 2156.0256    9.6192  119.7969   10.9497   20.9900   21.8430   19.2700   18.8889   11.9072    1.5591   92.1631    2.6398    20.3557    0.1394    0.1828    13.8516
   2318.7000 2156.2112   18.4340  121.2019   10.8495   18.7713   20.3128   17.9542   17.4074   12.4788    1.5513   92.1631    2.7154    19.7608    0.1426    0.1860    13.9375
   2318.8500 2156.3542   25.6438  125.4749   11.4122   15.9235   17.1890   15.9164   15.3717   12.7631    1.5497   92.1631    2.6902    19.8275    0.1377    0.1811    14.2874
   2319.0000 2156.4778   22.2445  114.7053   14.7699   13.0892   14.5053   13.6747   13.7278   11.2057    1.5481   92.1631    2.6126    20.0953    0.1341    0.1775    13.8243
   2319.1500 2156.6174   21.5741  117.5072   29.1198   12.2448   13.2081   12.6038   12.8162   10.5462    1.5460   92.1631    2.6056    19.7122    0.1339    0.1774    12.7480
   2319.3000 2156.7532   24.0388  125.0331   36.0743   10.4999   10.9912   10.5592   11.2064   10.6579    1.5446   92.2920    2.6601    19.8019    0.1485    0.1918    12.1363
   2319.4500 2156.8943   26.0500  125.8430   46.5194    8.2279    8.5462    8.1993    9.3531   11.0632    1.5434   92.7349    2.7449    20.0373    0.1682    0.2111    13.0586
   2319.6000 2157.0249   26.7578  128.9846   57.3712    6.4297    6.7047    6.5513    8.0201   15.0219    1.5436   92.7734    2.6959    18.1389    0.1791    0.2219    13.2686
   2319.7500 2157.1663   26.9667  141.3817   64.5415    5.1511    5.5635    5.7592    7.4696   31.5816    1.5458   92.7734    2.6481    11.3740    0.1965    0.2389    11.8445
   2319.9000 2157.3005   27.0868  161.7496   57.9305    5.0288    5.6958    6.2323    8.4202   57.7019    1.5505   92.7734    2.7174    11.8464    0.2314    0.2732    11.8807
   2320.0500 2157.4402   25.9461  159.5996   80.3136    5.5430    6.1649    7.0968    9.7741   17.0435    1.5536   92.7734    2.7752    13.4756    0.2644    0.3060    12.1472
   2320.2000 2157.5645   23.9279  144.7118  114.5300    6.7579    7.3458    8.2350   11.5253   10.6522    1.5523   92.7734    2.7397    16.5654    0.3005    0.3426    12.4283
   2320.3500 2157.7085   24.9664  135.7959   26.4064    8.2656    9.1065    9.5452   12.5005   10.4105    1.5511   92.7734    2.4231    15.7887    0.3667    0.4111    12.0504
   2320.5000 2157.8433   28.9317  146.0664   16.9338    7.5888    9.5695   10.0518   11.6739   12.2006    1.5506   92.7734    1.9725    13.0240    0.3962    0.4419    13.4036
   2320.6500 2157.9817   30.3964  128.9629   13.3609  280.0345  186.2862   37.6177   23.1551   11.9143    1.5506   92.7734    1.8798    12.7422    0.3807    0.4257    14.9068
   2320.8000 2158.1174   30.4598  115.1449   15.4472  938.9774  597.0045   84.5018   39.9707   11.2481    1.5503   92.7734    2.0582    11.5917    0.3140    0.3567    18.8640
   2320.9500 2158.2585   30.0209  116.6906   15.2467   51.4978   54.7779   30.0401   23.4930   11.7204    1.5501   92.7734    2.4656    11.4687    0.2088    0.2512    19.1570
