~VERSION INFORMATION 
VERS  .    2.0                                     :CWLS Log ASCII Standard - VERSION 2.0
WRAP  .    NO                                      :One Line per Depth step
PROD  .    Schlumberger Technology Corp.           :LAS Producer
PROG  .    Horizon LASWriter 13.0.221437.3100      :LAS Program name and version
SOURCE.    S1R1-Log[4]/Up                          :Run&Pass Information
CREA  .    07/28/2024                              :LAS Creation date {MM/DD/YYYY}
#--------------------------------------------------
~WELL INFORMATION 
#MNEM           .UNIT                      DATA            :DESCRIPTION
#----            ------          --------------            -----------------------------
STRT            .m                   1495.04400            :START DEPTH
STOP            .m                   2360.37120            :STOP DEPTH
STEP            .m                       0.1524            :STEP
NULL            .                       -999.25            :NULL VALUE
COMP            .                PT Pertamina EP           :COMPANY
WELL            .                BNG-059 (BNG-H1)          :WELL NAME
FLD             .                         Adera            :FIELD NAME
RIGN            .                                          :Rig Name
RIGTYP          .                          Land            :Rig Type
SON             .                A.1009322.17.2            :Service Order Number
SRVC            .                  Schlumberger            :SERVICE COMPANY
DATE            .                    07/28/2024            :LOG DATE(Composite Date for Composite LAP) (MM/DD/YYYY)
CLAB            .                     Rig Name:            :County Label
CNTY            .                South Sumatera            :COUNTY
SLAB            .                     Province:            :State/Province Label
STAT            .                 South Sumatra            :STATE or PROVINCE
PROV            .                 South Sumatra            :STATE or PROVINCE
CTRY            .                     Indonesia            :COUNTRY
CONT_REGION     .                          Asia            :Continent Region
SECT            .                                          :Section
TOWN            .                                          :Township
RANG            .                                          :Range
API             .                                          :API NUMBER
UWI             .                                          :UNIQUE WELL ID
LUL             .                      ING/IDPR            :Logging Unit Location
LUN             .                   OSLC-E 2349            :Logging Unit Number
LOC             .                         Adera            :FIELD LOCATION
FL1             .                X: 397,029.172            :Field Location Line 1
FL2             .                Y: 9,625,078.797          :Field Location Line 2
LATI            .deg             3° 23' 29.559" S          :LATITUDE
LONG            .deg             104° 4' 22.998" E         :LONGITUDE
PDAT            .                           MSL            :Local Permanent Datum
LMF             .                            DF            :Logging Measured From
APD             .m                        25.78            :Elevation of Depth Reference (LMF) Above Permanent Datum
EPD             .m                         0.00            :Elevation of Permanent Datum (PDAT) above Mean Sea Level
EKB             .m                        25.78            :Elevation of Kelly Bushing Above Permanent Datum
EDF             .m                        25.78            :Elevation of Drill Floor Above Permanent Datum
EGL             .m                        16.64            :Elevation of Ground Level Above Permanent Datum
ECF             .m                      -999.25            :Elevation of Casing Flange above Permanent Datum
#--------------------------------------------------
~CURVE INFORMATION
#MNEM           .UNIT                  API CODE            :DESCRIPTION
#----            ------          --------------            -----------------------------
DEPT            .m                                         :                                                        Depth Index
HTEN            .lbf                                       :        (LEH-QT)                (6in)                   Head Tension
GR_CAL          .gAPI                                      :        (SGT-N)                 (6in)                   Calibrated Gamma Ray
DT_BHC          .us/ft                                     :        (MAST-B)                (6in)                   1.5 Feet Span Borehole Compensated Slowness from Near Spacing
BS              .in                                        :(RT)    (Borehole)              (6in)                   Bit Size
#-------------------------------------------------------------
#            DEPT         HTEN       GR_CAL       DT_BHC           BS 
#                     (LEH-QT)      (SGT-N)     (MAST-B)   (Borehole) 
#                                                                (RT) 
#                        (6in)        (6in)        (6in)        (6in) 
~ASCII
       1495.04400      -999.25      -999.25      -999.25     12.25000
       1495.19640      -999.25      -999.25      -999.25     12.25000
       1495.34880      -999.25      -999.25      -999.25     12.25000
       1495.50120      -999.25      -999.25      -999.25     12.25000
       1495.65360      -999.25      -999.25      -999.25     12.25000
       1495.80600      -999.25      -999.25      -999.25     12.25000
       1495.95840      -999.25      -999.25      -999.25     12.25000
       1496.11080      -999.25      -999.25      -999.25     12.25000
       1496.26320      -999.25      -999.25      -999.25     12.25000
       1496.41560      -999.25      -999.25      -999.25     12.25000
       1496.56800      -999.25      -999.25      -999.25     12.25000
       1496.72040      -999.25      -999.25      -999.25     12.25000
       1496.87280      -999.25      -999.25      -999.25     12.25000
       1497.02520      -999.25      -999.25      -999.25     12.25000
       1497.17760      -999.25      -999.25      -999.25     12.25000
       1497.33000      -999.25     52.35085      -999.25     12.25000
       1497.48240      -999.25     52.55728      -999.25     12.25000
       1497.63480      -999.25     53.19471      -999.25     12.25000
       1497.78720      -999.25     53.69570      -999.25     12.25000
       1497.93960      -999.25     54.12917      -999.25     12.25000
       1498.09200      -999.25     52.42311      -999.25     12.25000
       1498.24440      -999.25     50.41337      -999.25     12.25000
       1498.39680      -999.25     50.27939      -999.25     12.25000
       1498.54920      -999.25     51.04756      -999.25     12.25000
       1498.70160      -999.25     49.84171      -999.25     12.25000
       1498.85400      -999.25     46.01873      -999.25     12.25000
       1499.00640      -999.25     44.27694      -999.25     12.25000
       1499.15880      -999.25     46.01873      -999.25     12.25000
       1499.31120      -999.25     48.50188      -999.25     12.25000
       1499.46360      -999.25     50.77959      -999.25     12.25000
       1499.61600      -999.25     51.04756      -999.25     12.25000
       1499.76840      -999.25     52.25340      -999.25     12.25000
       1499.92080      -999.25     51.82466      -999.25     12.25000
       1500.07320      -999.25     52.76254      -999.25     12.25000
       1500.22560      -999.25     54.90627      -999.25     12.25000
       1500.37800      -999.25     55.73697      -999.25     12.25000
       1500.53040      -999.25     55.46900      -999.25     12.25000
       1500.68280      -999.25     51.85146      -999.25     12.25000
       1500.83520      -999.25     53.45925      -999.25     12.25000
       1500.98760      -999.25     56.67485      -999.25     12.25000
       1501.14000      -999.25     57.33583      -999.25     12.25000
       1501.29240      -999.25     56.93388      -999.25     12.25000
       1501.44480      -999.25     56.39795      -999.25     12.25000
       1501.59720      -999.25     57.88069      -999.25     12.25000
       1501.74960      -999.25     56.80883      -999.25     12.25000
       1501.90200      -999.25     57.07680      -999.25     12.25000
       1502.05440      -999.25     56.54086      -999.25     12.25000
       1502.20680      -999.25     58.41663      -999.25     12.25000
       1502.35920      -999.25     56.54086      -999.25     12.25000
       1502.51160      -999.25     57.97002      -999.25     12.25000
       1502.66400      -999.25     56.63019      -999.25     12.25000
       1502.81640      -999.25     55.45526      -999.25     12.25000
       1502.96880      -999.25     49.95302      -999.25     12.25000
       1503.12120      -999.25     48.47921      -999.25     12.25000
       1503.27360      -999.25     48.98422      -999.25     12.25000
       1503.42600      -999.25     53.05730      -999.25     12.25000
       1503.57840      -999.25     51.71747      -999.25     12.25000
       1503.73080      -999.25     54.26315      -999.25     12.25000
       1503.88320      -999.25     53.94159      -999.25     12.25000
       1504.03560      -999.25     57.82710      -999.25     12.25000
       1504.18800      -999.25     55.95133      -999.25     12.25000
       1504.34040      -999.25     60.15841     52.50000     12.25000
       1504.49280      -999.25     61.49824     54.25001     12.25000
       1504.64520      -999.25     62.16816     50.74999     12.25000
       1504.79760      -999.25     57.61273     51.75062     12.25000
       1504.95000      -999.25     55.60299     52.50000     12.25000
       1505.10240      -999.25     55.87095     54.25001     12.25000
       1505.25480      -999.25     61.09629     51.58447     12.25000
       1505.40720      -999.25     59.08654     53.24755     12.25000
       1505.55960      -999.25     59.62248     53.74999     12.25000
       1505.71200    557.55473     56.00493     52.41667     12.25000
       1505.86440    560.72229     57.74671     50.75063     12.25000
       1506.01680    565.02738     55.06705     52.41551     12.25000
       1506.16920    561.83194     56.40688     50.00000     12.25000
       1506.32160    556.30344     55.39754     52.50000     12.25000
       1506.47400    557.46638     56.46941     51.00063     12.25000
       1506.62640    561.42661     54.59365     50.66553     12.25000
       1506.77880    561.77080     56.13892     50.00061     12.25000
       1506.93120    559.24102     55.06705     51.74937     12.25000
       1507.08360    559.34308     53.86120     49.58276     12.25000
       1507.23600    555.42624     53.86120     50.99999     12.25000
       1507.38840    556.24230     55.60299     53.41321     12.25000
       1507.54080    554.61018     58.01468     54.24965     12.25000
       1507.69320    552.74427     58.14866     50.91535     12.25000
       1507.84560    551.85605     60.02443     51.24877     12.25000
       1507.99800    550.36691     62.72195     48.74999     12.25000
       1508.15040    546.63351     63.12390     54.98376     12.25000
       1508.30280    543.98144     60.98017     52.41551     12.25000
       1508.45520    547.10269     61.36425     49.17128     12.25000
       1508.60760    546.38465     60.96230     51.75062     12.25000
       1508.76000    547.75553     62.03417     54.50001     12.25000
       1508.91240    548.04126     58.95256     50.42139     12.25000
       1509.06480    548.93893     59.08654     52.50000     12.25000
       1509.21720    553.56977     59.75646     50.00342     12.25000
       1509.36960    554.44697     58.14867     50.83448     12.25000
       1509.52200    551.40733     55.60299     51.99269     12.25000
       1509.67440    555.54853     53.32527     51.24267     12.25000
       1509.82680    556.24230     56.67485     51.36889     12.25000
       1509.97920    552.16201     56.28183     51.62501     12.25000
       1510.13160    556.03817     59.09548     51.58447     12.25000
       1510.28400    557.78988     55.47794     50.74999     12.25000
       1510.43640    557.34386     58.55061     51.99757     12.25000
       1510.58880    563.60681     57.34476     50.83473     12.25000
       1510.74120    570.70628     58.28264     51.83447     12.25000
       1510.89360    570.68582     59.89044     52.25000     12.25000
       1511.04600    566.23842     59.08654     53.33092     12.25000
       1511.19840    560.28166     60.56036     51.74965     12.25000
       1511.35080    559.58790     58.28265     50.50000     12.25000
       1511.50320    558.81276     58.68459     52.00001     12.25000
       1511.65560    561.59814     57.34476     51.58447     12.25000
       1511.80800    566.85058     58.69353     48.33680     12.25000
       1511.96040    568.25811     60.43531     51.66552     12.25000
       1512.11280    565.93246     62.71302     52.50000     12.25000
       1512.26520    563.60681     63.10603     52.58681     12.25000
       1512.41760    560.09799     62.83807     50.99938     12.25000
