~Version Information
 VERS.                  2.0:   CWLS log ASCII Standard -VERSION 2.0
 WRAP.                   NO:   One line per depth step
~Well Information Block
#MNEM.UNIT     VALUE/NAME     DESCRIPTION
#---------     -----------    ---------------------------
 STRT.M              1700.1000: START DEPTH
 STOP.M              2733.9000: STOP DEPTH
 STEP.M                 0.1500: STEP DEPTH
 NULL.               -999.2500: NULL VALUE
 CNTY.         Tanjung Benuang:  COUNTY NAME
 CTRY.               Indonesia:  COUNTRY NAME
 PROV.          South Sumatera:  PROVINCE
 STAT.          South Sumatera:  STATE NAME
 FLD .                 Benuang:  FIELD NAME
 DATE.      15.00.00 14-May-24:  END TIME
 WELL.                  BNG-B3:  WELL NAME
 COMP.     PHR Region 1 Zona 4:  COMPANY
 API .                        :  API NUMBER
 SRVC.             Halliburton:  SERVICE COMPANY
 UWI .                        :  UNIQUE WELL IDENTIFIER
 LOC .                        :  LOCATION
~Parameter Information Block
#MNEM.UNIT       Value        Description
#---------     -----------    ---------------------------
 AV  .fpm             311.0000:  Ann Velocity 
 AVMX.fpm             315.0000:  Max Ann Veloc 
 AZIF.deg             294.2000:  Azm, Final 
 BHAT.        Rotary Steerable:  BHA Type 
 BROT.°/100'            0.2000:  Build Rotating 
 BS  .in                8.5000:  Bit Size 
 BSZ .in                8.5000:  Bit Size 
 BTPL.psig            496.0000:  Bit Press Loss 
 CABU.                      No:  Customer Abuse 
 CGEO.           Achmad Gazali:  Customer Geo 
 COMM.                     üQb:  Run Comments 1 
 TCS .hr               88.2729:  Time Ciculation Ended 
 CV  .fpm             378.0000:  Crit Velocity 
 CVMX.fpm             380.0000:  Max Crit Veloc 
 DD1 .          Yudi Kurniawan:  Direct Drillr 1 
 DD2 .               Aminuddin:  Direct Drillr 2 
 DDSV.               Geo-Pilot:  DD Service 
 DEFF.%               100.0000:  % Det Eff 
 DLRX.°/100'            0.5000:  Dogleg Rot Max 
 DLSO.°/100'            1.1000:  Dogleg Oriented 
 DLSX.°/100'            2.1900:  Dogleg Str Max 
 DRET.      10.25.00 13-May-24:  Drill End Time 
 DRST.      23.00.00 09-May-24:  Drill Start Tim 
 DTIM.hr               52.9642:  Time Drilling 
 EDEP.m              2734.0000:  End Depth 
 ENG1.      Andika BP Pulungan:  Engineer 1 
 ENG2.         Edward Joshua M:  Engineer 2 
 ENG3.       Pandamama Siahaan:  Engineer 3 
 ENG4.        Siti Nurfitriani:  Engineer 4 
 ETIM.      18.45.00 14-May-24:  End Time 
 FLOI.gpm             550.0000:  Flow In 
 FLON.gpm             400.0000:  Flow In Min 
 FLOS.mptm              4.2000:  Fluid Loss 
 FLOX.gpm             600.0000:  Flow In Max 
 DFT .                 Polymer:  Mud Type 
 HPRE.                      No:  High Pressure 
 HTEM.                      No:  High Temp 
 HYDO.m                 0.0000:  Hydro Offset 
 IFIN.deg              25.6000:  Inc, Final 
 IMAX.deg              26.9023:  Inc Max 
 IMIN.deg              20.4496:  Inc Min 
 IMND.m              2580.0901:  Inc Min Depth 
 IMXD.m              2034.3999:  Inc Max Depth 
 JARR.                      No:  Jarring 
 LETM.      10.25.00 13-May-24:  Log End Time 
 LOST.hr                     0:  Lost Rig Time 
 LSTM.      23.00.00 09-May-24:  Log Start Time 
 MDCL.ppm           42000.0000:  Mud Chlorides 
 MDES.             Fresh Water:  Mud Desc 
 DFD .SG                1.3000:  Mud Density 
 MDMN.SG                1.2500:  Dens Mud Min 
 MDMX.SG                1.3000:  Dens Mud Max 
 PH  .pH               10.0000:  Mud pH 
 MOIL.                       0:  Run Mud Oil % 
 MOWR.                   0 100:  Run Mud OWR 
 MSND.                     0.2:  Run Mud Sand % 
 MSOL.                     8.9:  Run Mud Solids% 
 DFV .spqt             80.0000:  Mud Viscosity 
 MWOD.in                6.7500:  MWD Tool OD 
 MWSI.                      No:  Serv Intrp, MWD 
 OTIM.hr              124.1140:  Time Operating 
 PMAX.psig           3200.0000:  Press Op, Max 
 PV  .cP               24.0000:  Mud PV 
 RMS .ohmm              0.0800:  Mud Resistivity 
 RMCS.ohmm              0.1050:  Mud Cake Resistivity 
 MCST.degF             81.0000:  Mud Cake Sample Temperature 
 RMFS.ohmm              0.0500:  Mud Filtrate Resistivity 
 RMFT.degF             81.0000:  Mud Filtrate Sample Temperature 
 RMMT.ohmm              0.0525:  Rm @ Max Temp 
 MST .degF             82.0000:  Mud Sample Temperature 
 RUN .                     500:  Run Number 
 ROPA.m/hr             30.0000:  ROP Avg 
 ROPN.m/hr              5.0000:  ROP Min 
 ROPX.m/hr             40.0000:  ROP Max 
 RPMA.rpm             120.0000:  RPM Surface Avg 
 RPMN.rpm              80.0000:  RPM Surface Min 
 RPMX.rpm             130.0000:  RPM Surface Max 
 RRUN.                     500:  Rig Run Number 
 RTIM.hr               10.0000:  Time Reaming 
 SAZI.deg             296.4800:  Azm, Start 
 SDEP.m              1782.9999:  Start Depth 
 SIDD.                      No:  Serv Intrp, DD 
 SINC.deg              23.5300:  Inc, Start 
 SPPA.psig           3000.0000:  SPP Avg 
 SPPN.psig           2000.0000:  SPP Min 
 SPPX.psig           3100.0000:  SPP Max 
 STIM.      10.00.00 09-May-24:  Start Time 
 SVCS.                 DD, MWD:  Services 
 SVER.                  9.2000:  Sperry Version 
 TDAT.m               951.0001:  Tot Depth Attmp 
 TDDF.                      No:  Trip for DD 
 TDLG.m               951.0001:  Tot Depth Loggd 
 TFF .                      No:  Trip for Fail 
 TQAA.f-p           15000.0000:  Torque Abs Avg 
 TQAN.f-p            7000.0000:  Torque Abs Min 
 TQAX.f-p           18000.0000:  Torque Abs Max 
 TRRT.°/100'            0.2000:  Turn Rotating 
 MRT .                  EWR-P4:  Maximum Recorded Temperature 
 TTMX.degC            101.9000:  Max Tool Temp 
 VS01.        JK90757141L2N1-6:  Virtual Str1 SN 
 VS02.     DR90758460H1WGV2R-6:  Virtual Str2 SN 
 WBMN.klb               5.0000:  WOB Min 
 WITN.            Eko Agustian:  Customer Rep 2 
 WITN.            Bagus Ardika:  Customer Rep 
 WOBA.klb              20.0000:  WOB Avg 
 WOBX.klb              30.0000:  WOB Max 
 YP  .lhf2             30.0000:  Yield Point 
~Curve Information Block
#MNEM.UNIT                 API CODE     Curve Description
#---------               -----------    ---------------------------
 DEPT.M                 00 000 000 000:  Depth
 TVD .m                 00 000 000 000:  True Vertical Depth
 ROPA.m/hr              00 000 000 000:  Avg Rate of Penetration
 DGRCC.api              00 000 000 000:  DGR Comb Gamma Ray BCorr
 DGDD.ptpm              00 000 000 000:  DGR Data Density
 R09PC.ohmm             00 000 000 000:  9in Phase Resistivity BC
 R15PC.ohmm             00 000 000 000:  15in Phase Resistivity BC
 R27PC.ohmm             00 000 000 000:  27in Phase Resistivity BC
 R39PC.ohmm             00 000 000 000:  39in Phase Resistivity BC
 EWDD.ptpm              00 000 000 000:  EWR Data Density
 EWXT.hr                00 000 000 000:  EWR Formation Exp Time
 EWTEMP.degC            00 000 000 000:  EWR Temperature
 ALCDLC.g/cc            00 000 000 000:  ALD LCRB Comp Density
 ALDD.ptpm              00 000 000 000:  ALD Data Density
 TNPL.v/v               00 000 000 000:  CTN Porosity Limestone
 TNPS.v/v               00 000 000 000:  CTN Porosity Sandstone
 TNDD.ptpm              00 000 000 000:  CTN Data Density
#Other Information
#Environmental Parameters (and sensors to which they are applied)
#Hole Size 		: 8.5" (all sensors)
#Tool Size 			: 6.75"
#Mud Type 		: WBM (Gamma Ray)
#Mud Weight 		: 1.25 - 1.30 SG (Gamma Ray)
#KCl Concentration by Weight 	: 4.21 - 5.05 pbw (Gamma Ray)
#Mud Resistivity at BHT 	: 0.07  ohmm @101.9 degC (Resistivity)
#Fluid Density 		: 1.00 g/cc (Density)
#Neutron Tool Lithology	: Limestone (Porosity)
#Whole Mud Chlorides 	: 28800 - 33426 ppm (Porosity)
#Formation Water Salinity 	: 20000 ppm Cl- (Porosity)
#Pressure and Temperature 	: from PWD and EWR (Density, Porosity)
#
#Comments:
#1) All depth are calibrated to the drillers pipe tally and are measured from drill floor.
#2) No depth correction have been made for pipe stretch or compression.
#3) LWD Resistivity Tool utilized in this run is EWRP4, with spacing configuration as below:
#    - Deep Resistivity = 39in Spacing / 1 Mhz Frequency
#    - Medium Resistivity = 27in Spacing / 2 MHz Frequency
#    - Shallow Resistivity = 15in Spacing / 2 MHz Frequency
#    - XShallow Resistivity = 9in Spacing /2 MHz Frequency
#4) CTN Alloy type used for CTN data processing is Mid Nickle.
#5) Density reading might be affected by detector standoff to borehole wall while sliding.
#6) All data presented is Memory data unless otherwise stated.
#WARRANTY: Halliburton will use its best efforts to furnish customers with 
#accurate information and interpretations that are part of, and incident to, the services 
#provided.  However, Halliburton cannot and does not warrant the accuracy 
#or correctness of such information and interpretations.  Under no circumstances should any 
#such information or interpretation be relied upon as the sole basis for any drilling, 
#completion, production, or financial decision or any procedure involving any risk to the 
#safety of any drilling venture, drilling rig or its crew or any other third party.  The 
#Customer has full responsibility for all drilling, completion and production operation.  
#Halliburton makes no representations or warranties, either expressed or 
#implied, including, but not limited to, the implied warranties of merchantability or fitness 
#for a particular purpose, with respect to the services rendered.  In no event will 
#Halliburton be liable for failure to obtain any particular results or for 
#any damages, including, but not limited to, indirect, special or consequential damages, 
#resulting from the use of any information or interpretation provided by Halliburton.
#
~A   DEPT       TVD      ROPA      DGRCC     DGDD      R09PC     R15PC     R27PC     R39PC     EWDD      EWXT     EWTEMP    ALCDLC      ALDD      TNPL      TNPS       TNDD    
# ...
   1983.0000 1851.8374   18.9198   76.9739   14.8503   10.1953   13.3148   12.9183   11.9655   11.8699    1.5921   85.4492    2.3870    15.4405    0.1201    0.1630    15.0665
   1983.1500 1851.9830   20.3764   82.7377   14.7074   10.2431   12.8943   13.0065   12.1082   12.0854    1.5899   85.4492    2.4057    15.3233    0.1237    0.1666    14.6879
   1983.3000 1852.1212   23.4578   87.8173   13.2314    9.3554   11.6223   12.6375   12.2058   13.3372    1.5891   85.4492    2.4379    14.1319    0.1292    0.1721    12.5576
   1983.4500 1852.2562   22.3247   93.8296   13.7358    9.6694   11.2995   12.6086   12.8035   10.7866    1.5867   85.4492    2.4481    13.0696    0.1268    0.1697    12.2192
   1983.6000 1852.3828   21.3358   98.7599   16.5640    9.4209   11.3917   12.3344   13.1194   12.5911    1.5843   85.4492    2.4378    18.6305    0.1252    0.1681    13.4985
   1983.7500 1852.5343   23.0938  104.3628   18.1878    8.6785   10.5359   11.4646   12.6643   17.2993    1.5840   85.4492    2.3965    19.3323    0.1231    0.1660    12.7924
   1983.9000 1852.6675   22.0647   91.5313   14.7021    7.7362    9.7316   10.9340   12.5080   25.1858    1.5855   85.4492    2.3266    16.3715    0.1173    0.1601    11.5351
   1984.0500 1852.7928   18.2015   64.2928   15.8034    7.8477   10.5409   11.7255   13.4475   28.7811    1.5892   85.6297    2.2877    18.3371    0.1097    0.1525    12.9887
   1984.2000 1852.9292   17.6564   56.2931   16.4126    7.9841   10.8933   12.2743   14.0169   23.0361    1.5915   85.5753    2.3429    21.5892    0.1148    0.1576    13.5822
   1984.3500 1853.0664   20.6227   63.6304   15.2576    8.3690   10.8498   12.4502   14.4804   19.3084    1.5927   85.9353    2.4321    19.6321    0.1309    0.1738    13.2662
   1984.5000 1853.2096   23.8312   90.8580   21.6035    8.7878   10.9187   12.6909   14.8090   17.0309    1.5940   86.0596    2.4832    16.7234    0.1423    0.1851    11.9179
   1984.6500 1853.3378   23.5907   98.7654   20.6728   10.0845   12.2034   14.2396   16.6784   16.3632    1.5943   86.0596    2.4841    15.9807    0.1425    0.1853     9.7950
   1984.8000 1853.4731   22.8643   91.6016   15.5615   12.2562   15.1911   17.1436   19.3400   16.4536    1.5949   86.0596    2.4718    16.4838    0.1372    0.1801    10.0795
   1984.9500 1853.6168   25.2981   98.1493   17.3789   11.2339   14.2967   15.7945   17.5959   15.2439    1.5947   86.0596    2.4287    16.0308    0.1250    0.1679    12.1482
   1985.1000 1853.7540   24.8120   87.9144   17.7958    7.8672   10.1463   11.3589   13.2586   16.1899    1.5946   86.0596    2.3274    16.8082    0.1095    0.1522    15.4792
   1985.2500 1853.8785   21.0942   57.8144   14.9473    4.8146    7.3493    9.5505   11.9487   12.8667    1.5937   86.0596    2.2089    18.5166    0.0926    0.1348    15.9912
   1985.4000 1854.0985   12.9685   49.7427   13.3223    4.8649   11.2412   19.3596   21.3548   14.6936    1.5793   86.0596    2.2036    18.5985    0.0991    0.1415    15.5952
   1985.5500 1854.1555    8.0184   45.3355   14.5381    5.8966   16.0363   34.7230   30.3660   14.8975    1.3166   86.0596    2.2663    17.9161    0.1130    0.1558    13.3365
   1985.7000 1854.2126    5.1047   64.8468   14.0231    7.2078   13.9443   31.9108   26.4482   15.3170    0.9041   86.0596    2.3695    15.6569    0.1232    0.1661    12.3732
   1985.8500 1854.4227    9.8662   79.0521   16.2812    8.9360   12.0945   21.8547   20.6061   14.3266    0.6629   86.0596    2.4852    13.9252    0.1266    0.1696    15.2453
   1986.0000 1854.5645   23.7770  112.0359   14.9329    9.3824   11.0203   15.1363   17.0846   16.1950    0.6521   86.0596    2.5701    13.2955    0.1365    0.1794    16.6395
   1986.1500 1854.7003   25.0632  132.7977   15.7642    9.4516   10.4691   12.1381   14.9710   15.4944    0.6525   86.0596    2.5964    13.4502    0.1419    0.1847    17.7747
   1986.3000 1854.8335   23.9163  131.2043   16.1587    9.2425   10.1263   10.8687   13.1823   13.8539    0.6517   86.0596    2.5923    11.3582    0.1435    0.1864    15.3741
   1986.4500 1854.9650   23.7052  137.3733   18.4868    9.1197    9.8706   10.1796   11.9554   13.8536    0.6514   86.0596    2.5884    10.9942    0.1463    0.1891    12.3208
   1986.6000 1855.1088   25.6904  145.8027   15.8453    8.7572    9.3954    9.4001   11.0443   16.2371    0.6518   86.0596    2.5860    10.2803    0.1515    0.1942    13.2086
   1986.7500 1855.2432   26.0418  136.8287   15.1578    8.3738    8.8659    8.9563   10.4039   13.9214    0.6515   86.0596    2.6030    10.1764    0.1580    0.2006    15.4238
   1986.9000 1855.3800   23.9014  134.9581   19.4743    8.1702    8.6631    8.7312   10.0314   15.0846    0.6510   86.0596    2.5985    10.2490    0.1561    0.1987    15.2410
   1987.0500 1855.5087   22.0391  138.9635   14.9560    8.2061    8.6838    8.6264    9.6446   13.9470    0.6504   86.0596    2.5943    10.8024    0.1626    0.2052    15.3596
   1987.2000 1855.6464   22.5362  139.0732   12.2446    8.0764    8.4656    8.4208    9.2369   12.9606    0.6498   86.0596    2.5906    11.5837    0.1669    0.2093    14.3725
   1987.3500 1855.7881   24.8195  135.3803   14.2036    7.8461    8.1291    8.0666    8.8691   15.7570    0.6496   86.0596    2.6011    18.2585    0.1606    0.2031    12.9347
   1987.5000 1855.9255   24.0496  135.9691   15.5008    7.5970    7.7629    7.7274    8.5100   18.0804    0.6502   86.0596    2.6081    29.3631    0.1678    0.2102    18.0344
   1987.6500 1856.0511   21.0536  140.3519   12.9378    7.4474    7.6083    7.5708    8.2351   16.0297    0.6504   86.0596    2.6037    11.3597    0.1725    0.2148    19.4720
   1987.8000 1856.1886   20.5966  146.5075   12.7632    7.2662    7.4774    7.3910    7.9758   14.3480    0.6494   86.0596    2.5905    10.4260    0.1744    0.2167    16.5397
   1987.9500 1856.3250   23.3702  161.4683   12.7622    6.9545    7.1688    7.1481    7.6938   17.0012    0.6496   86.0596    2.5927    10.4521    0.1836    0.2257    18.2475
   1988.1000 1856.4652   25.4839  154.8650   12.6864    6.7946    6.8786    6.9260    7.3784   14.8529    0.6499   86.0596    2.6050    10.3574    0.1859    0.2279    21.4545
   1988.2500 1856.5962   24.9165  140.7240   11.9404    6.6311    6.7646    6.7080    7.1125   17.8805    0.6505   86.0596    2.6016     9.9012    0.1854    0.2275    18.7204
   1988.4000 1856.7358   24.0824  155.2053   12.4587    6.4407    6.5133    6.4473    6.7441   25.0467    0.6530   86.0596    2.6218    10.0924    0.1840    0.2260    16.5883
   1988.5500 1856.8660   23.7267  148.9833   13.5062    6.0801    6.1062    5.9445    6.2571   15.4704    0.6539   86.0596    2.6288    10.0120    0.1844    0.2265    16.4946
   1988.7000 1857.0046   24.1230  145.6455   13.4103    5.5512    5.5654    5.4238    5.7228   17.2427    0.6547   86.0596    2.6380     9.6621    0.1899    0.2319    16.4447
   1988.8500 1857.1399   25.3180  138.6156   12.4918    5.0613    5.1039    5.0059    5.3152   19.1226    0.6563   86.0596    2.6145   461.0870    0.1969    0.2387    16.0435
   1989.0000 1857.2732   25.8037  147.2118   10.2098    4.6853    4.7534    4.7248    5.0108   15.5836    0.6576   86.0596    2.6062   861.7966    0.2112    0.2527    16.8514
   1989.1500 1857.4104   27.2826  150.6916   10.0190    4.4135    4.4775    4.4667    4.8518   13.5839    0.6582   86.0596    2.6083    20.4914    0.2215    0.2629    18.6077
   1989.3000 1857.5448   28.9167  172.2086   10.8061    4.3221    4.3414    4.3186    4.7487   14.9123    0.6588   86.0596    2.5941    17.2964    0.2250    0.2663    18.6522
   1989.4500 1857.6830   30.4266  173.9346   14.9268    4.2243    4.2200    4.1844    4.6361   13.5129    0.6596   86.0596    2.5967    15.8329    0.2250    0.2663    18.0061
   1989.6000 1857.8198   31.5285  171.5832   16.6601    4.0621    4.0439    4.0225    4.5758   15.4776    0.6608   86.0596    2.6086    17.6603    0.2404    0.2816    16.2119
   1989.7500 1857.9569   30.4742  166.7944   15.2156    4.0949    4.0984    4.0955    4.7390   15.5878    0.6623   86.0596    2.6319    13.7359    0.2388    0.2800    13.4374
