~VERSION INFORMATION 
VERS  .    2.0                                     :CWLS Log ASCII Standard - VERSION 2.0
WRAP  .    NO                                      :One Line per Depth step
PROD  .    Schlumberger Technology Corp.           :LAS Producer
PROG  .    Horizon LASWriter 13.0.221437.3100      :LAS Program name and version
SOURCE.    S1R1-Log[3]/Up                          :Run&Pass Information
CREA  .    07/04/2024                              :LAS Creation date {MM/DD/YYYY}
#--------------------------------------------------
~WELL INFORMATION 
#MNEM           .UNIT                      DATA            :DESCRIPTION
#----            ------          --------------            -----------------------------
STRT            .m                   1718.15760            :START DEPTH
STOP            .m                   2673.85800            :STOP DEPTH
STEP            .m                       0.1524            :STEP
NULL            .                       -999.25            :NULL VALUE
COMP            .                PT Pertamina EP           :COMPANY
WELL            .                BNG-A4(BNG-058)           :WELL NAME
FLD             .                       Benuang            :FIELD NAME
RIGN            .                       Tiger-7            :Rig Name
RIGTYP          .                      Land Rig            :Rig Type
SON             .                A.1059389.01.02           :Service Order Number
SRVC            .                  Schlumberger            :SERVICE COMPANY
DATE            .                    07/04/2024            :LOG DATE(Composite Date for Composite LAP) (MM/DD/YYYY)
CLAB            .                     Rig Name:            :County Label
CNTY            .                       TIGER-7            :COUNTY
SLAB            .                     Province:            :State/Province Label
STAT            .                 South Sumatra            :STATE or PROVINCE
PROV            .                 South Sumatra            :STATE or PROVINCE
CTRY            .                     Indonesia            :COUNTRY
CONT_REGION     .                          Asia            :Continent Region
SECT            .                                          :Section
TOWN            .                                          :Township
RANG            .                                          :Range
API             .                                          :API NUMBER
UWI             .                                          :UNIQUE WELL ID
LUL             .                         IDPRA            :Logging Unit Location
LUN             .                   OSLC-A 2155            :Logging Unit Number
LOC             .                         Adera            :FIELD LOCATION
FL1             .                X: 387.623,270 mE         :Field Location Line 1
FL2             .                Y: 9.630.308,141 mN       :Field Location Line 2
LATI            .deg             3° 20' 38.96" S           :LATITUDE
LONG            .deg             103° 59' 18.38" E         :LONGITUDE
PDAT            .                           MSL            :Local Permanent Datum
LMF             .                            DF            :Logging Measured From
APD             .m                        44.63            :Elevation of Depth Reference (LMF) Above Permanent Datum
EPD             .m                         0.00            :Elevation of Permanent Datum (PDAT) above Mean Sea Level
EKB             .m                        44.63            :Elevation of Kelly Bushing Above Permanent Datum
EDF             .m                        44.63            :Elevation of Drill Floor Above Permanent Datum
EGL             .m                        34.03            :Elevation of Ground Level Above Permanent Datum
ECF             .m                      -999.25            :Elevation of Casing Flange above Permanent Datum
#--------------------------------------------------
~CURVE INFORMATION
#MNEM           .UNIT                  API CODE            :DESCRIPTION
#----            ------          --------------            -----------------------------
DEPT            .m                                         :                                                        Depth Index
TENS            .lbf                                       :        (WLWorkflow)            (1in)                   Cable Tension
BS              .in                                        :(RT)    (Borehole)              (6in)                   Bit Size
GR_CAL          .gAPI                                      :        (EDTC-B)                (6in)                   Calibrated Gamma Ray
DT              .us/ft                                     :        (ASLT-B)                (6in)                   Delta-T (also called Slowness or Interval Transit Time)
#-------------------------------------------------------------
#            DEPT         TENS           BS       GR_CAL           DT 
#                  (WLWorkflo)   (Borehole)     (EDTC-B)     (ASLT-B) 
#                                      (RT)                           
#                        (1in)        (6in)        (6in)        (6in) 
~ASCII
# ...
       2594.45760   3332.99941      8.50000     67.50439     73.08595
       2594.61000   3291.00060      8.50000     72.56489     73.40821
       2594.76240   3384.99996      8.50000     71.20441     73.45704
       2594.91480   3327.99965      8.50000     65.85720     72.87110
       2595.06720   3350.99986      8.50000     55.90535     72.78319
       2595.21960   3343.99931      8.50000     54.09674     72.90039
       2595.37200   3305.99985      8.50000     58.42907     72.02150
       2595.52440   3357.00001      8.50000     59.33245     70.84960
       2595.67680   3331.99901      8.50000     62.44485     70.60546
       2595.82920   3308.00065      8.50000     63.78347     71.28906
       2595.98160   3333.50073      8.50000     73.48586     71.80664
       2596.13400   3275.50002      8.50000     71.97900     71.81640
       2596.28640   3325.49978      8.50000     70.74561     72.04100
       2596.43880   3325.00070      8.50000     66.22334     72.09962
       2596.59120   3331.00085      8.50000     65.02998     71.41601
       2596.74360   3358.00041      8.50000     68.85548     71.24999
       2596.89600   3378.99981      8.50000     78.88834     71.69923
       2597.04840   3346.00011      8.50000    101.83540     72.16795
       2597.20080   3371.99926      8.50000    117.45670     72.79298
       2597.35320   3344.99971      8.50000    117.65750     74.10157
       2597.50560   3277.99990      8.50000    101.99300     75.78124
       2597.65800   3336.00061      8.50000     89.99288     74.89259
       2597.81040   3317.50108      8.50000     96.98669     73.39843
       2597.96280   3274.00055      8.50000    114.53360     73.31056
       2598.11520   3348.99906      8.50000    125.14390     73.17382
       2598.26760   3303.49998      8.50000    128.46960     73.03712
       2598.42000   3320.99910      8.50000    125.79520     73.47655
       2598.57240   3321.99950      8.50000    124.22260     74.20899
       2598.72480   3306.49893      8.50000    117.10980     74.06250
       2598.87720   3363.00016      8.50000    108.43980     73.17382
       2599.02960   3305.99985      8.50000    106.63040     73.21290
       2599.18200   3309.99920      8.50000    105.76790     74.24803
       2599.33440   3346.00011      8.50000    113.16680     74.65820
       2599.48680   3299.99970      8.50000    113.25690     74.06250
       2599.63920   3291.00060      8.50000    107.54160     73.49609
       2599.79160   3314.00080      8.50000     94.75660     73.29102
       2599.94400   3330.00045      8.50000     82.17697     72.96875
       2600.09640   3322.50083      8.50000     73.67107     72.82227
       2600.24880   3369.00031      8.50000     66.27087     72.12891
       2600.40120   3348.99906      8.50000     62.19828     71.04492
       2600.55360   3369.00031      8.50000     64.29610     70.82031
       2600.70600   3286.00085      8.50000     63.55607     70.63478
       2600.85840   3293.99955      8.50000     60.51175     70.58595
       2601.01080   3322.99990      8.50000     52.33060     70.81056
       2601.16320   3263.00065      8.50000     51.05840     70.88868
       2601.31560   3322.99990      8.50000     52.57936     70.79102
       2601.46800   3338.99956      8.50000     57.46864     70.79102
       2601.62040   3320.99910      8.50000     56.89082     71.14258
       2601.77280   3336.00061      8.50000     57.21930     71.45509
       2601.92520   3307.49933      8.50000     57.54959     72.61720
       2602.07760   3338.50048      8.50000     62.97704     73.97462
       2602.23000   3343.00116      8.50000     68.71678     73.90626
       2602.38240   3336.00061      8.50000     71.51271     73.00780
       2602.53480   3330.00045      8.50000     83.96927     73.18361
       2602.68720   3379.50114      8.50000    101.86900     72.80273
       2602.83960   3338.99956      8.50000    125.75590     71.54296
       2602.99200   3386.49944      8.50000    133.93920     71.89455
       2603.14440   3343.99931      8.50000    134.10850     72.47071
       2603.29680   3314.00080      8.50000    130.94340     73.13478
       2603.44920   3339.50088      8.50000    138.38080     73.78906
       2603.60160   3331.99901      8.50000    139.15060     73.16407
       2603.75400   3348.00091      8.50000    132.98170     71.65040
       2603.90640   3352.49933      8.50000    118.63590     71.71874
       2604.05880   3318.00015      8.50000    116.91230     72.39259
       2604.21120   3347.00051      8.50000    126.56870     71.51367
       2604.36360   3355.50053      8.50000    119.82680     71.05467
       2604.51600   3265.99960      8.50000    104.82270     73.16407
       2604.66840   3331.00085      8.50000     91.38251     75.39063
       2604.82080   3365.00096      8.50000     90.76485     75.18553
       2604.97320   3349.99946      8.50000     96.56236     75.82031
       2605.12560   3394.99946      8.50000     98.57691     76.93359
       2605.27800   3330.00045      8.50000    112.51180     75.14649
       2605.43040   3321.99950      8.50000    123.36390     73.07617
       2605.58280   3385.50129      8.50000    129.98840     73.16407
       2605.73520   3315.99935      8.50000    134.63870     74.63866
       2605.88760   3371.00111      8.50000    130.79420     75.91797
       2606.04000   3398.00066      8.50000    117.38970     76.54296
       2606.19240   3382.99916      8.50000    100.44920     76.03516
       2606.34480   3365.99911      8.50000     91.51041     75.63478
       2606.49720   3359.00081      8.50000     89.37038     75.66407
       2606.64960   3367.99991      8.50000     79.23569     73.74023
       2606.80200   3398.00066      8.50000     77.01180     73.45704
       2606.95440   3344.99971      8.50000     78.12071     75.41993
       2607.10680   3392.00051      8.50000     86.11676     76.55275
       2607.25920   3405.99937      8.50000     95.24809     74.71681
       2607.41160   3365.99911      8.50000    111.95570     72.10937
       2607.56400   3431.00037      8.50000    144.43550     74.25781
       2607.71640   3406.99977      8.50000    167.65920     78.22265
       2607.86880   3378.99981      8.50000    175.70190     78.67187
       2608.02120   3410.99912      8.50000    155.10390     75.63478
       2608.17360   3338.99956      8.50000    126.62200     74.69728
       2608.32600   3376.00086      8.50000    114.57880     76.27931
       2608.47840   3427.00102      8.50000    105.74400     76.08399
       2608.63080   3360.00121      8.50000    104.99900     74.85352
       2608.78320   3438.99907      8.50000     93.40546     74.55079
       2608.93560   3419.00007      8.50000     84.31600     75.88868
       2609.08800   3394.50039      8.50000     77.94184     76.01563
       2609.24040   3422.99942      8.50000     89.36445     75.31251
       2609.39280   3376.49994      8.50000    107.32600     74.77540
       2609.54520   3365.00096      8.50000    135.68830     73.37889
       2609.69760   3415.00072      8.50000    143.25230     72.73436
       2609.85000   3327.99965      8.50000    142.99380     72.74415
       2610.00240   3384.99996      8.50000    120.92260     73.92580
       2610.15480   3420.49954      8.50000     97.28593     75.38085
       2610.30720   3372.99966      8.50000     81.18600     74.78515
       2610.45960   3405.00121      8.50000     79.41912     74.85352
       2610.61200   3361.99976      8.50000     86.61611     76.05470
       2610.76440   3375.49954      8.50000     93.72816     76.64062
       2610.91680   3420.00047      8.50000     97.54841     76.61133
       2611.06920   3403.00041      8.50000    105.93560     75.92772
       2611.22160   3365.99911      8.50000    110.49850     76.49413
       2611.37400   3462.99967      8.50000    122.63460     75.69336
       2611.52640   3357.00001      8.50000    125.59020     71.50392
       2611.67880   3400.50054      8.50000    128.38830     67.62695
       2611.83120   3372.99966      8.50000    120.24690     67.83202
