~VERSION INFORMATION 
VERS  .    2.0                                     :CWLS Log ASCII Standard - VERSION 2.0
WRAP  .    NO                                      :One Line per Depth step
PROD  .    Schlumberger Technology Corp.           :LAS Producer
PROG  .    Horizon LASWriter 13.0.221437.3100      :LAS Program name and version
SOURCE.    S1R1-Log[3]/Up                          :Run&Pass Information
CREA  .    07/04/2024                              :LAS Creation date {MM/DD/YYYY}
#--------------------------------------------------
~WELL INFORMATION 
#MNEM           .UNIT                      DATA            :DESCRIPTION
#----            ------          --------------            -----------------------------
STRT            .m                   1718.15760            :START DEPTH
STOP            .m                   2673.85800            :STOP DEPTH
STEP            .m                       0.1524            :STEP
NULL            .                       -999.25            :NULL VALUE
COMP            .                PT Pertamina EP           :COMPANY
WELL            .                BNG-A4(BNG-058)           :WELL NAME
FLD             .                       Benuang            :FIELD NAME
RIGN            .                       Tiger-7            :Rig Name
RIGTYP          .                      Land Rig            :Rig Type
SON             .                A.1059389.01.02           :Service Order Number
SRVC            .                  Schlumberger            :SERVICE COMPANY
DATE            .                    07/04/2024            :LOG DATE(Composite Date for Composite LAP) (MM/DD/YYYY)
CLAB            .                     Rig Name:            :County Label
CNTY            .                       TIGER-7            :COUNTY
SLAB            .                     Province:            :State/Province Label
STAT            .                 South Sumatra            :STATE or PROVINCE
PROV            .                 South Sumatra            :STATE or PROVINCE
CTRY            .                     Indonesia            :COUNTRY
CONT_REGION     .                          Asia            :Continent Region
SECT            .                                          :Section
TOWN            .                                          :Township
RANG            .                                          :Range
API             .                                          :API NUMBER
UWI             .                                          :UNIQUE WELL ID
LUL             .                         IDPRA            :Logging Unit Location
LUN             .                   OSLC-A 2155            :Logging Unit Number
LOC             .                         Adera            :FIELD LOCATION
FL1             .                X: 387.623,270 mE         :Field Location Line 1
FL2             .                Y: 9.630.308,141 mN       :Field Location Line 2
LATI            .deg             3° 20' 38.96" S           :LATITUDE
LONG            .deg             103° 59' 18.38" E         :LONGITUDE
PDAT            .                           MSL            :Local Permanent Datum
LMF             .                            DF            :Logging Measured From
APD             .m                        44.63            :Elevation of Depth Reference (LMF) Above Permanent Datum
EPD             .m                         0.00            :Elevation of Permanent Datum (PDAT) above Mean Sea Level
EKB             .m                        44.63            :Elevation of Kelly Bushing Above Permanent Datum
EDF             .m                        44.63            :Elevation of Drill Floor Above Permanent Datum
EGL             .m                        34.03            :Elevation of Ground Level Above Permanent Datum
ECF             .m                      -999.25            :Elevation of Casing Flange above Permanent Datum
#--------------------------------------------------
~CURVE INFORMATION
#MNEM           .UNIT                  API CODE            :DESCRIPTION
#----            ------          --------------            -----------------------------
DEPT            .m                                         :                                                        Depth Index
TENS            .lbf                                       :        (WLWorkflow)            (1in)                   Cable Tension
BS              .in                                        :(RT)    (Borehole)              (6in)                   Bit Size
GR_CAL          .gAPI                                      :        (EDTC-B)                (6in)                   Calibrated Gamma Ray
DT              .us/ft                                     :        (ASLT-B)                (6in)                   Delta-T (also called Slowness or Interval Transit Time)
#-------------------------------------------------------------
#            DEPT         TENS           BS       GR_CAL           DT 
#                  (WLWorkflo)   (Borehole)     (EDTC-B)     (ASLT-B) 
#                                      (RT)                           
#                        (1in)        (6in)        (6in)        (6in) 
~ASCII
# ...
       2033.62560   2612.99931      8.50000     51.60703     74.23828
       2033.77800   2599.00045      8.50000     54.84541     74.50196
       2033.93040   2563.99995      8.50000     55.59317     77.00196
       2034.08280   2589.00095      8.50000     57.20302     78.33006
       2034.23520   2591.99990      8.50000     61.70118     75.51758
       2034.38760   2578.99920      8.50000     70.19685     72.18749
       2034.54000   2599.00045      8.50000     76.02610     71.47459
       2034.69240   2572.99905      8.50000     72.99754     72.76368
       2034.84480   2596.99965      8.50000     63.08272     73.23244
       2034.99720   2607.99956      8.50000     51.20441     72.54883
       2035.14960   2571.49958      8.50000     48.36644     72.57812
       2035.30200   2606.00101      8.50000     45.15247     74.29686
       2035.45440   2589.99910      8.50000     43.67482     76.33789
       2035.60680   2563.99995      8.50000     41.76809     76.40626
       2035.75920   2575.49893      8.50000     46.43785     75.00000
       2035.91160   2542.00015      8.50000     50.71168     74.79493
       2036.06400   2573.99945      8.50000     51.79441     76.00587
       2036.21640   2608.50088      8.50000     51.15988     76.74803
       2036.36880   2578.99920      8.50000     46.43116     78.67187
       2036.52120   2577.00065      8.50000     45.61039     80.40039
       2036.67360   2595.99926      8.50000     41.72300     78.37892
       2036.82600   2584.99935      8.50000     46.89936     76.19140
       2036.97840   2623.00106      8.50000     52.29407     78.05663
       2037.13080   2606.50008      8.50000     61.52404     81.68945
       2037.28320   2582.00040      8.50000     85.14352     82.98829
       2037.43560   2608.99996      8.50000    121.35990     80.96680
       2037.58800   2544.00095      8.50000    153.12590     76.19140
       2037.74040   2566.49983      8.50000    169.34020     73.71094
       2037.89280   2597.50098      8.50000    152.24160     76.65040
       2038.04520   2563.99995      8.50000    119.58030     79.55079
       2038.19760   2628.49988      8.50000     78.92552     80.47851
       2038.35000   2604.49928      8.50000     55.28529     79.57033
       2038.50240   2589.00095      8.50000     48.29571     77.43164
       2038.65480   2604.00021      8.50000     46.65119     75.79102
       2038.80720   2570.00010      8.50000     48.95449     74.32618
       2038.95960   2610.49943      8.50000     54.07693     73.73048
       2039.11200   2599.49953      8.50000     54.65784     74.01367
       2039.26440   2575.49893      8.50000     56.37746     74.31640
       2039.41680   2591.50083      8.50000     53.68603     76.05470
       2039.56920   2581.49908      8.50000     58.11228     77.65624
       2039.72160   2550.99925      8.50000     57.00808     76.24023
       2039.87400   2629.00121      8.50000     62.64964     75.34181
       2040.02640   2616.00051      8.50000     64.36732     76.62108
       2040.17880   2607.99956      8.50000     67.24754     78.49609
       2040.33120   2608.99996      8.50000     62.20213     78.40822
       2040.48360   2587.00015      8.50000     53.98175     75.86914
       2040.63600   2625.50093      8.50000     47.94541     74.46288
       2040.78840   2614.50103      8.50000     43.85076     73.99413
       2040.94080   2593.49938      8.50000     43.62766     73.33006
       2041.09320   2612.99931      8.50000     40.41446     73.24219
       2041.24560   2611.00076      8.50000     43.57513     73.19336
       2041.39800   2573.99945      8.50000     45.21929     72.97851
       2041.55040   2616.00051      8.50000     46.61530     72.93946
       2041.70280   2613.50063      8.50000     44.48621     73.05663
       2041.85520   2691.99942      8.50000     45.26041     73.37889
       2042.00760   2582.00040      8.50000     46.10474     73.58399
       2042.16000   2639.00071      8.50000     47.52370     73.23244
       2042.31240   2556.99940      8.50000     48.91580     73.00780
       2042.46480   2619.99986      8.50000     53.88674     73.41797
       2042.61720   2584.00120      8.50000     51.08464     73.70116
       2042.76960   2628.00081      8.50000     45.96523     73.33006
       2042.92200   2587.49923      8.50000     40.10994     72.67578
       2043.07440   2584.99935      8.50000     41.49202     72.10937
       2043.22680   2611.99891      8.50000     43.84661     72.13866
       2043.37920   2571.00050      8.50000     46.37710     72.54883
       2043.53160   2624.99961      8.50000     46.26535     72.47071
       2043.68400   2640.50019      8.50000     52.82005     71.83593
       2043.83640   2589.99910      8.50000     54.94962     71.27931
       2043.98880   2601.50033      8.50000     60.40654     71.20116
       2044.14120   2612.50023      8.50000     55.49609     71.37697
       2044.29360   2578.00105      8.50000     54.24621     71.53321
       2044.44600   2624.99961      8.50000     47.81849     71.80664
       2044.59840   2578.00105      8.50000     50.88188     72.29493
       2044.75080   2572.99905      8.50000     51.70727     72.59766
       2044.90320   2589.00095      8.50000     51.93179     72.47071
       2045.05560   2579.99960      8.50000     47.61165     72.05079
       2045.20800   2605.49968      8.50000     43.58957     71.64062
       2045.36040   2638.49939      8.50000     46.53993     71.75781
       2045.51280   2633.00056      8.50000     46.90973     72.53905
       2045.66520   2622.00066      8.50000     48.88954     72.95897
       2045.81760   2589.00095      8.50000     50.27312     72.50976
       2045.97000   2544.00095      8.50000     52.84093     71.71874
       2046.12240   2598.00005      8.50000     53.60813     71.34764
       2046.27480   2562.99955      8.50000     50.35725     71.88476
       2046.42720   2572.99905      8.50000     45.11942     72.39259
       2046.57960   2620.49893      8.50000     46.89294     72.26561
       2046.73200   2566.00075      8.50000     50.59211     71.95313
       2046.88440   2599.00045      8.50000     54.33177     71.71874
       2047.03680   2607.50048      8.50000     53.62321     71.65040
       2047.18920   2605.00061      8.50000     55.82863     71.62108
       2047.34160   2622.00066      8.50000     59.04592     72.38281
       2047.49400   2602.99981      8.50000     57.61047     73.71094
       2047.64640   2588.00055      8.50000     52.63859     74.68749
       2047.79880   2584.99935      8.50000     49.20089     75.01954
       2047.95120   2576.00025      8.50000     48.83125     74.82422
       2048.10360   2599.49953      8.50000     52.56870     74.53125
       2048.25600   2612.50023      8.50000     52.30902     74.72657
       2048.40840   2563.99995      8.50000     53.21340     75.73244
       2048.56080   2618.50038      8.50000     54.03682     75.51758
       2048.71320   2611.99891      8.50000     67.79711     72.90039
       2048.86560   2589.00095      8.50000    106.18140     71.82618
       2049.01800   2626.00001      8.50000    138.65330     78.12499
       2049.17040   2596.50058      8.50000    158.66920     93.63282
       2049.32280   2586.50108      8.50000    141.62410    115.44922
       2049.47520   2598.00005      8.50000    130.30430    126.98242
       2049.62760   2557.99980      8.50000    130.96220    112.37305
       2049.78000   2601.50033      8.50000    133.95570     86.02538
       2049.93240   2600.00085      8.50000    133.88230     75.11720
       2050.08480   2576.00025      8.50000    124.89590     73.20311
       2050.23720   2611.00076      8.50000    118.77470     70.27344
       2050.38960   2598.00005      8.50000     99.30199     73.53516
       2050.54200   2598.00005      8.50000     83.26949     78.39843
       2050.69440   2603.50113      8.50000     82.14211     78.67187
       2050.84680   2584.50028      8.50000    106.18140     74.84376
       2050.99920   2590.99950      8.50000    124.60620     72.44142
