~Version Information
 VERS.                  2.0:   CWLS log ASCII Standard -VERSION 2.0
 WRAP.                   NO:   One line per depth step
~Well Information Block
#MNEM.UNIT     VALUE/NAME     DESCRIPTION
#---------     -----------    ---------------------------
 STRT.M              1700.1000: START DEPTH
 STOP.M              2733.9000: STOP DEPTH
 STEP.M                 0.1500: STEP DEPTH
 NULL.               -999.2500: NULL VALUE
 CNTY.         Tanjung Benuang:  COUNTY NAME
 CTRY.               Indonesia:  COUNTRY NAME
 PROV.          South Sumatera:  PROVINCE
 STAT.          South Sumatera:  STATE NAME
 FLD .                 Benuang:  FIELD NAME
 DATE.      15.00.00 14-May-24:  END TIME
 WELL.                  BNG-B3:  WELL NAME
 COMP.     PHR Region 1 Zona 4:  COMPANY
 API .                        :  API NUMBER
 SRVC.             Halliburton:  SERVICE COMPANY
 UWI .                        :  UNIQUE WELL IDENTIFIER
 LOC .                        :  LOCATION
~Parameter Information Block
#MNEM.UNIT       Value        Description
#---------     -----------    ---------------------------
 AV  .fpm             311.0000:  Ann Velocity 
 AVMX.fpm             315.0000:  Max Ann Veloc 
 AZIF.deg             294.2000:  Azm, Final 
 BHAT.        Rotary Steerable:  BHA Type 
 BROT.°/100'            0.2000:  Build Rotating 
 BS  .in                8.5000:  Bit Size 
 BSZ .in                8.5000:  Bit Size 
 BTPL.psig            496.0000:  Bit Press Loss 
 CABU.                      No:  Customer Abuse 
 CGEO.           Achmad Gazali:  Customer Geo 
 COMM.                     üQb:  Run Comments 1 
 TCS .hr               88.2729:  Time Ciculation Ended 
 CV  .fpm             378.0000:  Crit Velocity 
 CVMX.fpm             380.0000:  Max Crit Veloc 
 DD1 .          Yudi Kurniawan:  Direct Drillr 1 
 DD2 .               Aminuddin:  Direct Drillr 2 
 DDSV.               Geo-Pilot:  DD Service 
 DEFF.%               100.0000:  % Det Eff 
 DLRX.°/100'            0.5000:  Dogleg Rot Max 
 DLSO.°/100'            1.1000:  Dogleg Oriented 
 DLSX.°/100'            2.1900:  Dogleg Str Max 
 DRET.      10.25.00 13-May-24:  Drill End Time 
 DRST.      23.00.00 09-May-24:  Drill Start Tim 
 DTIM.hr               52.9642:  Time Drilling 
 EDEP.m              2734.0000:  End Depth 
 ENG1.      Andika BP Pulungan:  Engineer 1 
 ENG2.         Edward Joshua M:  Engineer 2 
 ENG3.       Pandamama Siahaan:  Engineer 3 
 ENG4.        Siti Nurfitriani:  Engineer 4 
 ETIM.      18.45.00 14-May-24:  End Time 
 FLOI.gpm             550.0000:  Flow In 
 FLON.gpm             400.0000:  Flow In Min 
 FLOS.mptm              4.2000:  Fluid Loss 
 FLOX.gpm             600.0000:  Flow In Max 
 DFT .                 Polymer:  Mud Type 
 HPRE.                      No:  High Pressure 
 HTEM.                      No:  High Temp 
 HYDO.m                 0.0000:  Hydro Offset 
 IFIN.deg              25.6000:  Inc, Final 
 IMAX.deg              26.9023:  Inc Max 
 IMIN.deg              20.4496:  Inc Min 
 IMND.m              2580.0901:  Inc Min Depth 
 IMXD.m              2034.3999:  Inc Max Depth 
 JARR.                      No:  Jarring 
 LETM.      10.25.00 13-May-24:  Log End Time 
 LOST.hr                     0:  Lost Rig Time 
 LSTM.      23.00.00 09-May-24:  Log Start Time 
 MDCL.ppm           42000.0000:  Mud Chlorides 
 MDES.             Fresh Water:  Mud Desc 
 DFD .SG                1.3000:  Mud Density 
 MDMN.SG                1.2500:  Dens Mud Min 
 MDMX.SG                1.3000:  Dens Mud Max 
 PH  .pH               10.0000:  Mud pH 
 MOIL.                       0:  Run Mud Oil % 
 MOWR.                   0 100:  Run Mud OWR 
 MSND.                     0.2:  Run Mud Sand % 
 MSOL.                     8.9:  Run Mud Solids% 
 DFV .spqt             80.0000:  Mud Viscosity 
 MWOD.in                6.7500:  MWD Tool OD 
 MWSI.                      No:  Serv Intrp, MWD 
 OTIM.hr              124.1140:  Time Operating 
 PMAX.psig           3200.0000:  Press Op, Max 
 PV  .cP               24.0000:  Mud PV 
 RMS .ohmm              0.0800:  Mud Resistivity 
 RMCS.ohmm              0.1050:  Mud Cake Resistivity 
 MCST.degF             81.0000:  Mud Cake Sample Temperature 
 RMFS.ohmm              0.0500:  Mud Filtrate Resistivity 
 RMFT.degF             81.0000:  Mud Filtrate Sample Temperature 
 RMMT.ohmm              0.0525:  Rm @ Max Temp 
 MST .degF             82.0000:  Mud Sample Temperature 
 RUN .                     500:  Run Number 
 ROPA.m/hr             30.0000:  ROP Avg 
 ROPN.m/hr              5.0000:  ROP Min 
 ROPX.m/hr             40.0000:  ROP Max 
 RPMA.rpm             120.0000:  RPM Surface Avg 
 RPMN.rpm              80.0000:  RPM Surface Min 
 RPMX.rpm             130.0000:  RPM Surface Max 
 RRUN.                     500:  Rig Run Number 
 RTIM.hr               10.0000:  Time Reaming 
 SAZI.deg             296.4800:  Azm, Start 
 SDEP.m              1782.9999:  Start Depth 
 SIDD.                      No:  Serv Intrp, DD 
 SINC.deg              23.5300:  Inc, Start 
 SPPA.psig           3000.0000:  SPP Avg 
 SPPN.psig           2000.0000:  SPP Min 
 SPPX.psig           3100.0000:  SPP Max 
 STIM.      10.00.00 09-May-24:  Start Time 
 SVCS.                 DD, MWD:  Services 
 SVER.                  9.2000:  Sperry Version 
 TDAT.m               951.0001:  Tot Depth Attmp 
 TDDF.                      No:  Trip for DD 
 TDLG.m               951.0001:  Tot Depth Loggd 
 TFF .                      No:  Trip for Fail 
 TQAA.f-p           15000.0000:  Torque Abs Avg 
 TQAN.f-p            7000.0000:  Torque Abs Min 
 TQAX.f-p           18000.0000:  Torque Abs Max 
 TRRT.°/100'            0.2000:  Turn Rotating 
 MRT .                  EWR-P4:  Maximum Recorded Temperature 
 TTMX.degC            101.9000:  Max Tool Temp 
 VS01.        JK90757141L2N1-6:  Virtual Str1 SN 
 VS02.     DR90758460H1WGV2R-6:  Virtual Str2 SN 
 WBMN.klb               5.0000:  WOB Min 
 WITN.            Eko Agustian:  Customer Rep 2 
 WITN.            Bagus Ardika:  Customer Rep 
 WOBA.klb              20.0000:  WOB Avg 
 WOBX.klb              30.0000:  WOB Max 
 YP  .lhf2             30.0000:  Yield Point 
~Curve Information Block
#MNEM.UNIT                 API CODE     Curve Description
#---------               -----------    ---------------------------
 DEPT.M                 00 000 000 000:  Depth
 TVD .m                 00 000 000 000:  True Vertical Depth
 ROPA.m/hr              00 000 000 000:  Avg Rate of Penetration
 DGRCC.api              00 000 000 000:  DGR Comb Gamma Ray BCorr
 DGDD.ptpm              00 000 000 000:  DGR Data Density
 R09PC.ohmm             00 000 000 000:  9in Phase Resistivity BC
 R15PC.ohmm             00 000 000 000:  15in Phase Resistivity BC
 R27PC.ohmm             00 000 000 000:  27in Phase Resistivity BC
 R39PC.ohmm             00 000 000 000:  39in Phase Resistivity BC
 EWDD.ptpm              00 000 000 000:  EWR Data Density
 EWXT.hr                00 000 000 000:  EWR Formation Exp Time
 EWTEMP.degC            00 000 000 000:  EWR Temperature
 ALCDLC.g/cc            00 000 000 000:  ALD LCRB Comp Density
 ALDD.ptpm              00 000 000 000:  ALD Data Density
 TNPL.v/v               00 000 000 000:  CTN Porosity Limestone
 TNPS.v/v               00 000 000 000:  CTN Porosity Sandstone
 TNDD.ptpm              00 000 000 000:  CTN Data Density
#Other Information
#Environmental Parameters (and sensors to which they are applied)
#Hole Size 		: 8.5" (all sensors)
#Tool Size 			: 6.75"
#Mud Type 		: WBM (Gamma Ray)
#Mud Weight 		: 1.25 - 1.30 SG (Gamma Ray)
#KCl Concentration by Weight 	: 4.21 - 5.05 pbw (Gamma Ray)
#Mud Resistivity at BHT 	: 0.07  ohmm @101.9 degC (Resistivity)
#Fluid Density 		: 1.00 g/cc (Density)
#Neutron Tool Lithology	: Limestone (Porosity)
#Whole Mud Chlorides 	: 28800 - 33426 ppm (Porosity)
#Formation Water Salinity 	: 20000 ppm Cl- (Porosity)
#Pressure and Temperature 	: from PWD and EWR (Density, Porosity)
#
#Comments:
#1) All depth are calibrated to the drillers pipe tally and are measured from drill floor.
#2) No depth correction have been made for pipe stretch or compression.
#3) LWD Resistivity Tool utilized in this run is EWRP4, with spacing configuration as below:
#    - Deep Resistivity = 39in Spacing / 1 Mhz Frequency
#    - Medium Resistivity = 27in Spacing / 2 MHz Frequency
#    - Shallow Resistivity = 15in Spacing / 2 MHz Frequency
#    - XShallow Resistivity = 9in Spacing /2 MHz Frequency
#4) CTN Alloy type used for CTN data processing is Mid Nickle.
#5) Density reading might be affected by detector standoff to borehole wall while sliding.
#6) All data presented is Memory data unless otherwise stated.
#WARRANTY: Halliburton will use its best efforts to furnish customers with 
#accurate information and interpretations that are part of, and incident to, the services 
#provided.  However, Halliburton cannot and does not warrant the accuracy 
#or correctness of such information and interpretations.  Under no circumstances should any 
#such information or interpretation be relied upon as the sole basis for any drilling, 
#completion, production, or financial decision or any procedure involving any risk to the 
#safety of any drilling venture, drilling rig or its crew or any other third party.  The 
#Customer has full responsibility for all drilling, completion and production operation.  
#Halliburton makes no representations or warranties, either expressed or 
#implied, including, but not limited to, the implied warranties of merchantability or fitness 
#for a particular purpose, with respect to the services rendered.  In no event will 
#Halliburton be liable for failure to obtain any particular results or for 
#any damages, including, but not limited to, indirect, special or consequential damages, 
#resulting from the use of any information or interpretation provided by Halliburton.
#
~A   DEPT       TVD      ROPA      DGRCC     DGDD      R09PC     R15PC     R27PC     R39PC     EWDD      EWXT     EWTEMP    ALCDLC      ALDD      TNPL      TNPS       TNDD    
   1700.1000 1593.7321 -999.2500   77.1841    0.1988    0.0572    0.0615  335.2894  384.8910    0.0010    0.0157 -999.2500    1.6437     0.0010 -999.2500 -999.2500  -999.2500
   1700.2500 1593.8024    0.0000   72.5317    0.3966 -999.2500 -999.2500 -999.2500 -999.2500 -999.2500 -999.2500 -999.2500    1.6437     0.0010 -999.2500 -999.2500  -999.2500
   1700.4000 1594.0546  641.6503   67.8793    0.5945 -999.2500 -999.2500 -999.2500 -999.2500 -999.2500 -999.2500 -999.2500    1.6667     0.1860 -999.2500 -999.2500  -999.2500
   1700.5500 1594.0729  985.5847   63.2269    0.7923 -999.2500 -999.2500 -999.2500 -999.2500 -999.2500 -999.2500 -999.2500    1.6896     0.3710 -999.2500 -999.2500  -999.2500
   1700.7000 1594.3538  991.3053   58.5745    0.9901 -999.2500 -999.2500 -999.2500 -999.2500 -999.2500 -999.2500 -999.2500    1.7125     0.5560 -999.2500 -999.2500  -999.2500
   1700.8500 1594.3645  992.9554   58.5745    0.9901 -999.2500 -999.2500 -999.2500 -999.2500 -999.2500 -999.2500 -999.2500    1.7355     0.7410 -999.2500 -999.2500  -999.2500
   1701.0000 1594.6510 1025.4049   58.5745    0.9901 -999.2500 -999.2500 -999.2500 -999.2500 -999.2500 -999.2500 -999.2500    1.7584     0.9260 -999.2500 -999.2500  -999.2500
   1701.1500 1594.6580 1025.4049   60.7027    0.9818 -999.2500 -999.2500 -999.2500 -999.2500 -999.2500 -999.2500 -999.2500    1.7584     0.9260 -999.2500 -999.2500  -999.2500
   1701.3000 1594.8894 1030.2806   62.8309    0.9735 -999.2500 -999.2500 -999.2500 -999.2500 -999.2500 -999.2500 -999.2500    1.7584     0.9260 -999.2500 -999.2500  -999.2500
   1701.4500 1594.9468 1030.2806   64.9591    0.9652 -999.2500 -999.2500 -999.2500 -999.2500 -999.2500 -999.2500 -999.2500    1.6003     0.9263 -999.2500 -999.2500  -999.2500
   1701.6000 1595.1556  944.6802   67.0873    0.9569 -999.2500 -999.2500 -999.2500 -999.2500 -999.2500 -999.2500 -999.2500    1.4421     0.9266 -999.2500 -999.2500  -999.2500
   1701.7500 1595.2350  935.3202   69.2155    0.9486 -999.2500 -999.2500 -999.2500 -999.2500 -999.2500 -999.2500 -999.2500    1.2839     0.9270 -999.2500 -999.2500  -999.2500
   1701.9000 1595.4126  911.6492   69.2155    0.9486 -999.2500 -999.2500 -999.2500 -999.2500 -999.2500 -999.2500 -999.2500    1.1257     0.9273 -999.2500 -999.2500  -999.2500
   1702.0500 1595.5187  930.7460   69.2155    0.9486 -999.2500 -999.2500 -999.2500 -999.2500 -999.2500 -999.2500 -999.2500    0.9676     0.9276 -999.2500 -999.2500  -999.2500
   1702.2000 1595.6503  944.6802   67.6690    0.9566 -999.2500 -999.2500 -999.2500 -999.2500 -999.2500 -999.2500 -999.2500    0.8094     0.9280 -999.2500 -999.2500  -999.2500
   1702.3500 1595.7922  922.6053   66.1224    0.9646    0.0572    0.0615  335.2894   32.9328    0.3981    0.0138   85.4492    0.8094     0.9280 -999.2500 -999.2500  -999.2500
   1702.5000 1595.8918  917.9579   64.5758    0.9726    0.0572    0.0615  335.2894   32.9328    0.3981    0.0138   85.4492    1.0864     0.9350 -999.2500 -999.2500  -999.2500
   1702.6500 1596.0737 1000.5905   63.0293    0.9806    0.0572    0.0615  335.2894   32.9328    0.3981    0.0138 -999.2500    1.3635     0.9421 -999.2500 -999.2500  -999.2500
   1702.8000 1596.1472  990.6152   61.4827    0.9886    0.0572    0.0615  335.2894  150.2522    0.7142    0.0145 -999.2500    1.6406     0.9492 -999.2500 -999.2500  -999.2500
   1702.9500 1596.3711  946.2923   61.4827    0.9886    0.0572    0.0615  335.2894  267.5716    1.0304    0.0153 -999.2500    1.9176     0.9563 -999.2500 -999.2500  -999.2500
   1703.1000 1596.3898  949.2832   61.4827    0.9886    0.0572    0.0615  335.2894  384.8910    1.3466    0.0160 -999.2500    2.1947     0.9634 -999.2500 -999.2500  -999.2500
   1703.2500 1596.6595  952.8834   63.8100    0.9881    0.0572    0.0615  335.2894  384.8910    1.3466    0.0160 -999.2500    2.1947     0.9634 -999.2500 -999.2500  -999.2500
   1703.4000 1596.6758  949.4126   66.1372    0.9876    0.0572    0.0615  335.2894  212.6389   10.7146    0.0779 -999.2500    2.1947     0.9634 -999.2500 -999.2500  -999.2500
   1703.5500 1596.9552  947.9099   68.4645    0.9871    0.0572    0.0615  335.2894  206.7292   17.5596    0.0759 -999.2500    2.1229     0.9678 -999.2500 -999.2500  -999.2500
   1703.7000 1596.9613  911.6492   70.7917    0.9866    0.0572    0.0615  335.2894  203.8355   11.9240    0.0774 -999.2500    2.0510     0.9721 -999.2500 -999.2500  -999.2500
   1703.8500 1597.2228  911.6492   73.1190    0.9861    0.0572    0.0615  335.2894  182.7536    3.2637    0.1402 -999.2500    1.9792     0.9765 -999.2500 -999.2500  -999.2500
   1704.0000 1597.2457  992.7567   73.1190    0.9861    0.0572    0.0615  335.2894  182.7536    3.2637    0.1402   85.4492    1.9073     0.9809 -999.2500 -999.2500  -999.2500
   1704.1500 1597.5232  992.7567   71.8296    0.9796    0.0572    0.0615  335.2894  223.1811    2.8017    0.1406   85.4492    1.8355     0.9852 -999.2500 -999.2500  -999.2500
   1704.3000 1597.5300 1054.5907   70.5402    0.9730    0.0572    0.0615  335.2894  263.6085    2.3397    0.1410   85.9637    1.8355     0.9852 -999.2500 -999.2500  -999.2500
   1704.4500 1597.8192 1038.2772   69.2508    0.9665    0.0572    0.0615  335.2894  304.0360    1.8776    0.1414   85.7501    1.8355     0.9852 -999.2500 -999.2500  -999.2500
   1704.6000 1597.8239  994.5264   67.9614    0.9599    0.0572    0.0615  335.2894  344.4635    1.4156    0.1418   85.7594    1.8472     0.9850 -999.2500 -999.2500  -999.2500
   1704.7500 1598.0482  986.0505   66.6720    0.9534    0.0572    0.0615  335.2894  384.8910    0.9536    0.1421   85.8345    1.8589     0.9848 -999.2500 -999.2500  -999.2500
   1704.9000 1598.1115  974.4882   65.3827    0.9469    0.0572    0.0615  335.2894  384.8910    0.9536    0.1421   85.9095    1.8706     0.9846 -999.2500 -999.2500  -999.2500
   1705.0500 1598.3093 1002.2762   65.3827    0.9469    0.0572    0.0615  335.2894  384.8910    0.9536    0.1421   85.9845    1.8823     0.9844 -999.2500 -999.2500  -999.2500
   1705.2000 1598.3994 1024.8473   63.7650    0.9440    0.0572    0.0615  335.2894  309.4772    0.9553    0.1425   86.0596    1.8940     0.9842 -999.2500 -999.2500  -999.2500
   1705.3500 1598.5317 1030.7654   62.1474    0.9411    0.0572    0.0615  335.2894  234.0634    0.9571    0.1428   86.0596    1.8940     0.9842 -999.2500 -999.2500  -999.2500
   1705.5000 1598.6798 1034.5658   60.5298    0.9383    0.0572    0.0615  335.2894  158.6496    0.9588    0.1431   86.0596    1.9053     0.9734 -999.2500 -999.2500  -999.2500
   1705.6500 1598.7651 1003.6994   58.9122    0.9354    0.0572    0.0615  335.2894   83.2358    0.9605    0.1435   86.0596    1.9166     0.9626 -999.2500 -999.2500  -999.2500
   1705.8000 1598.9617  994.5264   57.2945    0.9325    0.0572    0.0615  335.2894    7.8220    0.9622    0.1438   86.0596    1.9279     0.9517 -999.2500 -999.2500  -999.2500
   1705.9500 1598.9797  984.1523   55.6769    0.9296    0.0572    0.0615  335.2894    7.8220    0.9622    0.1438   86.0596    1.9392     0.9409 -999.2500 -999.2500  -999.2500
   1706.1000 1599.2700  984.1523   55.6769    0.9296    0.0572    0.0615  335.2894    7.8220    0.9622    0.1438   86.0596    1.9505     0.9300 -999.2500 -999.2500  -999.2500
   1706.2500 1599.2761 1009.3535   55.6769    0.9296    0.0572    0.0615  335.2894   83.2358    0.9668    0.1441   86.0596    1.9617     0.9192 -999.2500 -999.2500  -999.2500
   1706.4000 1599.5507 1009.3535   58.7736    0.9281    0.0572    0.0615  335.2894  158.6496    0.9714    0.1445   86.0596    1.9617     0.9192 -999.2500 -999.2500  -999.2500
   1706.5500 1599.5612 1048.2377   61.8702    0.9265    0.0572    0.0615  335.2894  234.0634    0.9759    0.1448   86.0596    1.9617     0.9192 -999.2500 -999.2500  -999.2500
   1706.7000 1599.8457 1048.2377   64.9669    0.9250    0.0572    0.0615  335.2894  309.4772    0.9805    0.1451   86.0596    1.9631     0.9207 -999.2500 -999.2500  -999.2500
   1706.8500 1599.8510  995.9921   68.0635    0.9234    0.0572    0.0615  335.2894  384.8910    0.9850    0.1455   86.0596    1.9645     0.9222 -999.2500 -999.2500  -999.2500
