~VERSION INFORMATION 
VERS  .    2.0                                     :CWLS Log ASCII Standard - VERSION 2.0
WRAP  .    NO                                      :One Line per Depth step
PROD  .    Schlumberger Technology Corp.           :LAS Producer
PROG  .    Horizon LASWriter 13.0.221437.3100      :LAS Program name and version
SOURCE.    S1R1-Log[3]/Up                          :Run&Pass Information
CREA  .    05/17/2024                              :LAS Creation date {MM/DD/YYYY}
#--------------------------------------------------
~WELL INFORMATION 
#MNEM           .UNIT                      DATA            :DESCRIPTION
#----            ------          --------------            -----------------------------
STRT            .m                   1744.98000            :START DEPTH
STOP            .m                   2740.91400            :STOP DEPTH
STEP            .m                       0.1524            :STEP
NULL            .                       -999.25            :NULL VALUE
COMP            .                PT Pertamina EP           :COMPANY
WELL            .                BNG-056 (BNG-B3)          :WELL NAME
FLD             .                    Prabumulih            :FIELD NAME
RIGN            .                                          :Rig Name
RIGTYP          .                          Land            :Rig Type
SON             .                A.1009322.16.02           :Service Order Number
SRVC            .                  Schlumberger            :SERVICE COMPANY
DATE            .                    05/17/2024            :LOG DATE(Composite Date for Composite LAP) (MM/DD/YYYY)
CLAB            .                     Rig Name:            :County Label
CNTY            .                PDSI#39.3/D1500-E         :COUNTY
SLAB            .                     Province:            :State/Province Label
STAT            .                 South Sumatra            :STATE or PROVINCE
PROV            .                 South Sumatra            :STATE or PROVINCE
CTRY            .                     Indonesia            :COUNTRY
CONT_REGION     .                          Asia            :Continent Region
SECT            .                                          :Section
TOWN            .                                          :Township
RANG            .                                          :Range
API             .                                          :API NUMBER
UWI             .                                          :UNIQUE WELL ID
LUL             .                ING/IDPRA-WLES            :Logging Unit Location
LUN             .                  OSLC-AA 2175            :Logging Unit Number
LOC             .                         Adera            :FIELD LOCATION
FL1             .                 X: 389146.04             :Field Location Line 1
FL2             .                Y: 9628977.87             :Field Location Line 2
LATI            .deg             3° 21' 22.33" S           :LATITUDE
LONG            .deg             104° 0' 7.68" E           :LONGITUDE
PDAT            .                           MSL            :Local Permanent Datum
LMF             .                            DF            :Logging Measured From
APD             .m                        34.37            :Elevation of Depth Reference (LMF) Above Permanent Datum
EPD             .m                         0.00            :Elevation of Permanent Datum (PDAT) above Mean Sea Level
EKB             .m                        34.37            :Elevation of Kelly Bushing Above Permanent Datum
EDF             .m                        34.37            :Elevation of Drill Floor Above Permanent Datum
EGL             .m                        25.23            :Elevation of Ground Level Above Permanent Datum
ECF             .m                      -999.25            :Elevation of Casing Flange above Permanent Datum
#--------------------------------------------------
~CURVE INFORMATION
#MNEM           .UNIT                  API CODE            :DESCRIPTION
#----            ------          --------------            -----------------------------
DEPT            .m                                         :                                                        Depth Index
GR_CAL          .gAPI                                      :        (EDTC-B)                (6in)                   Calibrated Gamma Ray
TENS            .lbf                                       :        (WLWorkflow)            (6in)                   Cable Tension
DT              .us/ft                                     :        (DSLT-H)                (6in)                   Delta-T (also called Slowness or Interval Transit Time)
#-------------------------------------------------------------
#            DEPT       GR_CAL         TENS           DT 
#                     (EDTC-B)  (WLWorkflo)     (DSLT-H) 
#                                                        
#                        (6in)        (6in)        (6in) 
~ASCII
# ...
       2647.49280    104.03590   4399.00070     71.86230
       2647.64520    119.68650   4426.08343     71.82396
       2647.79760    133.05810   4416.00075     71.22768
       2647.95000    147.29220   4402.50098     71.46655
       2648.10240    141.31630   4429.41735     70.50027
       2648.25480    128.69370   4419.84723     71.43335
       2648.40720    101.36410   4403.41595     73.60329
       2648.55960     86.10712   4401.75011     72.86741
       2648.71200     76.14584   4363.38422     73.36749
       2648.86440     71.10480   4387.33312     73.79501
       2649.01680     71.84103   4377.58315     73.21058
       2649.16920     71.61094   4359.15331     73.72944
       2649.32160     80.73079   4382.41654     72.87070
       2649.47400     90.34992   4390.16796     73.34753
       2649.62640    120.94970   4394.33367     74.46992
       2649.77880    150.64470   4410.41650     75.37567
       2649.93120    173.87460   4399.74931     75.04764
       2650.08360    172.74790   4410.58286     78.22314
       2650.23600    178.99910   4401.58375     79.92002
       2650.38840    178.31080   4398.91752     81.71337
       2650.54080    181.29080   4391.41789     82.27457
       2650.69320    173.41970   4381.24979     81.17650
       2650.84560    173.34590   4367.91637     81.15657
       2650.99800    178.35950   4387.23195     77.04649
       2651.15040    177.14390   4414.75081     77.71906
       2651.30280    167.29790   4401.08243     77.78932
       2651.45520    145.67820   4420.08328     78.36384
       2651.60760    125.92500   4389.08438     79.81694
       2651.76000    120.14920   4388.27282     78.21165
       2651.91240    127.77580   4390.99975     76.16989
       2652.06480    132.53050   4363.30778     75.27624
       2652.21720    131.36100   4380.24939     73.51761
       2652.36960    120.27210   4369.75081     74.15287
       2652.52200    109.73800   4370.58260     72.58809
       2652.67440    103.34480   4401.25104     72.86180
       2652.82680     96.84336   4402.58415     74.59188
       2652.97920     92.01197   4426.61623     73.98523
       2653.13160     78.09927   4424.15457     73.15718
       2653.28400     69.58972   4422.33362     71.24825
       2653.43640     64.61560   4439.74957     70.87088
       2653.58880     66.05933   4440.15423     71.20454
       2653.74120     67.62109   4439.00096     71.52513
       2653.89360     76.99336   4462.50023     70.69461
       2654.04600     88.11375   4428.91603     70.89163
       2654.19840     91.30758   4434.33392     70.93580
       2654.35080     84.30930   4422.66634     71.21408
       2654.50320     75.14246   4369.66763     70.27627
       2654.65560     65.55439   4398.41620     70.36790
       2654.80800     65.77402   4416.27277     70.58229
       2654.96040     68.79703   4401.08243     70.52051
       2655.11280     86.66766   4407.25119     71.22256
       2655.26520     92.44817   4413.91677     71.72474
       2655.41760     95.13365   4395.99950     72.48117
       2655.57000     82.45671   4400.41700     72.86817
       2655.72240     78.60461   4394.63716     73.03642
       2655.87480     81.33136   4392.41605     72.61564
       2656.02720     94.15617   4391.61573     71.86949
       2656.17960    111.71100   4366.99915     72.02790
       2656.33200    123.80670   4368.75041     71.31040
       2656.48440    125.62030   4365.49967     72.41237
       2656.63680    111.55780   4345.33431     70.99008
       2656.78920     90.51512   4361.50032     72.27427
       2656.94160     77.87559   4339.41734     72.40405
       2657.09400     71.16579   4339.91641     72.31926
       2657.24640     73.37943   4390.33432     72.50915
       2657.39880     74.25832   4363.58430     72.32438
       2657.55120     86.19736   4369.18204     72.82300
       2657.70360    108.96990   4384.41734     71.91302
       2657.85600    129.98520   4415.58261     72.33276
       2658.00840    136.51790   4459.84524     71.89324
       2658.16080    127.14280   4467.99906     72.06853
       2658.31320    118.75130   4490.08429     72.50896
       2658.46560    112.31700   4485.16772     73.42370
       2658.61800    107.92430   4463.75017     73.85405
       2658.77040    103.67650   4463.66699     73.17352
       2658.92280    104.80530   4470.54615     73.31528
       2659.07520    105.27870   4426.07669     73.29331
       2659.22760     99.38616   4484.45508     69.24507
       2659.38000     95.02150   4474.16782     67.31334
       2659.53240     91.56805   4439.30894     64.43524
       2659.68480     96.43970   4448.27208     64.81154
       2659.83720     91.67574   4397.69231     68.22555
       2659.98960     90.33554   4406.66669     71.55491
       2660.14200    100.84010   4395.25089     73.16538
       2660.29440    118.60390   4369.41584     71.15181
       2660.44680    139.42810   4405.00085     72.75747
       2660.59920    141.50500   4405.00085     72.75033
       2660.75160    135.04050   4420.46096     72.31109
       2660.90400    125.81200   4462.81946     72.57050
       2661.05640    122.09880   4450.00086     72.21419
       2661.20880    129.02870   4463.72769     70.76761
       2661.36120    133.35670   4480.36355     70.43014
       2661.51360    143.64400   4448.63627     70.12750
       2661.66600    142.15980   4433.54484     71.90119
       2661.81840    132.89590   4443.63652     70.96546
       2661.97080    106.39650   4433.36275     72.42018
       2662.12320     88.05154   4438.81886     72.12043
       2662.27560     89.57574   4420.45422     72.23690
       2662.42800     93.97850   4397.81821     72.45745
       2662.58040     96.58949   4430.18170     72.75192
       2662.73280     84.16987   4399.81900     72.32194
       2662.88520     79.50742   4428.99921     72.61171
       2663.03760     76.35781   4445.09103     71.98510
       2663.19000     73.19798   4450.90909     72.12741
       2663.34240     67.01495   4440.63756     71.65702
       2663.49480     60.28636   4427.27267     71.65418
       2663.64720     58.61026   4422.18300     70.36305
       2663.79960     60.97494   4448.36425     70.42974
       2663.95200     59.95770   4435.91658     70.15240
       2664.10440     64.72095   4462.99931     70.32669
       2664.25680     77.75970   4485.99951     70.66474
       2664.40920     86.33382   4470.09203     71.33847
       2664.56160     91.89665   4518.18091     71.10207
       2664.71400     89.96981   4488.00031     71.51992
       2664.86640     94.62156   4422.90014     71.39596
       2665.01880    101.16900   4435.18145     72.29728
       2665.17120    111.26870   4418.36349     72.28908
       2665.32360    129.25050   4417.90938     72.69288
       2665.47600    136.51980   4434.81726     72.02726
       2665.62840    137.09670   4420.36429     69.34349
       2665.78080    137.90190   4441.99991     71.77735
       2665.93320    147.31970   4483.18266     68.59902
       2666.08560    152.61970   4479.39912     70.39341
       2666.23800    153.21230   4547.50050     69.16601
       2666.39040    150.16390   4601.72666     71.69948
       2666.54280    152.66980   4573.18267     68.77867
       2666.69520    151.34100   4603.19916     69.42466
       2666.84760    157.12960   4552.90940     68.70110
       2667.00000    160.11440   4551.90900     68.96655
       2667.15240    164.57730   4518.72720     68.63008
       2667.30480    165.88460   4455.36480     69.33155
       2667.45720    167.59420   4496.72740     66.69475
       2667.60960    167.20120   4488.90854     68.85987
       2667.76200    166.76540   4493.36425     68.67101
       2667.91440    168.70770   4483.54460     68.44065
       2668.06680    172.08830   4475.18171     70.19279
       2668.21920    169.55910   4516.72640     69.26973
       2668.37160    162.06030   4529.63718     67.04088
       2668.52400    162.89690   4538.27209     68.64733
       2668.67640    156.90780   4551.99892     67.57325
       2668.82880    152.91420   4536.90075     67.68358
