~VERSION INFORMATION 
VERS  .    2.0                                     :CWLS Log ASCII Standard - VERSION 2.0
WRAP  .    NO                                      :One Line per Depth step
PROD  .    Schlumberger Technology Corp.           :LAS Producer
PROG  .    Horizon LASWriter 13.0.221437.3100      :LAS Program name and version
SOURCE.    S1R1-Log[4]/Up                          :Run&Pass Information
CREA  .    07/28/2024                              :LAS Creation date {MM/DD/YYYY}
#--------------------------------------------------
~WELL INFORMATION 
#MNEM           .UNIT                      DATA            :DESCRIPTION
#----            ------          --------------            -----------------------------
STRT            .m                   1495.04400            :START DEPTH
STOP            .m                   2360.37120            :STOP DEPTH
STEP            .m                       0.1524            :STEP
NULL            .                       -999.25            :NULL VALUE
COMP            .                PT Pertamina EP           :COMPANY
WELL            .                BNG-059 (BNG-H1)          :WELL NAME
FLD             .                         Adera            :FIELD NAME
RIGN            .                                          :Rig Name
RIGTYP          .                          Land            :Rig Type
SON             .                A.1009322.17.2            :Service Order Number
SRVC            .                  Schlumberger            :SERVICE COMPANY
DATE            .                    07/28/2024            :LOG DATE(Composite Date for Composite LAP) (MM/DD/YYYY)
CLAB            .                     Rig Name:            :County Label
CNTY            .                South Sumatera            :COUNTY
SLAB            .                     Province:            :State/Province Label
STAT            .                 South Sumatra            :STATE or PROVINCE
PROV            .                 South Sumatra            :STATE or PROVINCE
CTRY            .                     Indonesia            :COUNTRY
CONT_REGION     .                          Asia            :Continent Region
SECT            .                                          :Section
TOWN            .                                          :Township
RANG            .                                          :Range
API             .                                          :API NUMBER
UWI             .                                          :UNIQUE WELL ID
LUL             .                      ING/IDPR            :Logging Unit Location
LUN             .                   OSLC-E 2349            :Logging Unit Number
LOC             .                         Adera            :FIELD LOCATION
FL1             .                X: 397,029.172            :Field Location Line 1
FL2             .                Y: 9,625,078.797          :Field Location Line 2
LATI            .deg             3° 23' 29.559" S          :LATITUDE
LONG            .deg             104° 4' 22.998" E         :LONGITUDE
PDAT            .                           MSL            :Local Permanent Datum
LMF             .                            DF            :Logging Measured From
APD             .m                        25.78            :Elevation of Depth Reference (LMF) Above Permanent Datum
EPD             .m                         0.00            :Elevation of Permanent Datum (PDAT) above Mean Sea Level
EKB             .m                        25.78            :Elevation of Kelly Bushing Above Permanent Datum
EDF             .m                        25.78            :Elevation of Drill Floor Above Permanent Datum
EGL             .m                        16.64            :Elevation of Ground Level Above Permanent Datum
ECF             .m                      -999.25            :Elevation of Casing Flange above Permanent Datum
#--------------------------------------------------
~CURVE INFORMATION
#MNEM           .UNIT                  API CODE            :DESCRIPTION
#----            ------          --------------            -----------------------------
DEPT            .m                                         :                                                        Depth Index
HTEN            .lbf                                       :        (LEH-QT)                (6in)                   Head Tension
GR_CAL          .gAPI                                      :        (SGT-N)                 (6in)                   Calibrated Gamma Ray
DT_BHC          .us/ft                                     :        (MAST-B)                (6in)                   1.5 Feet Span Borehole Compensated Slowness from Near Spacing
BS              .in                                        :(RT)    (Borehole)              (6in)                   Bit Size
#-------------------------------------------------------------
#            DEPT         HTEN       GR_CAL       DT_BHC           BS 
#                     (LEH-QT)      (SGT-N)     (MAST-B)   (Borehole) 
#                                                                (RT) 
#                        (6in)        (6in)        (6in)        (6in) 
~ASCII
# ...
       2108.45400    540.67877    104.20910     66.58447      8.50000
       2108.60640    536.48991     90.97453     72.75000      8.50000
       2108.75880    537.50537     77.42733     73.49999      8.50000
       2108.91120    546.68454     70.13271     85.75685      8.50000
       2109.06360    554.83229     60.23284     85.00000      8.50000
       2109.21600    561.87736     63.56753     86.83447      8.50000
       2109.36840    573.58720     66.14671     85.74999      8.50000
       2109.52080    582.06025     72.39925     87.25001      8.50000
       2109.67320    583.52803     69.89824     86.50001      8.50000
       2109.82560    553.15027     66.69380     89.25001      8.50000
       2109.97800    538.80656     62.60360     71.49998      8.50000
       2110.13040    538.86996     60.31100     79.25001      8.50000
       2110.28280    560.98869     60.18595     82.50726      8.50000
       2110.43520    558.64033     61.14988     54.98369      8.50000
       2110.58760    556.21667     61.98356     58.98944      8.50000
       2110.74000    555.49863     60.15469     80.95948      8.50000
       2110.89240    551.43678     58.27892     83.24999      8.50000
       2111.04480    548.42187     56.40316     81.74998      8.50000
       2111.19720    544.89956     59.21680     79.99659      8.50000
       2111.34960    564.32080     58.38313     80.83220      8.50000
       2111.50200    562.78581     59.45127     81.50001      8.50000
       2111.65440    560.67148     53.17268     80.20699      8.50000
       2111.80680    565.71709     51.92217     82.41554      8.50000
       2111.95920    562.54369     50.43719     83.41553      8.50000
       2112.11160    551.69059     52.31295     82.75000      8.50000
       2112.26400    554.89569     52.31295     81.33106      8.50000
       2112.41640    560.32235     58.48734     80.00000      8.50000
       2112.56880    557.91060     62.65570     80.00000      8.50000
       2112.72120    543.37625     70.36717     80.74999      8.50000
       2112.87360    536.58523     68.56957     80.75060      8.50000
       2113.02600    538.50892     65.86013     82.33447      8.50000
       2113.17840    542.23378     54.39713     82.41896      8.50000
       2113.33080    543.02713     49.39510     80.83320      8.50000
       2113.48320    545.50250     52.72979     83.32909      8.50000
       2113.63560    545.62951     56.89815     83.33448      8.50000
       2113.78800    546.35924     60.02443     81.83106      8.50000
       2113.94040    542.61460     60.10258     81.58447      8.50000
       2114.09280    537.60046     61.35309     60.91068      8.50000
       2114.24520    533.03100     58.43523     81.50001      8.50000
       2114.39760    536.36311     49.81194     77.75000      8.50000
       2114.55000    541.59914     43.40307     77.75000      8.50000
       2114.70240    548.70760     39.23472     81.66592      8.50000
       2114.85480    541.32937     38.19262     88.24841      8.50000
       2115.00720    538.90166     42.72572     75.50000      8.50000
       2115.15960    532.04723     53.48530    105.91666      8.50000
       2115.31200    532.11063     76.20288    130.25000      8.50000
       2115.46440    548.70760    108.09090    127.00001      8.50000
       2115.61680    539.47290    145.26740    116.49267      8.50000
       2115.76920    527.19181    176.32170    105.74999      8.50000
       2115.92160    528.11195    191.11940     91.49998      8.50000
       2116.07400    523.60588    195.44410     87.00001      8.50000
       2116.22640    524.81176    189.40000     85.99999      8.50000
       2116.37880    530.14310    187.73260     88.99937      8.50000
       2116.53120    530.72626    184.45000     87.58446      8.50000
       2116.68360    530.87283    178.82280     94.00002      8.50000
       2116.83600    533.15779    191.64050     93.33604      8.50000
       2116.98840    535.72825    198.72670     94.16552      8.50000
       2117.14080    533.31650    211.23180     94.07640      8.50000
       2117.29320    527.90580    194.24570     93.33150      8.50000
       2117.44560    532.49145    179.65640     99.91320      8.50000
       2117.59800    529.88907    167.98500     89.50062      8.50000
       2117.75040    526.90608    159.88280     80.25000      8.50000
       2117.90280    529.79397    155.50600     70.25000      8.50000
       2118.05520    533.18949    144.04300     65.25000      8.50000
       2118.20760    531.85659    134.01290     65.25000      8.50000
       2118.36000    531.66618    128.59400     64.25001      8.50000
       2118.51240    533.18949    129.21930     64.08679      8.50000
       2118.66480    535.98206    138.78040     62.50000      8.50000
       2118.81720    538.20363    149.20130     65.83448      8.50000
       2118.96960    544.10621    160.03910     69.99939      8.50000
       2119.12200    566.76448    163.81670     67.50000      8.50000
       2119.27440    558.68012    170.27760     66.50001      8.50000
       2119.42680    555.56225    174.65440     69.00001      8.50000
       2119.57920    556.73643    184.03320     69.75001      8.50000
       2119.73160    557.93039    191.24970     74.99939      8.50000
       2119.88400    560.32235    188.12340     78.74999      8.50000
       2120.03640    554.95931    184.16350     88.49999      8.50000
       2120.18880    561.28633    170.48600     91.74937      8.50000
       2120.34120    555.18142    151.52000     95.50061      8.50000
       2120.49360    553.15050    131.09500     95.83680      8.50000
       2120.64600    554.13404    108.66400     89.00002      8.50000
       2120.79840    569.36664     99.07678     75.75063      8.50000
       2120.95080    562.41667     86.98853     76.66552      8.50000
       2121.10320    567.08168     85.24302     78.49999      8.50000
       2121.25560    582.52831     96.28918     81.74998      8.50000
       2121.40800    574.69799    103.58380     76.58679      8.50000
       2121.56040    576.03088    107.43950     72.75000      8.50000
       2121.71280    559.14818    110.98270     70.91321      8.50000
       2121.86520    539.31441    125.78030     74.25001      8.50000
       2122.01760    546.32755    143.80850     73.24999      8.50000
       2122.17000    554.89569    152.35370     73.33384      8.50000
       2122.32240    555.78436    150.47790     71.49998      8.50000
       2122.47480    545.97842    143.93880     72.50000      8.50000
       2122.62720    547.43810    139.56200     70.83509      8.50000
       2122.77960    545.97055    135.39360     70.83509      8.50000
       2122.93200    542.93203    142.55800     68.33104      8.50000
       2123.08440    554.22936    155.47990     69.99939      8.50000
       2123.23680    551.39699    167.67240     71.75001      8.50000
       2123.38920    551.24637    173.29970    112.34166      8.50000
       2123.54160    552.76967    174.34180     98.35609      8.50000
       2123.69400    552.38884    170.06920     84.75001      8.50000
       2123.84640    548.54102    160.27350     98.24999      8.50000
       2123.99880    548.23168    161.68040    109.50001      8.50000
       2124.15120    553.97555    165.43190     94.41457      8.50000
       2124.30360    555.11803    167.93290     95.24814      8.50000
       2124.45600    554.61018    158.81460    104.50001      8.50000
       2124.60840    555.59395    165.06720    118.74999      8.50000
       2124.76080    552.28948    169.23550    111.50002      8.50000
       2124.91320    555.75266    176.73860     93.24999      8.50000
       2125.06560    556.32390    179.03120     79.25001      8.50000
       2125.21800    560.95699    176.73860     78.24938      8.50000
       2125.37040    557.65679    170.85080     83.49999      8.50000
       2125.52280    554.32467    147.50790     86.50001      8.50000
       2125.67520    566.14153    116.03680     96.25002      8.50000
       2125.82760    560.38575     84.61777    108.75002      8.50000
