~VERSION INFORMATION 
VERS  .    2.0                                     :CWLS Log ASCII Standard - VERSION 2.0
WRAP  .    NO                                      :One Line per Depth step
PROD  .    Schlumberger Technology Corp.           :LAS Producer
PROG  .    Horizon LASWriter 13.0.221437.3100      :LAS Program name and version
SOURCE.    S1R1-Log[3]/Up                          :Run&Pass Information
CREA  .    07/04/2024                              :LAS Creation date {MM/DD/YYYY}
#--------------------------------------------------
~WELL INFORMATION 
#MNEM           .UNIT                      DATA            :DESCRIPTION
#----            ------          --------------            -----------------------------
STRT            .m                   1718.15760            :START DEPTH
STOP            .m                   2673.85800            :STOP DEPTH
STEP            .m                       0.1524            :STEP
NULL            .                       -999.25            :NULL VALUE
COMP            .                PT Pertamina EP           :COMPANY
WELL            .                BNG-A4(BNG-058)           :WELL NAME
FLD             .                       Benuang            :FIELD NAME
RIGN            .                       Tiger-7            :Rig Name
RIGTYP          .                      Land Rig            :Rig Type
SON             .                A.1059389.01.02           :Service Order Number
SRVC            .                  Schlumberger            :SERVICE COMPANY
DATE            .                    07/04/2024            :LOG DATE(Composite Date for Composite LAP) (MM/DD/YYYY)
CLAB            .                     Rig Name:            :County Label
CNTY            .                       TIGER-7            :COUNTY
SLAB            .                     Province:            :State/Province Label
STAT            .                 South Sumatra            :STATE or PROVINCE
PROV            .                 South Sumatra            :STATE or PROVINCE
CTRY            .                     Indonesia            :COUNTRY
CONT_REGION     .                          Asia            :Continent Region
SECT            .                                          :Section
TOWN            .                                          :Township
RANG            .                                          :Range
API             .                                          :API NUMBER
UWI             .                                          :UNIQUE WELL ID
LUL             .                         IDPRA            :Logging Unit Location
LUN             .                   OSLC-A 2155            :Logging Unit Number
LOC             .                         Adera            :FIELD LOCATION
FL1             .                X: 387.623,270 mE         :Field Location Line 1
FL2             .                Y: 9.630.308,141 mN       :Field Location Line 2
LATI            .deg             3° 20' 38.96" S           :LATITUDE
LONG            .deg             103° 59' 18.38" E         :LONGITUDE
PDAT            .                           MSL            :Local Permanent Datum
LMF             .                            DF            :Logging Measured From
APD             .m                        44.63            :Elevation of Depth Reference (LMF) Above Permanent Datum
EPD             .m                         0.00            :Elevation of Permanent Datum (PDAT) above Mean Sea Level
EKB             .m                        44.63            :Elevation of Kelly Bushing Above Permanent Datum
EDF             .m                        44.63            :Elevation of Drill Floor Above Permanent Datum
EGL             .m                        34.03            :Elevation of Ground Level Above Permanent Datum
ECF             .m                      -999.25            :Elevation of Casing Flange above Permanent Datum
#--------------------------------------------------
~CURVE INFORMATION
#MNEM           .UNIT                  API CODE            :DESCRIPTION
#----            ------          --------------            -----------------------------
DEPT            .m                                         :                                                        Depth Index
TENS            .lbf                                       :        (WLWorkflow)            (1in)                   Cable Tension
BS              .in                                        :(RT)    (Borehole)              (6in)                   Bit Size
GR_CAL          .gAPI                                      :        (EDTC-B)                (6in)                   Calibrated Gamma Ray
DT              .us/ft                                     :        (ASLT-B)                (6in)                   Delta-T (also called Slowness or Interval Transit Time)
#-------------------------------------------------------------
#            DEPT         TENS           BS       GR_CAL           DT 
#                  (WLWorkflo)   (Borehole)     (EDTC-B)     (ASLT-B) 
#                                      (RT)                           
#                        (1in)        (6in)        (6in)        (6in) 
~ASCII
# ...
       2471.77560   3090.50025      8.50000    150.83350     72.60741
       2471.92800   3095.99907      8.50000    158.35800     71.47459
       2472.08040   3099.00027      8.50000    156.09810     70.73244
       2472.23280   3151.49991      8.50000    156.71230     70.65429
       2472.38520   3269.00080      8.50000    157.62070     70.59570
       2472.53760   3230.50002      8.50000    158.07190     69.63866
       2472.69000   3138.49920      8.50000    156.58630     68.86718
       2472.84240   3172.00023      8.50000    159.00240     69.45313
       2472.99480   3111.49965      8.50000    158.25460     70.11720
       2473.14720   3146.00108      8.50000    159.78170     70.27344
       2473.29960   3138.00013      8.50000    146.95880     70.52734
       2473.45200   3134.99893      8.50000    142.72380     69.93164
       2473.60440   3185.99909      8.50000    145.12360     69.28711
       2473.75680   3135.99933      8.50000    150.10300     68.95509
       2473.90920   3117.00073      8.50000    154.95290     68.49609
       2474.06160   3142.99988      8.50000    157.86520     68.68165
       2474.21400   3116.00033      8.50000    163.56760     69.18945
       2474.36640   3117.00073      8.50000    164.49070     69.55079
       2474.51880   3150.00043      8.50000    164.77580     69.95117
       2474.67120   3112.00097      8.50000    157.70820     70.24415
       2474.82360   3147.99963      8.50000    159.38000     70.83985
       2474.97600   3167.00048      8.50000    153.94730     71.51367
       2475.12840   3156.49966      8.50000    156.32940     71.79686
       2475.28080   3174.00103      8.50000    151.10340     71.88476
       2475.43320   3131.50090      8.50000    151.87970     71.81640
       2475.58560   3161.00033      8.50000    145.38410     71.54296
       2475.73800   3159.99993      8.50000    152.83020     71.29882
       2475.89040   3117.00073      8.50000    157.03200     71.43555
       2476.04280   3191.00108      8.50000    158.43490     71.08399
       2476.19520   3183.49921      8.50000    153.33530     70.23436
       2476.34760   3161.00033      8.50000    157.98030     70.30273
       2476.50000   3181.99973      8.50000    165.05350     71.53321
       2476.65240   3157.99913      8.50000    168.85860     72.33398
       2476.80480   3190.00069      8.50000    158.22280     72.66603
       2476.95720   3217.00024      8.50000    155.05700     73.28124
       2477.10960   3157.99913      8.50000    157.82910     72.91993
       2477.26200   3201.00059      8.50000    161.30650     71.96288
       2477.41440   3214.99944      8.50000    168.40910     71.50392
       2477.56680   3166.00008      8.50000    160.55820     71.36718
       2477.71920   3230.00094      8.50000    158.67340     71.22070
       2477.87160   3198.99979      8.50000    154.15250     71.30860
       2478.02400   3180.99933      8.50000    158.05510     71.74806
       2478.17640   3163.99928      8.50000    163.26880     71.39647
       2478.32880   3146.99923      8.50000    161.50720     70.30273
       2478.48120   3129.50010      8.50000    159.38220     70.24415
       2478.63360   3156.00058      8.50000    161.81370     71.42577
       2478.78600   3107.50030      8.50000    172.04840     73.36914
       2478.93840   3147.99963      8.50000    180.76440     76.99218
       2479.09080   3145.00068      8.50000    181.25650     80.55663
       2479.24320   3146.99923      8.50000    176.69670     80.92772
       2479.39560   3169.99943      8.50000    183.63310     79.35547
       2479.54800   3151.99898      8.50000    192.23200     79.53125
       2479.70040   3164.99968      8.50000    195.34840     81.68945
       2479.85280   3181.50066      8.50000    193.05110     82.65624
       2480.00520   3146.99923      8.50000    189.52920     82.11912
       2480.15760   3159.50086      8.50000    196.56300     81.89452
       2480.31000   3175.99958      8.50000    193.75850     81.42580
       2480.46240   3171.50116      8.50000    190.03970     79.71681
       2480.61480   3198.50071      8.50000    179.63420     78.59375
       2480.76720   3183.00013      8.50000    169.15610     77.95900
       2480.91960   3154.50110      8.50000    163.88930     74.72657
       2481.07200   3191.00108      8.50000    165.62100     70.65429
       2481.22440   3160.50126      8.50000    169.08400     68.99413
       2481.37680   3189.00029      8.50000    170.77960     69.29689
       2481.52920   3198.50071      8.50000    169.26450     69.77540
       2481.68160   3176.50091      8.50000    169.33450     69.56054
       2481.83400   3176.99998      8.50000    171.00930     69.37501
       2481.98640   3159.99993      8.50000    165.70130     69.77540
       2482.13880   3112.00097      8.50000    160.68520     69.64845
       2482.29120   3161.00033      8.50000    153.53300     68.82814
       2482.44360   3119.99968      8.50000    151.51520     68.34960
       2482.59600   3124.99943      8.50000    158.55050     68.31056
       2482.74840   3167.00048      8.50000    156.66280     69.04296
       2482.90080   3145.00068      8.50000    159.83790     70.15624
       2483.05320   3150.49951      8.50000    152.35940     70.26368
       2483.20560   3157.99913      8.50000    159.02270     69.20899
       2483.35800   3139.49960      8.50000    162.96970     69.04296
       2483.51040   3123.99903      8.50000    166.46290     69.65820
       2483.66280   3139.49960      8.50000    163.29790     69.37501
       2483.81520   3090.99932      8.50000    153.54320     68.71094
       2483.96760   3140.99908      8.50000    146.06050     68.78906
       2484.12000   3100.00067      8.50000    138.65410     69.16016
       2484.27240   3146.99923      8.50000    143.71050     68.39843
       2484.42480   3186.99949      8.50000    152.04710     68.05663
       2484.57720   3178.00038      8.50000    159.03560     68.51563
       2484.72960   3150.49951      8.50000    157.95790     68.38868
       2484.88200   3157.99913      8.50000    153.97740     67.28515
       2485.03440   3131.99998      8.50000    149.62260     66.22070
       2485.18680   3177.49906      8.50000    145.93160     67.78319
       2485.33920   3135.99933      8.50000    148.68140     70.00000
       2485.49160   3140.99908      8.50000    154.65590     69.99025
       2485.64400   3182.49881      8.50000    156.92000     69.34569
       2485.79640   3129.00103      8.50000    156.80480     69.49217
       2485.94880   3181.99973      8.50000    148.57970     70.69336
       2486.10120   3191.00108      8.50000    154.75150     71.32814
       2486.25360   3151.99898      8.50000    150.34380     70.60546
       2486.40600   3164.50061      8.50000    150.89150     69.62891
       2486.55840   3145.00068      8.50000    150.39320     68.91601
       2486.71080   3138.49920      8.50000    147.51720     69.17969
       2486.86320   3139.00053      8.50000    132.44560     71.78711
       2487.01560   3104.00002      8.50000    114.77160     73.73048
       2487.16800   3122.00048      8.50000    110.78360     72.23632
       2487.32040   3147.99963      8.50000    117.73420     69.91210
       2487.47280   3108.50070      8.50000    121.71540     69.12108
       2487.62520   3141.99948      8.50000    113.43080     71.02538
       2487.77760   3152.99938      8.50000    103.27770     73.66211
       2487.93000   3119.99968      8.50000     90.25223     75.12695
       2488.08240   3153.99978      8.50000     86.57873     73.72070
       2488.23480   3137.49880      8.50000     91.20232     71.56250
       2488.38720   3138.00013      8.50000    109.50000     71.00587
       2488.53960   3153.99978      8.50000    121.13530     70.90821
       2488.69200   3119.99968      8.50000    118.66250     71.89455
       2488.84440   3140.99908      8.50000    111.66890     72.58788
       2488.99680   3179.49986      8.50000    107.96520     72.36327
       2489.14920   3140.99908      8.50000    115.17980     71.84569
