~VERSION INFORMATION 
VERS  .    2.0                                     :CWLS Log ASCII Standard - VERSION 2.0
WRAP  .    NO                                      :One Line per Depth step
PROD  .    Schlumberger Technology Corp.           :LAS Producer
PROG  .    Horizon LASWriter 13.0.221437.3100      :LAS Program name and version
SOURCE.    S1R1-Log[3]/Up                          :Run&Pass Information
CREA  .    07/04/2024                              :LAS Creation date {MM/DD/YYYY}
#--------------------------------------------------
~WELL INFORMATION 
#MNEM           .UNIT                      DATA            :DESCRIPTION
#----            ------          --------------            -----------------------------
STRT            .m                   1718.15760            :START DEPTH
STOP            .m                   2673.85800            :STOP DEPTH
STEP            .m                       0.1524            :STEP
NULL            .                       -999.25            :NULL VALUE
COMP            .                PT Pertamina EP           :COMPANY
WELL            .                BNG-A4(BNG-058)           :WELL NAME
FLD             .                       Benuang            :FIELD NAME
RIGN            .                       Tiger-7            :Rig Name
RIGTYP          .                      Land Rig            :Rig Type
SON             .                A.1059389.01.02           :Service Order Number
SRVC            .                  Schlumberger            :SERVICE COMPANY
DATE            .                    07/04/2024            :LOG DATE(Composite Date for Composite LAP) (MM/DD/YYYY)
CLAB            .                     Rig Name:            :County Label
CNTY            .                       TIGER-7            :COUNTY
SLAB            .                     Province:            :State/Province Label
STAT            .                 South Sumatra            :STATE or PROVINCE
PROV            .                 South Sumatra            :STATE or PROVINCE
CTRY            .                     Indonesia            :COUNTRY
CONT_REGION     .                          Asia            :Continent Region
SECT            .                                          :Section
TOWN            .                                          :Township
RANG            .                                          :Range
API             .                                          :API NUMBER
UWI             .                                          :UNIQUE WELL ID
LUL             .                         IDPRA            :Logging Unit Location
LUN             .                   OSLC-A 2155            :Logging Unit Number
LOC             .                         Adera            :FIELD LOCATION
FL1             .                X: 387.623,270 mE         :Field Location Line 1
FL2             .                Y: 9.630.308,141 mN       :Field Location Line 2
LATI            .deg             3° 20' 38.96" S           :LATITUDE
LONG            .deg             103° 59' 18.38" E         :LONGITUDE
PDAT            .                           MSL            :Local Permanent Datum
LMF             .                            DF            :Logging Measured From
APD             .m                        44.63            :Elevation of Depth Reference (LMF) Above Permanent Datum
EPD             .m                         0.00            :Elevation of Permanent Datum (PDAT) above Mean Sea Level
EKB             .m                        44.63            :Elevation of Kelly Bushing Above Permanent Datum
EDF             .m                        44.63            :Elevation of Drill Floor Above Permanent Datum
EGL             .m                        34.03            :Elevation of Ground Level Above Permanent Datum
ECF             .m                      -999.25            :Elevation of Casing Flange above Permanent Datum
#--------------------------------------------------
~CURVE INFORMATION
#MNEM           .UNIT                  API CODE            :DESCRIPTION
#----            ------          --------------            -----------------------------
DEPT            .m                                         :                                                        Depth Index
TENS            .lbf                                       :        (WLWorkflow)            (1in)                   Cable Tension
BS              .in                                        :(RT)    (Borehole)              (6in)                   Bit Size
GR_CAL          .gAPI                                      :        (EDTC-B)                (6in)                   Calibrated Gamma Ray
DT              .us/ft                                     :        (ASLT-B)                (6in)                   Delta-T (also called Slowness or Interval Transit Time)
#-------------------------------------------------------------
#            DEPT         TENS           BS       GR_CAL           DT 
#                  (WLWorkflo)   (Borehole)     (EDTC-B)     (ASLT-B) 
#                                      (RT)                           
#                        (1in)        (6in)        (6in)        (6in) 
~ASCII
# ...
       1963.52160   2555.49992      8.50000    139.97030     71.63087
       1963.67400   2559.00020      8.50000    136.99960     72.47071
       1963.82640   2520.00034      8.50000    141.26940     72.97851
       1963.97880   2549.00070      8.50000    139.79320     74.06250
       1964.13120   2536.00000      8.50000    137.00720     73.07617
       1964.28360   2545.99950      8.50000    135.77830     72.05079
       1964.43600   2578.99920      8.50000    134.67700     72.52929
       1964.58840   2532.00065      8.50000    123.16310     73.91601
       1964.74080   2518.99994      8.50000    118.42060     76.94335
       1964.89320   2500.99949      8.50000    125.89630     78.65233
       1965.04560   2495.99974      8.50000    132.59390     77.65624
       1965.19800   2540.99975      8.50000    130.47050     77.73436
       1965.35040   2525.00009      8.50000    108.87070     79.37501
       1965.50280   2532.00065      8.50000     96.79611     79.39452
       1965.65520   2549.00070      8.50000     98.31945     78.31056
       1965.80760   2533.99920      8.50000    110.98760     78.18358
       1965.96000   2549.99885      8.50000    114.96500     80.00976
       1966.11240   2583.00080      8.50000     98.89186     82.26561
       1966.26480   2532.00065      8.50000     80.03764     81.92384
       1966.41720   2565.00035      8.50000     71.39474     81.53321
       1966.56960   2589.50003      8.50000     63.02595     82.96875
       1966.72200   2555.99900      8.50000     59.49639     84.05271
       1966.87440   2595.50018      8.50000     56.91634     85.55663
       1967.02680   2544.00095      8.50000     74.66586     87.14845
       1967.17920   2538.00080      8.50000    106.80430     85.36134
       1967.33160   2588.00055      8.50000    144.20840     80.32227
       1967.48400   2613.50063      8.50000    166.55730     76.70899
       1967.63640   2565.49943      8.50000    171.19130     76.00587
       1967.78880   2576.00025      8.50000    167.20830     76.35743
       1967.94120   2543.49962      8.50000    172.32990     76.54296
       1968.09360   2542.00015      8.50000    175.64380     77.24610
       1968.24600   2536.00000      8.50000    187.32100     79.24806
       1968.39840   2532.49972      8.50000    191.16610     80.96680
       1968.55080   2562.99955      8.50000    202.38080     81.89452
       1968.70320   2529.99985      8.50000    198.12320     81.31835
       1968.85560   2490.99999      8.50000    197.74950     81.20119
       1969.00800   2555.99900      8.50000    189.76150     83.43751
       1969.16040   2486.00024      8.50000    188.45950     83.90626
       1969.31280   2590.99950      8.50000    185.43250     82.63674
       1969.46520   2550.99925      8.50000    162.97400     89.05275
       1969.61760   2521.00074      8.50000    140.24490    110.34181
       1969.77000   2576.00025      8.50000    127.84230    117.32423
       1969.92240   2562.99955      8.50000    131.76970     97.23632
       1970.07480   2539.50027      8.50000    134.21180     81.45509
       1970.22720   2544.99910      8.50000    136.69830     77.74415
       1970.37960   2533.00105      8.50000    139.87090     73.52538
       1970.53200   2539.00120      8.50000    158.60300     69.99025
       1970.68440   2516.99914      8.50000    162.31240     70.21486
       1970.83680   2543.49962      8.50000    162.04490     70.71290
       1970.98920   2555.00085      8.50000    146.25670     70.21486
       1971.14160   2556.50032      8.50000    138.00160     70.32227
       1971.29400   2544.99910      8.50000    135.42340     76.69923
       1971.44640   2574.50078      8.50000    132.32180     81.37694
       1971.59880   2525.00009      8.50000    129.09470     77.72461
       1971.75120   2556.99940      8.50000    131.71880     72.98829
       1971.90360   2582.49948      8.50000    143.63140     70.59570
       1972.05600   2507.50097      8.50000    145.92860     70.64453
       1972.20840   2513.50112      8.50000    152.50650     71.42577
       1972.36080   2527.00089      8.50000    154.12670     71.74806
       1972.51320   2494.99934      8.50000    161.53290     72.47071
       1972.66560   2533.99920      8.50000    160.85380     73.96484
       1972.81800   2527.99905      8.50000    168.30600     75.99609
       1972.97040   2525.00009      8.50000    174.15790     79.08204
       1973.12280   2536.49907      8.50000    185.19690     83.55467
       1973.27520   2536.00000      8.50000    190.63740     86.86523
       1973.42760   2526.49957      8.50000    189.19010     88.35939
       1973.58000   2571.00050      8.50000    178.92990     90.24415
       1973.73240   2520.00034      8.50000    162.67530     86.89452
       1973.88480   2539.00120      8.50000    160.89710     80.43946
       1974.03720   2487.49971      8.50000    160.49910     80.43946
       1974.18960   2510.49992      8.50000    150.40260     97.67578
       1974.34200   2566.99890      8.50000    135.48130    113.40822
       1974.49440   2553.00005      8.50000    128.86020    101.23048
       1974.64680   2587.00015      8.50000    141.42890     80.68361
       1974.79920   2607.99956      8.50000    155.73070     69.95117
       1974.95160   2540.99975      8.50000    163.11530     65.87889
       1975.10400   2573.99945      8.50000    165.04640     67.66603
       1975.25640   2587.00015      8.50000    175.42410     71.51367
       1975.40880   2574.50078      8.50000    188.30240     72.50000
       1975.56120   2574.99985      8.50000    197.18010     72.29493
       1975.71360   2517.99954      8.50000    189.30220     71.09375
       1975.86600   2506.99964      8.50000    187.46190     71.74806
       1976.01840   2545.99950      8.50000    187.53580     73.45704
       1976.17080   2511.50032      8.50000    190.26980     73.68165
       1976.32320   2532.00065      8.50000    183.73080     72.33398
       1976.47560   2565.49943      8.50000    183.81810     70.90821
       1976.62800   2571.00050      8.50000    177.64870     71.36718
       1976.78040   2555.99900      8.50000    172.90920     73.22265
       1976.93280   2536.00000      8.50000    164.06930     76.95313
       1977.08520   2488.00104      8.50000    165.71840     80.99609
       1977.23760   2582.49948      8.50000    150.61190     87.82227
       1977.39000   2705.00012      8.50000    127.05930    105.50780
       1977.54240   2634.00096      8.50000     95.44314    120.22461
       1977.69480   2567.99930      8.50000     80.38492    100.28319
       1977.84720   2545.99950      8.50000     69.20644     72.92968
       1977.99960   2652.99956      8.50000     64.23234     67.82227
       1978.15200   2695.49969      8.50000     77.93535     69.91210
       1978.30440   2606.99916      8.50000     92.51160     75.64453
       1978.45680   2606.00101      8.50000    109.52820     80.15624
       1978.60920   2567.50023      8.50000    114.66310     79.34572
       1978.76160   2566.99890      8.50000    122.96160     76.53321
       1978.91400   2563.50087      8.50000    136.07680     75.57617
       1979.06640   2557.99980      8.50000    141.61360     75.69336
       1979.21880   2571.00050      8.50000    147.59620     75.74219
       1979.37120   2577.49973      8.50000    141.68350     75.26368
       1979.52360   2527.99905      8.50000    141.87180     75.63478
       1979.67600   2542.00015      8.50000    144.77280     77.31444
       1979.82840   2556.99940      8.50000    152.08450     76.93359
       1979.98080   2566.99890      8.50000    157.37850     75.39063
       1980.13320   2583.49988      8.50000    158.16780     75.53712
       1980.28560   2566.00075      8.50000    166.65820     75.13674
       1980.43800   2578.00105      8.50000    169.25440     73.84765
       1980.59040   2581.00000      8.50000    169.19510     74.77540
       1980.74280   2540.99975      8.50000    164.45080     76.10353
       1980.89520   2553.00005      8.50000    167.57840     75.77148
