~VERSION INFORMATION 
VERS  .    2.0                                     :CWLS Log ASCII Standard - VERSION 2.0
WRAP  .    NO                                      :One Line per Depth step
PROD  .    Schlumberger Technology Corp.           :LAS Producer
PROG  .    Horizon LASWriter 13.0.221437.3100      :LAS Program name and version
SOURCE.    S1R1-Log[3]/Up                          :Run&Pass Information
CREA  .    07/04/2024                              :LAS Creation date {MM/DD/YYYY}
#--------------------------------------------------
~WELL INFORMATION 
#MNEM           .UNIT                      DATA            :DESCRIPTION
#----            ------          --------------            -----------------------------
STRT            .m                   1718.15760            :START DEPTH
STOP            .m                   2673.85800            :STOP DEPTH
STEP            .m                       0.1524            :STEP
NULL            .                       -999.25            :NULL VALUE
COMP            .                PT Pertamina EP           :COMPANY
WELL            .                BNG-A4(BNG-058)           :WELL NAME
FLD             .                       Benuang            :FIELD NAME
RIGN            .                       Tiger-7            :Rig Name
RIGTYP          .                      Land Rig            :Rig Type
SON             .                A.1059389.01.02           :Service Order Number
SRVC            .                  Schlumberger            :SERVICE COMPANY
DATE            .                    07/04/2024            :LOG DATE(Composite Date for Composite LAP) (MM/DD/YYYY)
CLAB            .                     Rig Name:            :County Label
CNTY            .                       TIGER-7            :COUNTY
SLAB            .                     Province:            :State/Province Label
STAT            .                 South Sumatra            :STATE or PROVINCE
PROV            .                 South Sumatra            :STATE or PROVINCE
CTRY            .                     Indonesia            :COUNTRY
CONT_REGION     .                          Asia            :Continent Region
SECT            .                                          :Section
TOWN            .                                          :Township
RANG            .                                          :Range
API             .                                          :API NUMBER
UWI             .                                          :UNIQUE WELL ID
LUL             .                         IDPRA            :Logging Unit Location
LUN             .                   OSLC-A 2155            :Logging Unit Number
LOC             .                         Adera            :FIELD LOCATION
FL1             .                X: 387.623,270 mE         :Field Location Line 1
FL2             .                Y: 9.630.308,141 mN       :Field Location Line 2
LATI            .deg             3° 20' 38.96" S           :LATITUDE
LONG            .deg             103° 59' 18.38" E         :LONGITUDE
PDAT            .                           MSL            :Local Permanent Datum
LMF             .                            DF            :Logging Measured From
APD             .m                        44.63            :Elevation of Depth Reference (LMF) Above Permanent Datum
EPD             .m                         0.00            :Elevation of Permanent Datum (PDAT) above Mean Sea Level
EKB             .m                        44.63            :Elevation of Kelly Bushing Above Permanent Datum
EDF             .m                        44.63            :Elevation of Drill Floor Above Permanent Datum
EGL             .m                        34.03            :Elevation of Ground Level Above Permanent Datum
ECF             .m                      -999.25            :Elevation of Casing Flange above Permanent Datum
#--------------------------------------------------
~CURVE INFORMATION
#MNEM           .UNIT                  API CODE            :DESCRIPTION
#----            ------          --------------            -----------------------------
DEPT            .m                                         :                                                        Depth Index
TENS            .lbf                                       :        (WLWorkflow)            (1in)                   Cable Tension
BS              .in                                        :(RT)    (Borehole)              (6in)                   Bit Size
GR_CAL          .gAPI                                      :        (EDTC-B)                (6in)                   Calibrated Gamma Ray
DT              .us/ft                                     :        (ASLT-B)                (6in)                   Delta-T (also called Slowness or Interval Transit Time)
#-------------------------------------------------------------
#            DEPT         TENS           BS       GR_CAL           DT 
#                  (WLWorkflo)   (Borehole)     (EDTC-B)     (ASLT-B) 
#                                      (RT)                           
#                        (1in)        (6in)        (6in)        (6in) 
~ASCII
# ...
       1910.94360   2550.99925      8.50000    185.73010     88.85743
       1911.09600   2510.99899      8.50000    188.53370     88.33006
       1911.24840   2566.99890      8.50000    185.09180     87.54883
       1911.40080   2449.00118      8.50000    186.16420     87.22657
       1911.55320   2516.00099      8.50000    177.91790     87.48047
       1911.70560   2509.00044      8.50000    181.52720     88.00780
       1911.85800   2568.99970      8.50000    182.26330     88.72070
       1912.01040   2612.00116      8.50000    192.37430     90.12695
       1912.16280   2471.99914      8.50000    197.22270     90.69336
       1912.31520   2517.99954      8.50000    191.68330     90.10741
       1912.46760   2532.00065      8.50000    178.34030     89.97071
       1912.62000   2512.50072      8.50000    175.91590     84.77540
       1912.77240   2521.00074      8.50000    178.46550     90.21486
       1912.92480   2532.49972      8.50000    182.06030    101.23048
       1913.07720   2454.00093      8.50000    181.24700     92.56837
       1913.22960   2477.99929      8.50000    181.36130     86.50392
       1913.38200   2471.50006      8.50000    159.50390     92.32422
       1913.53440   2516.50007      8.50000    135.12420     91.20116
       1913.68680   2565.00035      8.50000    106.31310     82.27540
       1913.83920   2456.99989      8.50000     98.98829     75.63478
       1913.99160   2492.49947      8.50000     88.23898     71.89455
       1914.14400   2488.99919      8.50000     80.30510     69.64845
       1914.29640   2486.00024      8.50000     74.96217     70.18553
       1914.44880   2494.00119      8.50000     72.71661     70.70311
       1914.60120   2485.49892      8.50000     82.87080     70.60546
       1914.75360   2475.49941      8.50000    101.99600     71.38672
       1914.90600   2480.49916      8.50000    133.36070     73.64258
       1915.05840   2477.99929      8.50000    150.66910     75.59570
       1915.21080   2466.99939      8.50000    155.60150     75.06837
       1915.36320   2506.99964      8.50000    151.41620     74.42384
       1915.51560   2462.50096      8.50000    153.41430     76.00587
       1915.66800   2497.00014      8.50000    155.38360     77.30469
       1915.82040   2546.99990      8.50000    158.24770     77.77344
       1915.97280   2527.00089      8.50000    162.66220     78.86718
       1916.12520   2494.99934      8.50000    172.75650     80.34181
       1916.27760   2523.99969      8.50000    186.37390     81.34765
       1916.43000   2488.99919      8.50000    192.94360     81.45509
       1916.58240   2540.50067      8.50000    186.93210     80.77148
       1916.73480   2543.00055      8.50000    172.13040     79.39452
       1916.88720   2499.00094      8.50000    162.51490     78.21290
       1917.03960   2525.00009      8.50000    172.12800     77.87110
       1917.19200   2551.99965      8.50000    179.68730     78.64258
       1917.34440   2548.00030      8.50000    181.23350     79.59962
       1917.49680   2543.49962      8.50000    177.28100     80.65429
       1917.64920   2504.00069      8.50000    178.90180     81.02538
       1917.80160   2551.99965      8.50000    177.36820     80.32227
       1917.95400   2549.99885      8.50000    174.68730     80.04883
       1918.10640   2495.99974      8.50000    168.18820     80.56641
       1918.25880   2510.99899      8.50000    176.31320     81.18165
       1918.41120   2516.50007      8.50000    172.51440     81.11328
       1918.56360   2482.99904      8.50000    178.54410     80.90822
       1918.71600   2504.99884      8.50000    184.16660     81.41601
       1918.86840   2483.99944      8.50000    191.62790     82.18749
       1919.02080   2495.50067      8.50000    190.17780     81.67969
       1919.17320   2516.99914      8.50000    185.38420     80.75194
       1919.32560   2465.00084      8.50000    188.50090     80.22461
       1919.47800   2477.99929      8.50000    190.06820     80.24415
       1919.63040   2521.00074      8.50000    185.21520     81.40626
       1919.78280   2494.99934      8.50000    172.28060     81.98242
       1919.93520   2511.99939      8.50000    163.90390     81.46484
       1920.08760   2488.50011      8.50000    171.16320     81.19140
       1920.24000   2488.99919      8.50000    190.73010     81.22070
       1920.39240   2517.99954      8.50000    204.11180     82.24610
       1920.54480   2473.99994      8.50000    202.08280     83.98438
       1920.69720   2516.00099      8.50000    186.40550     84.91210
       1920.84960   2508.00004      8.50000    181.31150     85.02929
       1921.00200   2484.99984      8.50000    176.44800     84.94142
       1921.15440   2495.50067      8.50000    180.64690     84.76561
       1921.30680   2493.00079      8.50000    182.77480     85.45900
       1921.45920   2478.99969      8.50000    184.62430     86.05470
       1921.61160   2509.00044      8.50000    185.98870     85.28319
       1921.76400   2480.00009      8.50000    191.27520     84.62891
       1921.91640   2484.99984      8.50000    197.77710     84.53125
       1922.06880   2497.00014      8.50000    201.63900     83.59375
       1922.22120   2475.00034      8.50000    201.06880     82.62695
       1922.37360   2501.50082      8.50000    197.84790     88.32031
       1922.52600   2497.00014      8.50000    190.72830    103.59375
       1922.67840   2465.99899      8.50000    172.58830    117.50976
       1922.83080   2505.99924      8.50000    156.22130    106.90430
       1922.98320   2486.00024      8.50000    145.90620     80.93751
       1923.13560   2494.50027      8.50000    143.40410     69.70703
       1923.28800   2503.00029      8.50000    144.40320     70.10741
       1923.44040   2470.00059      8.50000    144.97570     70.66407
       1923.59280   2472.99954      8.50000    140.53560     70.81056
       1923.74520   2480.00009      8.50000    136.67480     71.11328
       1923.89760   2460.99924      8.50000    124.21820     71.52345
       1924.05000   2504.00069      8.50000    120.33730     71.75781
       1924.20240   2494.99934      8.50000    114.21890     71.98242
       1924.35480   2533.99920      8.50000    118.91500     72.03125
       1924.50720   2527.00089      8.50000    122.23910     71.66016
       1924.65960   2534.99960      8.50000    120.87730     71.95313
       1924.81200   2518.99994      8.50000    114.39910     72.80273
       1924.96440   2533.00105      8.50000    110.22850     73.30077
       1925.11680   2483.99944      8.50000    122.51570     73.61328
       1925.26920   2495.99974      8.50000    143.21730     73.78906
       1925.42160   2479.50101      8.50000    161.34460     74.16016
       1925.57400   2461.99964      8.50000    173.49130     76.18165
       1925.72640   2534.99960      8.50000    172.29560     78.67187
       1925.87880   2543.00055      8.50000    176.79050     80.16603
       1926.03120   2475.00034      8.50000    174.85150     81.43555
       1926.18360   2551.99965      8.50000    179.07320     82.88085
       1926.33600   2513.50112      8.50000    176.71730     82.65624
       1926.48840   2532.00065      8.50000    175.25180     79.24806
       1926.64080   2572.00090      8.50000    172.34010     76.66016
       1926.79320   2532.49972      8.50000    172.86890     80.37110
       1926.94560   2533.50012      8.50000    174.81360     85.82031
       1927.09800   2495.50067      8.50000    179.33640     89.73632
       1927.25040   2515.00059      8.50000    179.13710     92.23632
       1927.40280   2553.00005      8.50000    171.00830     91.32814
       1927.55520   2548.00030      8.50000    169.52410     93.81835
       1927.70760   2554.49952      8.50000    162.25540    107.17774
       1927.86000   2540.99975      8.50000    182.84670    111.79689
       1928.01240   2533.50012      8.50000    198.93460     95.36134
       1928.16480   2549.99885      8.50000    222.56410     83.78906
       1928.31720   2561.00100      8.50000    218.91850     85.64453
