~VERSION INFORMATION 
VERS  .    2.0                                     :CWLS Log ASCII Standard - VERSION 2.0
WRAP  .    NO                                      :One Line per Depth step
PROD  .    Schlumberger Technology Corp.           :LAS Producer
PROG  .    Horizon LASWriter 13.0.221437.3100      :LAS Program name and version
SOURCE.    S1R1-Log[4]/Up                          :Run&Pass Information
CREA  .    07/28/2024                              :LAS Creation date {MM/DD/YYYY}
#--------------------------------------------------
~WELL INFORMATION 
#MNEM           .UNIT                      DATA            :DESCRIPTION
#----            ------          --------------            -----------------------------
STRT            .m                   1495.04400            :START DEPTH
STOP            .m                   2360.37120            :STOP DEPTH
STEP            .m                       0.1524            :STEP
NULL            .                       -999.25            :NULL VALUE
COMP            .                PT Pertamina EP           :COMPANY
WELL            .                BNG-059 (BNG-H1)          :WELL NAME
FLD             .                         Adera            :FIELD NAME
RIGN            .                                          :Rig Name
RIGTYP          .                          Land            :Rig Type
SON             .                A.1009322.17.2            :Service Order Number
SRVC            .                  Schlumberger            :SERVICE COMPANY
DATE            .                    07/28/2024            :LOG DATE(Composite Date for Composite LAP) (MM/DD/YYYY)
CLAB            .                     Rig Name:            :County Label
CNTY            .                South Sumatera            :COUNTY
SLAB            .                     Province:            :State/Province Label
STAT            .                 South Sumatra            :STATE or PROVINCE
PROV            .                 South Sumatra            :STATE or PROVINCE
CTRY            .                     Indonesia            :COUNTRY
CONT_REGION     .                          Asia            :Continent Region
SECT            .                                          :Section
TOWN            .                                          :Township
RANG            .                                          :Range
API             .                                          :API NUMBER
UWI             .                                          :UNIQUE WELL ID
LUL             .                      ING/IDPR            :Logging Unit Location
LUN             .                   OSLC-E 2349            :Logging Unit Number
LOC             .                         Adera            :FIELD LOCATION
FL1             .                X: 397,029.172            :Field Location Line 1
FL2             .                Y: 9,625,078.797          :Field Location Line 2
LATI            .deg             3° 23' 29.559" S          :LATITUDE
LONG            .deg             104° 4' 22.998" E         :LONGITUDE
PDAT            .                           MSL            :Local Permanent Datum
LMF             .                            DF            :Logging Measured From
APD             .m                        25.78            :Elevation of Depth Reference (LMF) Above Permanent Datum
EPD             .m                         0.00            :Elevation of Permanent Datum (PDAT) above Mean Sea Level
EKB             .m                        25.78            :Elevation of Kelly Bushing Above Permanent Datum
EDF             .m                        25.78            :Elevation of Drill Floor Above Permanent Datum
EGL             .m                        16.64            :Elevation of Ground Level Above Permanent Datum
ECF             .m                      -999.25            :Elevation of Casing Flange above Permanent Datum
#--------------------------------------------------
~CURVE INFORMATION
#MNEM           .UNIT                  API CODE            :DESCRIPTION
#----            ------          --------------            -----------------------------
DEPT            .m                                         :                                                        Depth Index
HTEN            .lbf                                       :        (LEH-QT)                (6in)                   Head Tension
GR_CAL          .gAPI                                      :        (SGT-N)                 (6in)                   Calibrated Gamma Ray
DT_BHC          .us/ft                                     :        (MAST-B)                (6in)                   1.5 Feet Span Borehole Compensated Slowness from Near Spacing
BS              .in                                        :(RT)    (Borehole)              (6in)                   Bit Size
#-------------------------------------------------------------
#            DEPT         HTEN       GR_CAL       DT_BHC           BS 
#                     (LEH-QT)      (SGT-N)     (MAST-B)   (Borehole) 
#                                                                (RT) 
#                        (6in)        (6in)        (6in)        (6in) 
~ASCII
# ...
       1950.72000    553.37238    126.11900     70.83357      8.50000
       1950.87240    547.18429    137.79040     70.50243      8.50000
       1951.02480    551.18297    153.00500     69.75001      8.50000
       1951.17720    564.17805    171.31970     72.75000      8.50000
       1951.32960    562.41667    178.61430     76.66552      8.50000
       1951.48200    562.25818    176.53020     78.25063      8.50000
       1951.63440    563.08323    169.44390     80.83448      8.50000
       1951.78680    553.65812    175.27970     80.74938      8.50000
       1951.93920    561.49653    170.06920     80.75060      8.50000
       1952.09160    571.08036    159.23150     99.00002      8.50000
       1952.24400    568.60499    129.92270     48.33448      8.50000
       1952.39640    566.57406    118.04280     78.24999      8.50000
       1952.54880    553.43196    114.08290     73.87499      8.50000
       1952.70120    557.72019    127.34350     70.24939      8.50000
       1952.85360    564.13039    135.68020     67.75000      8.50000
       1953.00600    570.41380    145.68430     70.74999      8.50000
       1953.15840    564.51122    142.97480     71.66552      8.50000
       1953.31080    551.46848    139.37960     69.91554      8.50000
       1953.46320    548.51719    131.25130     69.99939      8.50000
       1953.61560    551.75398    123.74830     70.41310      8.50000
       1953.76800    559.52900    120.46570     72.50122      8.50000
       1953.92040    573.49211    119.00680     72.49982      8.50000
       1954.07280    576.06258    130.26130     73.49999      8.50000
       1954.22520    569.96958    137.76440     73.74999      8.50000
       1954.37760    563.24195    148.81050     74.00062      8.50000
       1954.53000    555.18142    150.89470     72.25001      8.50000
       1954.68240    550.61173    153.60420     74.25001      8.50000
       1954.83480    555.14950    159.77860     75.75063      8.50000
       1954.98720    569.36664    164.57220     75.74999      8.50000
       1955.13960    573.60317    167.49000     76.75001      8.50000
       1955.29200    580.72736    156.93890     77.50000      8.50000
       1955.44440    582.09195    144.22540     79.25001      8.50000
       1955.59680    574.31716    137.55600     75.75063      8.50000
       1955.74920    573.55551    137.55600     75.75063      8.50000
       1955.90160    582.44108    135.88860     74.25001      8.50000
       1956.05400    581.48901    131.09500     70.08446      8.50000
       1956.20640    582.91722    125.46770     72.49939      8.50000
       1956.35880    579.29937    129.42770     69.25062      8.50000
       1956.51120    578.28391    131.09500     66.66552      8.50000
       1956.66360    569.77917    136.09710     72.50000      8.50000
       1956.81600    566.76448    139.84860     70.83790      8.50000
       1956.96840    565.74879    140.89070     70.00000      8.50000
       1957.12080    565.78071    148.39370     71.75062      8.50000
       1957.27320    574.53927    161.08120     75.00061      8.50000
       1957.42560    571.93711    170.66840     77.21169      8.50000
       1957.57800    568.92242    176.50410     78.16553      8.50000
       1957.73040    562.19456    167.35980     79.25001      8.50000
       1957.88280    570.31871    160.06510     62.70946      8.50000
       1958.03520    572.85747    147.56000     79.16893      8.50000
       1958.18760    578.37923    141.72430     79.99936      8.50000
       1958.34000    572.31793    148.18530     80.00000      8.50000
       1958.49240    573.67465    156.52200     79.25001      8.50000
       1958.64480    572.79385    164.65030     79.25001      8.50000
       1958.79720    582.12387    157.56410     78.49999      8.50000
       1958.94960    594.75409    139.01490     80.00000      8.50000
       1959.10200    593.96074    111.92050     92.00001      8.50000
       1959.25440    584.37691     96.73207     97.74268      8.50000
       1959.40680    564.98736    102.35940     90.00000      8.50000
       1959.55920    565.17778    123.82640    135.00000      8.50000
       1959.71160    565.20947    140.05700     90.50000      8.50000
       1959.86400    585.17026    149.64420     70.74999      8.50000
       1960.01640    581.17181    153.39580     70.83339      8.50000
       1960.16880    584.15480    148.81050     67.50061      8.50000
       1960.32120    580.88608    140.31750     65.75063      8.50000
       1960.47360    578.06180    135.73230     65.74999      8.50000
       1960.62600    574.95179    137.19120     66.33448      8.50000
       1960.77840    573.30170    135.47180     68.49999      8.50000
       1960.93080    574.78139    131.51190     68.49999      8.50000
       1961.08320    572.76216    133.80440     65.99999      8.50000
       1961.23560    569.77917    133.17920     65.00034      8.50000
       1961.38800    567.97035    131.45970     62.66554      8.50000
       1961.54040    568.35118    134.16920     65.00000      8.50000
       1961.69280    565.05076    144.17320     65.62378      8.50000
       1961.84520    569.33494    145.26740     65.99999      8.50000
       1961.99760    575.55473    142.97480     66.75001      8.50000
       1962.15000    571.77839    136.95680     73.00000      8.50000
       1962.30240    568.16077    135.70630     81.58447      8.50000
       1962.45480    569.39047    127.36950     73.49999      8.50000
       1962.60720    559.97322    126.71820     69.99939      8.50000
       1962.75960    561.46483    136.30550     66.50001      8.50000
       1962.91200    577.83969    150.47790     65.08446      8.50000
       1963.06440    593.86542    158.86670     69.16552      8.50000
       1963.21680    597.54667    152.61420     68.49999      8.50000
       1963.36920    600.49796    148.02900     68.00000      8.50000
       1963.52160    596.59460    152.97890     78.49999      8.50000
       1963.67400    592.16766    167.35980     85.74999      8.50000
       1963.82640    574.50757    173.40390     88.99605      8.50000
       1963.97880    557.78359    171.97100     88.16895      8.50000
       1964.13120    565.90751    169.67840     75.00000      8.50000
       1964.28360    571.30247    178.43200     76.93899      8.50000
       1964.43600    578.03010    179.86480     73.50023      8.50000
       1964.58840    578.22052    182.57430     73.16553      8.50000
       1964.74080    572.21070    182.36590     81.24999      8.50000
       1964.89320    570.38210    186.11740     89.75001      8.50000
       1965.04560    567.17700    184.45000     93.25060      8.50000
       1965.19800    563.74956    174.65440     93.74999      8.50000
       1965.35040    567.17700    167.77660     89.00002      8.50000
       1965.50280    567.49421    166.73450     76.74937      8.50000
       1965.65520    571.81009    176.06120     71.75001      8.50000
       1965.80760    578.53772    183.56430     74.99814      8.50000
       1965.96000    577.07804    183.98110     85.00000      8.50000
       1966.11240    567.14126    177.36380    110.25000      8.50000
       1966.26480    561.14740    161.31560    119.75001      8.50000
       1966.41720    559.02116    130.86050    120.00573      8.50000
       1966.56960    563.52745     94.80421    123.33665      8.50000
       1966.72200    575.49134     75.42131    125.25000      8.50000
       1966.87440    585.29705     86.49352    123.33497      8.50000
       1967.02680    577.35163    117.75620    129.16784      8.50000
       1967.17920    572.69853    145.05900    123.98536      8.50000
       1967.33160    565.59030    161.31560     72.17189      8.50000
       1967.48400    565.43159    156.52200     80.99999      8.50000
       1967.63640    573.87294    150.16530     75.99999      8.50000
       1967.78880    583.10764    134.32550     73.33418      8.50000
       1967.94120    584.24989    126.61400     72.99939      8.50000
       1968.09360    581.45732    102.95850     72.49939      8.50000
