~Version Information
 VERS.                  2.0:   CWLS log ASCII Standard -VERSION 2.0
 WRAP.                   NO:   One line per depth step
~Well Information Block
#MNEM.UNIT     VALUE/NAME     DESCRIPTION
#---------     -----------    ---------------------------
 STRT.M              1700.1000: START DEPTH
 STOP.M              2733.9000: STOP DEPTH
 STEP.M                 0.1500: STEP DEPTH
 NULL.               -999.2500: NULL VALUE
 CNTY.         Tanjung Benuang:  COUNTY NAME
 CTRY.               Indonesia:  COUNTRY NAME
 PROV.          South Sumatera:  PROVINCE
 STAT.          South Sumatera:  STATE NAME
 FLD .                 Benuang:  FIELD NAME
 DATE.      15.00.00 14-May-24:  END TIME
 WELL.                  BNG-B3:  WELL NAME
 COMP.     PHR Region 1 Zona 4:  COMPANY
 API .                        :  API NUMBER
 SRVC.             Halliburton:  SERVICE COMPANY
 UWI .                        :  UNIQUE WELL IDENTIFIER
 LOC .                        :  LOCATION
~Parameter Information Block
#MNEM.UNIT       Value        Description
#---------     -----------    ---------------------------
 AV  .fpm             311.0000:  Ann Velocity 
 AVMX.fpm             315.0000:  Max Ann Veloc 
 AZIF.deg             294.2000:  Azm, Final 
 BHAT.        Rotary Steerable:  BHA Type 
 BROT.°/100'            0.2000:  Build Rotating 
 BS  .in                8.5000:  Bit Size 
 BSZ .in                8.5000:  Bit Size 
 BTPL.psig            496.0000:  Bit Press Loss 
 CABU.                      No:  Customer Abuse 
 CGEO.           Achmad Gazali:  Customer Geo 
 COMM.                     üQb:  Run Comments 1 
 TCS .hr               88.2729:  Time Ciculation Ended 
 CV  .fpm             378.0000:  Crit Velocity 
 CVMX.fpm             380.0000:  Max Crit Veloc 
 DD1 .          Yudi Kurniawan:  Direct Drillr 1 
 DD2 .               Aminuddin:  Direct Drillr 2 
 DDSV.               Geo-Pilot:  DD Service 
 DEFF.%               100.0000:  % Det Eff 
 DLRX.°/100'            0.5000:  Dogleg Rot Max 
 DLSO.°/100'            1.1000:  Dogleg Oriented 
 DLSX.°/100'            2.1900:  Dogleg Str Max 
 DRET.      10.25.00 13-May-24:  Drill End Time 
 DRST.      23.00.00 09-May-24:  Drill Start Tim 
 DTIM.hr               52.9642:  Time Drilling 
 EDEP.m              2734.0000:  End Depth 
 ENG1.      Andika BP Pulungan:  Engineer 1 
 ENG2.         Edward Joshua M:  Engineer 2 
 ENG3.       Pandamama Siahaan:  Engineer 3 
 ENG4.        Siti Nurfitriani:  Engineer 4 
 ETIM.      18.45.00 14-May-24:  End Time 
 FLOI.gpm             550.0000:  Flow In 
 FLON.gpm             400.0000:  Flow In Min 
 FLOS.mptm              4.2000:  Fluid Loss 
 FLOX.gpm             600.0000:  Flow In Max 
 DFT .                 Polymer:  Mud Type 
 HPRE.                      No:  High Pressure 
 HTEM.                      No:  High Temp 
 HYDO.m                 0.0000:  Hydro Offset 
 IFIN.deg              25.6000:  Inc, Final 
 IMAX.deg              26.9023:  Inc Max 
 IMIN.deg              20.4496:  Inc Min 
 IMND.m              2580.0901:  Inc Min Depth 
 IMXD.m              2034.3999:  Inc Max Depth 
 JARR.                      No:  Jarring 
 LETM.      10.25.00 13-May-24:  Log End Time 
 LOST.hr                     0:  Lost Rig Time 
 LSTM.      23.00.00 09-May-24:  Log Start Time 
 MDCL.ppm           42000.0000:  Mud Chlorides 
 MDES.             Fresh Water:  Mud Desc 
 DFD .SG                1.3000:  Mud Density 
 MDMN.SG                1.2500:  Dens Mud Min 
 MDMX.SG                1.3000:  Dens Mud Max 
 PH  .pH               10.0000:  Mud pH 
 MOIL.                       0:  Run Mud Oil % 
 MOWR.                   0 100:  Run Mud OWR 
 MSND.                     0.2:  Run Mud Sand % 
 MSOL.                     8.9:  Run Mud Solids% 
 DFV .spqt             80.0000:  Mud Viscosity 
 MWOD.in                6.7500:  MWD Tool OD 
 MWSI.                      No:  Serv Intrp, MWD 
 OTIM.hr              124.1140:  Time Operating 
 PMAX.psig           3200.0000:  Press Op, Max 
 PV  .cP               24.0000:  Mud PV 
 RMS .ohmm              0.0800:  Mud Resistivity 
 RMCS.ohmm              0.1050:  Mud Cake Resistivity 
 MCST.degF             81.0000:  Mud Cake Sample Temperature 
 RMFS.ohmm              0.0500:  Mud Filtrate Resistivity 
 RMFT.degF             81.0000:  Mud Filtrate Sample Temperature 
 RMMT.ohmm              0.0525:  Rm @ Max Temp 
 MST .degF             82.0000:  Mud Sample Temperature 
 RUN .                     500:  Run Number 
 ROPA.m/hr             30.0000:  ROP Avg 
 ROPN.m/hr              5.0000:  ROP Min 
 ROPX.m/hr             40.0000:  ROP Max 
 RPMA.rpm             120.0000:  RPM Surface Avg 
 RPMN.rpm              80.0000:  RPM Surface Min 
 RPMX.rpm             130.0000:  RPM Surface Max 
 RRUN.                     500:  Rig Run Number 
 RTIM.hr               10.0000:  Time Reaming 
 SAZI.deg             296.4800:  Azm, Start 
 SDEP.m              1782.9999:  Start Depth 
 SIDD.                      No:  Serv Intrp, DD 
 SINC.deg              23.5300:  Inc, Start 
 SPPA.psig           3000.0000:  SPP Avg 
 SPPN.psig           2000.0000:  SPP Min 
 SPPX.psig           3100.0000:  SPP Max 
 STIM.      10.00.00 09-May-24:  Start Time 
 SVCS.                 DD, MWD:  Services 
 SVER.                  9.2000:  Sperry Version 
 TDAT.m               951.0001:  Tot Depth Attmp 
 TDDF.                      No:  Trip for DD 
 TDLG.m               951.0001:  Tot Depth Loggd 
 TFF .                      No:  Trip for Fail 
 TQAA.f-p           15000.0000:  Torque Abs Avg 
 TQAN.f-p            7000.0000:  Torque Abs Min 
 TQAX.f-p           18000.0000:  Torque Abs Max 
 TRRT.°/100'            0.2000:  Turn Rotating 
 MRT .                  EWR-P4:  Maximum Recorded Temperature 
 TTMX.degC            101.9000:  Max Tool Temp 
 VS01.        JK90757141L2N1-6:  Virtual Str1 SN 
 VS02.     DR90758460H1WGV2R-6:  Virtual Str2 SN 
 WBMN.klb               5.0000:  WOB Min 
 WITN.            Eko Agustian:  Customer Rep 2 
 WITN.            Bagus Ardika:  Customer Rep 
 WOBA.klb              20.0000:  WOB Avg 
 WOBX.klb              30.0000:  WOB Max 
 YP  .lhf2             30.0000:  Yield Point 
~Curve Information Block
#MNEM.UNIT                 API CODE     Curve Description
#---------               -----------    ---------------------------
 DEPT.M                 00 000 000 000:  Depth
 TVD .m                 00 000 000 000:  True Vertical Depth
 ROPA.m/hr              00 000 000 000:  Avg Rate of Penetration
 DGRCC.api              00 000 000 000:  DGR Comb Gamma Ray BCorr
 DGDD.ptpm              00 000 000 000:  DGR Data Density
 R09PC.ohmm             00 000 000 000:  9in Phase Resistivity BC
 R15PC.ohmm             00 000 000 000:  15in Phase Resistivity BC
 R27PC.ohmm             00 000 000 000:  27in Phase Resistivity BC
 R39PC.ohmm             00 000 000 000:  39in Phase Resistivity BC
 EWDD.ptpm              00 000 000 000:  EWR Data Density
 EWXT.hr                00 000 000 000:  EWR Formation Exp Time
 EWTEMP.degC            00 000 000 000:  EWR Temperature
 ALCDLC.g/cc            00 000 000 000:  ALD LCRB Comp Density
 ALDD.ptpm              00 000 000 000:  ALD Data Density
 TNPL.v/v               00 000 000 000:  CTN Porosity Limestone
 TNPS.v/v               00 000 000 000:  CTN Porosity Sandstone
 TNDD.ptpm              00 000 000 000:  CTN Data Density
#Other Information
#Environmental Parameters (and sensors to which they are applied)
#Hole Size 		: 8.5" (all sensors)
#Tool Size 			: 6.75"
#Mud Type 		: WBM (Gamma Ray)
#Mud Weight 		: 1.25 - 1.30 SG (Gamma Ray)
#KCl Concentration by Weight 	: 4.21 - 5.05 pbw (Gamma Ray)
#Mud Resistivity at BHT 	: 0.07  ohmm @101.9 degC (Resistivity)
#Fluid Density 		: 1.00 g/cc (Density)
#Neutron Tool Lithology	: Limestone (Porosity)
#Whole Mud Chlorides 	: 28800 - 33426 ppm (Porosity)
#Formation Water Salinity 	: 20000 ppm Cl- (Porosity)
#Pressure and Temperature 	: from PWD and EWR (Density, Porosity)
#
#Comments:
#1) All depth are calibrated to the drillers pipe tally and are measured from drill floor.
#2) No depth correction have been made for pipe stretch or compression.
#3) LWD Resistivity Tool utilized in this run is EWRP4, with spacing configuration as below:
#    - Deep Resistivity = 39in Spacing / 1 Mhz Frequency
#    - Medium Resistivity = 27in Spacing / 2 MHz Frequency
#    - Shallow Resistivity = 15in Spacing / 2 MHz Frequency
#    - XShallow Resistivity = 9in Spacing /2 MHz Frequency
#4) CTN Alloy type used for CTN data processing is Mid Nickle.
#5) Density reading might be affected by detector standoff to borehole wall while sliding.
#6) All data presented is Memory data unless otherwise stated.
#WARRANTY: Halliburton will use its best efforts to furnish customers with 
#accurate information and interpretations that are part of, and incident to, the services 
#provided.  However, Halliburton cannot and does not warrant the accuracy 
#or correctness of such information and interpretations.  Under no circumstances should any 
#such information or interpretation be relied upon as the sole basis for any drilling, 
#completion, production, or financial decision or any procedure involving any risk to the 
#safety of any drilling venture, drilling rig or its crew or any other third party.  The 
#Customer has full responsibility for all drilling, completion and production operation.  
#Halliburton makes no representations or warranties, either expressed or 
#implied, including, but not limited to, the implied warranties of merchantability or fitness 
#for a particular purpose, with respect to the services rendered.  In no event will 
#Halliburton be liable for failure to obtain any particular results or for 
#any damages, including, but not limited to, indirect, special or consequential damages, 
#resulting from the use of any information or interpretation provided by Halliburton.
#
~A   DEPT       TVD      ROPA      DGRCC     DGDD      R09PC     R15PC     R27PC     R39PC     EWDD      EWXT     EWTEMP    ALCDLC      ALDD      TNPL      TNPS       TNDD    
# ...
   2183.1000 2032.7819   29.7857  145.6015   26.8812    8.1254    8.4041    8.4991    9.5038   12.1191    1.6086   90.3320    2.7157    15.2459    0.1909    0.2331    13.9260
   2183.2500 2032.9022   24.2685  127.0223   24.9592    9.0749    9.2329    8.8651    9.5613   11.3458    1.6067   90.3320    2.7479    14.6870    0.1708    0.2135    12.3163
   2183.4000 2033.0508   20.8361  113.0548   20.8052   11.8221   11.1685    9.9647   10.2937   11.6604    1.6038   90.4056    2.7563    19.7102    0.1623    0.2052    11.3964
   2183.5500 2033.1836   19.3030  112.1202   17.3942   12.7734   11.8184   10.0642   10.0448   13.3553    1.5971   90.8874    2.7800    16.2471    0.1490    0.1921    10.7741
   2183.7000 2033.3268   17.0397   99.0377   16.2803   12.4979   11.6814    9.8196    9.7618   11.8004    1.5557   90.9424    2.7904    12.8131    0.1451    0.1882    10.6190
   2183.8500 2033.4518   14.0057   96.1520   16.6674   10.8544   10.4783    8.8494    9.0230   10.5610    1.4955   90.9424    2.7965    12.9126    0.1395    0.1827    10.9486
   2184.0000 2033.5673    3.5412  104.8332   15.7938    8.7519    9.2289    8.2790    8.7584   13.2487    1.4755   90.9424    2.7405    12.5854    0.1458    0.1889    10.6616
   2184.1500 2033.7314    8.4351  124.0783   15.8472    7.8005    8.8288    8.8462    9.5198   14.0161    1.4762   90.9424    2.6719    13.9679    0.1679    0.2106     9.8518
   2184.3000 2033.8712   33.2920  140.3970   15.7669    9.0442   10.3109   11.0702   11.8123   12.2421    1.4770   90.9424    2.6646    13.8458    0.1703    0.2130    10.3439
   2184.4500 2034.0183   30.4936  143.6760   14.9059   10.5848   11.6187   12.5226   13.6335   12.4736    1.4760   90.9424    2.6236    14.1111    0.1518    0.1948    12.8072
   2184.6000 2034.1653   24.1733  131.8664   14.1345   12.7197   13.2163   13.7459   15.1557   13.1256    1.4532   90.9424    2.6125    17.0948    0.1255    0.1687    11.8621
   2184.7500 2034.2861   16.8915  115.4224   13.3685   14.7444   14.8869   14.4428   16.0178   13.0536    1.4159   90.9424    2.5953    18.9812    0.1012    0.1440    12.5719
   2184.9000 2034.3790    5.8194  106.3909   13.6789   16.7403   16.9990   15.6365   16.7861   13.7500    1.3996   90.9424    2.5753    14.7642    0.0834    0.1254    15.3574
   2185.0500 2034.5594    9.4163   98.2197   13.7759   17.6405   18.5427   16.5851   17.4318   17.4037    1.4000   90.9424    2.5819    14.7468    0.0775    0.1191    18.7439
   2185.2000 2034.6921   24.0987   93.2656   13.0972   18.5273   19.5361   17.6163   17.9506   19.7615    1.4015   90.9424    2.5687    16.1183    0.0769    0.1185    15.2386
   2185.3500 2034.8267   22.7728   98.9094   13.1407   18.2467   19.7284   18.1516   18.3236   14.2952    1.4015   90.9424    2.5547    15.3039    0.0809    0.1227    14.8712
   2185.5000 2034.9656   23.2161   90.4527   15.7958   18.1261   19.6613   18.9086   19.3012   17.3805    1.4011   90.9424    2.5650    13.8748    0.0842    0.1263    14.9378
   2185.6500 2035.1014   24.1991   93.0946   12.5000   17.9848   19.6744   19.3506   19.8014   19.8750    1.4020   90.9424    2.5650    13.5619    0.0872    0.1294    14.1761
   2185.8000 2035.2415   25.2199  107.3807   11.6190   16.4645   18.0199   18.4224   19.6422   85.0357    1.4040   90.9424    2.5566    15.2930    0.0925    0.1351    14.6883
   2185.9500 2035.3816   25.0648   96.4779   11.6036   15.0425   16.6421   17.1989   18.7414  117.5671    1.4022   90.9424    2.5316    13.9968    0.0959    0.1386    13.7594
   2186.1000 2035.5437   21.7056   90.1384   12.1447   16.7277   18.0247   18.4094   20.0628   13.1867    1.1701   90.9424    2.5311    12.8814    0.0946    0.1372    24.1626
   2186.2500 2035.6654   16.9927   89.7527   12.4619   20.1774   21.2467   20.4050   22.0834   13.6694    0.7534   90.9424    2.5173    12.6082    0.0982    0.1410    29.4768
   2186.4000 2035.7417    7.7782   85.6822   13.5509   22.0196   22.7955   20.9001   22.3268   13.5001    0.5111   90.9424    2.5126    12.9975    0.1089    0.1520    24.3693
   2186.5500 2035.9292   10.1482   94.1820   12.2538   17.0191   18.4841   18.4396   20.3135   16.6295    0.4990   90.9424    2.5015    13.2423    0.1292    0.1725    23.7309
   2186.7000 2036.0629   31.4458  101.1792   12.3080   17.1781   18.1828   18.3428   20.3190   20.0286    0.5024   90.9424    2.5024    16.0248    0.1518    0.1949    24.2107
   2186.8500 2036.2006   32.5169  108.5656   13.2911   17.0767   17.7680   17.5630   19.5115   22.6595    0.5068   90.9424    2.4752    13.0097    0.1756    0.2182    20.9408
   2187.0000 2036.3376   34.1348  133.6305   14.0330   15.4059   15.8972   15.6437   17.6911   27.0816    0.5128   90.9424    2.4298    10.7740    0.2032    0.2452    15.4275
   2187.1500 2036.4786   35.9883  148.0329   13.3696   12.7360   13.6379   13.6957   15.5924   22.8917    0.5185   90.9424    2.4786     9.9728    0.1960    0.2382    14.6704
   2187.3000 2036.6245   34.9672  146.8046   12.2948   13.2744   14.8273   15.0368   16.7370   17.6681    0.5211   90.9424    2.5759    10.0819    0.1656    0.2083    19.3650
   2187.4500 2036.7568   27.5053  127.1221   13.0797   12.7139   14.3704   14.7695   16.4872   16.8865    0.5214   90.9424    2.6190    10.0091    0.1264    0.1695    16.4930
   2187.6000 2036.8790   20.9739  111.9678   12.5953   12.4542   13.3444   14.0660   15.6286   16.8713    0.5216   90.9424    2.6746     9.7817    0.0965    0.1392    12.9389
   2187.7500 2037.0228   20.7599  110.3997   11.7083   12.5610   13.2246   13.3464   15.0079   15.5510    0.5221   90.9424    2.6654    10.3703    0.0983    0.1411    12.8510
   2187.9000 2037.1666   24.6995  107.6623   10.8320   11.5099   12.1519   11.9896   13.8090   16.0340    0.5224   90.9424    2.6434    12.7363    0.1031    0.1461    12.4501
   2188.0500 2037.3013   24.1362   96.9839   10.3360   13.0451   13.0845   12.3244   14.1282   16.2026    0.5223   90.9424    2.5830    12.9831    0.1179    0.1611    14.0570
   2188.2000 2037.4283   22.3430  104.8935   10.8096   12.4332   12.3470   11.5419   13.2183   14.9667    0.5226   90.9424    2.5642    11.9875    0.1416    0.1848    13.8141
   2188.3500 2037.5680   24.6096  125.8733   10.8222    9.5830   10.2960   10.4188   12.4052   14.9565    0.5237   90.9424    2.5251    11.9161    0.1776    0.2202    13.9742
   2188.5000 2037.7109   31.4738  158.1673    9.7993    9.1624   10.3583   11.5382   13.6989   13.3276    0.5245   90.9424    2.4926    10.6257    0.2043    0.2463    16.9943
   2188.6500 2037.8574   34.9367  162.7600   10.2813   10.1469   11.4381   12.9497   15.0746   13.2752    0.5254   91.0642    2.5485     9.8046    0.1817    0.2242    19.1695
   2188.8000 2037.9901   30.3842  134.5846   12.6375   13.7761   14.4992   15.1647   17.0353   14.1938    0.5261   91.5211    2.5159     9.7997    0.1413    0.1845    14.7880
   2188.9500 2038.1178   24.9432  111.7456   11.9343   14.3857   15.2475   14.7690   16.2555   13.2551    0.5254   91.5527    2.5034    10.0579    0.1108    0.1539    14.6683
   2189.1000 2038.2595   24.9353  100.6249   12.1354   16.1197   17.4932   16.0130   16.9443   12.9232    0.5244   91.5527    2.4949     9.8994    0.1073    0.1504    16.2035
   2189.2500 2038.4027   27.4242   94.1439   14.9229   23.3314   23.7553   19.3762   18.5565   16.2005    0.5247   91.5527    2.5140    22.4452    0.1161    0.1594    15.4267
   2189.4000 2038.5339   25.9428   87.0377   17.8709   18.4232   19.3239   16.5009   15.9896   13.5625    0.5248   91.5527    2.5698    61.3747    0.1229    0.1662    13.9480
   2189.5500 2038.6724   24.2684  102.0514   16.1186   14.4990   15.4469   14.4145   14.3777   11.7694    0.5238   91.5527    2.5784   139.6361    0.1470    0.1901    13.5573
   2189.7000 2038.8025   24.6804  112.6187   14.5863   12.7400   13.7964   13.5199   13.9329   12.0759    0.5232   91.5527    2.5530    36.6178    0.1777    0.2202    15.4063
   2189.8500 2038.9432   28.1983  123.3644   14.8454   11.5093   11.9874   11.8550   12.7394   11.6127    0.5235   91.5527    2.4365    15.9528    0.2100    0.2520    14.0028
