~VERSION INFORMATION 
VERS  .    2.0                                     :CWLS Log ASCII Standard - VERSION 2.0
WRAP  .    NO                                      :One Line per Depth step
PROD  .    Schlumberger Technology Corp.           :LAS Producer
PROG  .    Horizon LASWriter 13.0.221437.3100      :LAS Program name and version
SOURCE.    S1R1-Log[4]/Up                          :Run&Pass Information
CREA  .    07/28/2024                              :LAS Creation date {MM/DD/YYYY}
#--------------------------------------------------
~WELL INFORMATION 
#MNEM           .UNIT                      DATA            :DESCRIPTION
#----            ------          --------------            -----------------------------
STRT            .m                   1495.04400            :START DEPTH
STOP            .m                   2360.37120            :STOP DEPTH
STEP            .m                       0.1524            :STEP
NULL            .                       -999.25            :NULL VALUE
COMP            .                PT Pertamina EP           :COMPANY
WELL            .                BNG-059 (BNG-H1)          :WELL NAME
FLD             .                         Adera            :FIELD NAME
RIGN            .                                          :Rig Name
RIGTYP          .                          Land            :Rig Type
SON             .                A.1009322.17.2            :Service Order Number
SRVC            .                  Schlumberger            :SERVICE COMPANY
DATE            .                    07/28/2024            :LOG DATE(Composite Date for Composite LAP) (MM/DD/YYYY)
CLAB            .                     Rig Name:            :County Label
CNTY            .                South Sumatera            :COUNTY
SLAB            .                     Province:            :State/Province Label
STAT            .                 South Sumatra            :STATE or PROVINCE
PROV            .                 South Sumatra            :STATE or PROVINCE
CTRY            .                     Indonesia            :COUNTRY
CONT_REGION     .                          Asia            :Continent Region
SECT            .                                          :Section
TOWN            .                                          :Township
RANG            .                                          :Range
API             .                                          :API NUMBER
UWI             .                                          :UNIQUE WELL ID
LUL             .                      ING/IDPR            :Logging Unit Location
LUN             .                   OSLC-E 2349            :Logging Unit Number
LOC             .                         Adera            :FIELD LOCATION
FL1             .                X: 397,029.172            :Field Location Line 1
FL2             .                Y: 9,625,078.797          :Field Location Line 2
LATI            .deg             3° 23' 29.559" S          :LATITUDE
LONG            .deg             104° 4' 22.998" E         :LONGITUDE
PDAT            .                           MSL            :Local Permanent Datum
LMF             .                            DF            :Logging Measured From
APD             .m                        25.78            :Elevation of Depth Reference (LMF) Above Permanent Datum
EPD             .m                         0.00            :Elevation of Permanent Datum (PDAT) above Mean Sea Level
EKB             .m                        25.78            :Elevation of Kelly Bushing Above Permanent Datum
EDF             .m                        25.78            :Elevation of Drill Floor Above Permanent Datum
EGL             .m                        16.64            :Elevation of Ground Level Above Permanent Datum
ECF             .m                      -999.25            :Elevation of Casing Flange above Permanent Datum
#--------------------------------------------------
~CURVE INFORMATION
#MNEM           .UNIT                  API CODE            :DESCRIPTION
#----            ------          --------------            -----------------------------
DEPT            .m                                         :                                                        Depth Index
HTEN            .lbf                                       :        (LEH-QT)                (6in)                   Head Tension
GR_CAL          .gAPI                                      :        (SGT-N)                 (6in)                   Calibrated Gamma Ray
DT_BHC          .us/ft                                     :        (MAST-B)                (6in)                   1.5 Feet Span Borehole Compensated Slowness from Near Spacing
BS              .in                                        :(RT)    (Borehole)              (6in)                   Bit Size
#-------------------------------------------------------------
#            DEPT         HTEN       GR_CAL       DT_BHC           BS 
#                     (LEH-QT)      (SGT-N)     (MAST-B)   (Borehole) 
#                                                                (RT) 
#                        (6in)        (6in)        (6in)        (6in) 
~ASCII
# ...
       2283.71400    561.52823    150.26950     77.58446      8.50000
       2283.86640    560.51277    152.35370     78.41553      8.50000
       2284.01880    562.60709    151.31160     78.49999      8.50000
       2284.17120    560.48107    151.31160     76.74605      8.50000
       2284.32360    561.43313    154.02100     77.41551      8.50000
       2284.47600    563.74956    156.52200     78.24999      8.50000
       2284.62840    559.78281    159.64830     76.75001      8.50000
       2284.78080    560.03662    161.73250     77.50000      8.50000
       2284.93320    561.96458    163.81670     78.33509      8.50000
       2285.08560    568.77629    164.44190     76.08448      8.50000
       2285.23800    570.15999    165.12970     78.41553      8.50000
       2285.39040    568.00205    163.87920     80.66553      8.50000
       2285.54280    562.48029    164.50440     80.00061      8.50000
       2285.69520    564.44782    166.73450     78.33448      8.50000
       2285.84760    563.84488    171.31970     79.99875      8.50000
       2286.00000    564.60654    165.06720     80.00061      8.50000
       2286.15240    566.85957    159.23150     78.33384      8.50000
       2286.30480    565.97090    154.02100     79.99936      8.50000
       2286.45720    566.47875    158.81460     78.25063      8.50000
       2286.60960    565.17778    156.52200     79.25001      8.50000
       2286.76200    568.54159    157.98100     79.16491      8.50000
       2286.91440    565.62200    156.31360     77.58446      8.50000
       2287.06680    562.95621    163.19140     81.99940      8.50000
       2287.21920    566.98659    161.73250     85.08446      8.50000
       2287.37160    567.08168    162.56610     80.16334      8.50000
       2287.52400    564.35250    164.02510     78.74999      8.50000
       2287.67640    564.22571    160.27350     75.00000      8.50000
       2287.82880    568.76370    158.81460     76.75001      8.50000
       2287.98120    565.59030    150.06110     75.08446      8.50000
       2288.13360    567.74802    152.97890     75.74999      8.50000
       2288.28600    566.92297    151.93680     74.25001      8.50000
       2288.43840    564.16231    154.02100     73.41894      8.50000
       2288.59080    560.95699    153.18730     76.50001      8.50000
       2288.74320    560.03662    153.39580     79.25001      8.50000
       2288.89560    565.68539    151.72840     80.08446      8.50000
       2289.04800    559.03712    151.10320     78.66553      8.50000
       2289.20040    559.75111    154.64630     79.25001      8.50000
       2289.35280    558.64033    164.02510     79.16552      8.50000
       2289.50520    566.00282    173.19550     80.99999      8.50000
       2289.65760    565.63459    176.73860     80.75060      8.50000
       2289.81000    567.17700    176.11330     85.91894      8.50000
       2289.96240    568.31926    170.48600     82.50000      8.50000
       2290.11480    560.22703    165.48400     84.25001      8.50000
       2290.26720    560.89359    175.07120     85.00000      8.50000
       2290.41960    556.32390    185.49210     85.74999      8.50000
       2290.57200    558.35482    194.24570     85.00000      8.50000
       2290.72440    559.90983    179.65640     85.83168      8.50000
       2290.87680    561.68694    172.98710     85.83448      8.50000
       2291.02920    561.90905    172.15340     87.50000      8.50000
       2291.18160    564.25741    177.15540     91.49998      8.50000
       2291.33400    561.36951    174.86280     88.49999      8.50000
       2291.48640    561.05231    174.23750     85.74999      8.50000
       2291.63880    564.22571    175.48810     85.74999      8.50000
       2291.79120    561.46483    178.19750     84.16552      8.50000
       2291.94360    561.40121    178.61430     84.91551      8.50000
       2292.09600    559.49730    172.77860     86.24999      8.50000
       2292.24840    563.68617    173.40390     84.99906      8.50000
       2292.40080    565.90751    170.48610     85.74999      8.50000
       2292.55320    558.32313    167.35980     83.33104      8.50000
       2292.70560    554.89569    168.40190     84.25001      8.50000
       2292.85800    556.20970    167.77660     81.50001      8.50000
       2293.01040    557.27574    174.44600     83.99937      8.50000
       2293.16280    556.51431    166.73450     84.25062      8.50000
       2293.31520    556.76812    173.61230     85.74999      8.50000
       2293.46760    554.03894    173.82070     85.50061      8.50000
       2293.62000    547.78723    180.69850     86.58448      8.50000
       2293.77240    551.97632    177.57230     84.99769      8.50000
       2293.92480    553.81683    181.74060     87.33447      8.50000
       2294.07720    556.83152    186.53420     86.50001      8.50000
       2294.22960    553.68981    183.40800     85.25061      8.50000
       2294.38200    549.40563    183.82480     87.50000      8.50000
       2294.53440    550.54811    182.36590     84.99939      8.50000
       2294.68680    545.47080    184.45000     87.62500      8.50000
       2294.83920    544.58213    175.90490     85.82778      8.50000
       2294.99160    549.53265    169.44390     83.41553      8.50000
       2295.14400    554.51486    165.14530     83.32872      8.50000
       2295.29640    555.46693    175.77460     83.99998      8.50000
       2295.44880    550.23090    170.77260     85.75060      8.50000
       2295.60120    547.94595    170.90290     83.33509      8.50000
       2295.75360    546.74007    161.94090     81.58447      8.50000
       2295.90600    549.53265    168.40190     83.41553      8.50000
       2296.05840    551.50018    166.73450     83.41553      8.50000
       2296.21080    551.15105    175.90490     82.50000      8.50000
       2296.36320    552.42054    177.98910     85.74999      8.50000
       2296.51560    554.57848    181.11540     88.49999      8.50000
       2296.66800    552.03972    171.84080     88.24938      8.50000
       2296.82040    551.78568    169.70450     86.66613      8.50000
       2296.97280    550.32600    169.70450     87.41554      8.50000
       2297.12520    543.63006    169.39180     85.00125      8.50000
       2297.27760    544.77254    166.31770     88.24999      8.50000
       2297.43000    545.85140    170.69450     85.83448      8.50000
       2297.58240    544.55043    169.65240     87.49939      8.50000
       2297.73480    552.03972    174.02910     87.58446      8.50000
       2297.88720    553.05518    166.23430     87.91319      8.50000
       2298.03960    550.96063    173.52890     87.25001      8.50000
       2298.19200    549.88178    174.33650     87.75000      8.50000
       2298.34440    554.80060    176.58750     86.66839      8.50000
       2298.49680    551.88100    169.24080     86.58448      8.50000
       2298.64920    554.64188    169.66280     87.50000      8.50000
       2298.80160    552.23013    173.22670     89.25001      8.50000
       2298.95400    554.64188    183.49130     87.50000      8.50000
       2299.10640    554.70528    180.59430     88.33445      8.50000
       2299.25880    554.64188    169.02710     84.99939      8.50000
       2299.41120    552.26183    159.23150     84.25001      8.50000
       2299.56360    552.70605    160.62790     85.00000      8.50000
       2299.71600    550.45302    167.92250     83.49999      8.50000
       2299.86840    550.04049    168.33930     84.25001      8.50000
       2300.02080    553.40431    164.44190     84.25001      8.50000
       2300.17320    560.70318    169.86080     83.33104      8.50000
       2300.32560    551.75398    169.65240     83.41553      8.50000
       2300.47800    549.15182    171.11130     82.92026      8.50000
       2300.63040    553.62642    166.91690     89.00002      8.50000
       2300.78280    557.18065    173.08610     86.58448      8.50000
       2300.93520    562.70240    172.87760     84.16552      8.50000
       2301.08760    558.25951    177.07200     85.00000      8.50000
