~VERSION INFORMATION 
VERS  .    2.0                                     :CWLS Log ASCII Standard - VERSION 2.0
WRAP  .    NO                                      :One Line per Depth step
PROD  .    Schlumberger Technology Corp.           :LAS Producer
PROG  .    Horizon LASWriter 13.0.221437.3100      :LAS Program name and version
SOURCE.    S1R1-Log[4]/Up                          :Run&Pass Information
CREA  .    07/28/2024                              :LAS Creation date {MM/DD/YYYY}
#--------------------------------------------------
~WELL INFORMATION 
#MNEM           .UNIT                      DATA            :DESCRIPTION
#----            ------          --------------            -----------------------------
STRT            .m                   1495.04400            :START DEPTH
STOP            .m                   2360.37120            :STOP DEPTH
STEP            .m                       0.1524            :STEP
NULL            .                       -999.25            :NULL VALUE
COMP            .                PT Pertamina EP           :COMPANY
WELL            .                BNG-059 (BNG-H1)          :WELL NAME
FLD             .                         Adera            :FIELD NAME
RIGN            .                                          :Rig Name
RIGTYP          .                          Land            :Rig Type
SON             .                A.1009322.17.2            :Service Order Number
SRVC            .                  Schlumberger            :SERVICE COMPANY
DATE            .                    07/28/2024            :LOG DATE(Composite Date for Composite LAP) (MM/DD/YYYY)
CLAB            .                     Rig Name:            :County Label
CNTY            .                South Sumatera            :COUNTY
SLAB            .                     Province:            :State/Province Label
STAT            .                 South Sumatra            :STATE or PROVINCE
PROV            .                 South Sumatra            :STATE or PROVINCE
CTRY            .                     Indonesia            :COUNTRY
CONT_REGION     .                          Asia            :Continent Region
SECT            .                                          :Section
TOWN            .                                          :Township
RANG            .                                          :Range
API             .                                          :API NUMBER
UWI             .                                          :UNIQUE WELL ID
LUL             .                      ING/IDPR            :Logging Unit Location
LUN             .                   OSLC-E 2349            :Logging Unit Number
LOC             .                         Adera            :FIELD LOCATION
FL1             .                X: 397,029.172            :Field Location Line 1
FL2             .                Y: 9,625,078.797          :Field Location Line 2
LATI            .deg             3° 23' 29.559" S          :LATITUDE
LONG            .deg             104° 4' 22.998" E         :LONGITUDE
PDAT            .                           MSL            :Local Permanent Datum
LMF             .                            DF            :Logging Measured From
APD             .m                        25.78            :Elevation of Depth Reference (LMF) Above Permanent Datum
EPD             .m                         0.00            :Elevation of Permanent Datum (PDAT) above Mean Sea Level
EKB             .m                        25.78            :Elevation of Kelly Bushing Above Permanent Datum
EDF             .m                        25.78            :Elevation of Drill Floor Above Permanent Datum
EGL             .m                        16.64            :Elevation of Ground Level Above Permanent Datum
ECF             .m                      -999.25            :Elevation of Casing Flange above Permanent Datum
#--------------------------------------------------
~CURVE INFORMATION
#MNEM           .UNIT                  API CODE            :DESCRIPTION
#----            ------          --------------            -----------------------------
DEPT            .m                                         :                                                        Depth Index
HTEN            .lbf                                       :        (LEH-QT)                (6in)                   Head Tension
GR_CAL          .gAPI                                      :        (SGT-N)                 (6in)                   Calibrated Gamma Ray
DT_BHC          .us/ft                                     :        (MAST-B)                (6in)                   1.5 Feet Span Borehole Compensated Slowness from Near Spacing
BS              .in                                        :(RT)    (Borehole)              (6in)                   Bit Size
#-------------------------------------------------------------
#            DEPT         HTEN       GR_CAL       DT_BHC           BS 
#                     (LEH-QT)      (SGT-N)     (MAST-B)   (Borehole) 
#                                                                (RT) 
#                        (6in)        (6in)        (6in)        (6in) 
~ASCII
# ...
       1600.20000    550.67288    101.55920     95.25000      8.50000
       1600.35240    547.10269     98.34359     96.49998      8.50000
       1600.50480    549.95889     98.20960     97.00342      8.50000
       1600.65720    554.24307     96.06588     95.25000      8.50000
       1600.80960    553.25818     91.91241     90.08446      8.50000
       1600.96200    553.50839     93.38622     89.99659      8.50000
       1601.11440    551.59077     88.83080     90.00122      8.50000
       1601.26680    551.38687     92.85028     92.50000      8.50000
       1601.41920    551.34618     89.09875     93.24999      8.50000
       1601.57160    549.44879     84.94528     92.58446      8.50000
       1601.72400    549.57131     80.95258     92.41554      8.50000
       1601.87640    548.47919     80.14868     89.25062      8.50000
       1602.02880    548.16356     81.62251     88.74999      8.50000
       1602.18120    548.81641     85.07926     90.83555      8.50000
       1602.33360    552.52935     82.80155     88.33741      8.50000
       1602.48600    552.32522     87.89291     91.66851      8.50000
       1602.63840    553.75344     89.23274     88.24999      8.50000
       1602.79080    553.90563     92.58232     90.00000      8.50000
       1602.94320    557.54776     90.43858     90.25000      8.50000
       1603.09560    556.67056     89.51857     91.67360      8.50000
       1603.24800    550.97884     90.99239     88.24999      8.50000
       1603.40040    548.20448     93.67204     89.25001      8.50000
       1603.55280    554.19136     98.87952     93.74999      8.50000
       1603.70520    557.20111    101.55920    100.25000      8.50000
       1603.85760    555.36487     98.34359    100.25061      8.50000
       1604.01000    554.20215     96.46783     95.50000      8.50000
       1604.16240    558.40473    100.21930     92.41554      8.50000
       1604.31480    557.36432    103.03300     91.75062      8.50000
       1604.46720    548.85710    102.22910     99.50001      8.50000
       1604.61960    551.20320    101.15720    100.83912      8.50000
       1604.77200    557.73143    106.88280    102.00001      8.50000
       1604.92440    558.76105    110.36630     98.41553      8.50000
       1605.07680    555.67106    109.42850     98.33509      8.50000
       1605.22920    554.63064    108.52630     98.41553      8.50000
       1605.38160    552.03972    110.00010     99.25001      8.50000
       1605.53400    552.97807    110.80400     97.75000      8.50000
       1605.68640    557.85395    119.37890     99.16257      8.50000
       1605.83880    558.77185    128.48980    102.00001      8.50000
       1605.99120    556.54826    138.27050    104.16613      8.50000
       1606.14360    550.28531    139.97660    105.74999      8.50000
       1606.29600    544.40993    138.77070    105.74999      8.50000
       1606.44840    548.85710    134.48330    107.50000      8.50000
       1606.60080    552.91692    120.98670    108.49999      8.50000
       1606.75320    552.19191    106.78450    109.25001      8.50000
       1606.90560    549.75476    102.22910    102.00001      8.50000
       1607.05800    554.69179    110.67000    101.66260      8.50000
       1607.21040    554.22261    122.99650     86.91457      8.50000
       1607.36280    550.02003    127.38220     95.99999      8.50000
       1607.51520    551.81513    126.57830     98.50344      8.50000
       1607.66760    555.34463    127.65010    105.50000      8.50000
       1607.82000    555.21941    130.36560    103.49999      8.50000
       1607.97240    551.46848    136.12680    105.74999      8.50000
       1608.12480    546.69466    137.19870    106.74998      8.50000
       1608.27720    547.63324    136.79670    107.58446      8.50000
       1608.42960    552.12132    129.82960    108.24999      8.50000
       1608.58200    554.71225    117.67290    108.40438      8.50000
       1608.73440    555.07936    105.21250    102.56895      8.50000
       1608.88680    546.34800    103.33670     93.24999      8.50000
       1609.03920    544.61383    107.72240     85.74938      8.50000
       1609.19160    550.72144    119.91490     86.75001      8.50000
       1609.34400    552.03972    130.63350     94.77704      8.50000
       1609.49640    553.30449    138.50280    105.99993      8.50000
       1609.64880    556.36459    139.42010    108.41553      8.50000
       1609.80120    554.87546    135.39160    107.50000      8.50000
       1609.95360    555.73220    132.47970    105.00000      8.50000
       1610.10600    550.22393    138.79760    103.24999      8.50000
       1610.25840    549.30604    142.15610    104.25001      8.50000
       1610.41080    550.81563    147.78330    104.25001      8.50000
       1610.56320    552.17303    139.74440    106.50002      8.50000
       1610.71560    552.32522    126.48000    106.74998      8.50000
       1610.86800    548.44907    114.28760    100.25000      8.50000
       1611.02040    544.04259    115.54700     89.50001      8.50000
       1611.17280    545.91952    123.85400     93.00106      8.50000
       1611.32520    544.83841    128.40940     92.00001      8.50000
       1611.47760    550.14255    126.88200     98.41894      8.50000
       1611.63000    555.12432    124.60430     99.25001      8.50000
       1611.78240    546.67443    127.81990     95.00000      8.50000
       1611.93480    549.69361    126.07810     94.16552      8.50000
       1612.08720    550.16279    117.77110     94.24998      8.50000
       1612.23960    548.85710    118.22670     95.37500      8.50000
       1612.39200    547.04154    122.51410     91.62157      8.50000
       1612.54440    545.63401    135.64450     93.49999      8.50000
       1612.69680    547.42911    135.18890     98.49999      8.50000
       1612.84920    545.85837    135.04600     99.25001      8.50000
       1613.00160    545.38897    132.50040     95.99999      8.50000
       1613.15400    544.85864    131.16050     93.24938      8.50000
       1613.30640    544.83841    124.33630     91.75001      8.50000
       1613.45880    544.70915    116.69930     89.99784      8.50000
       1613.61120    544.28741    110.67000     87.50000      8.50000
       1613.76360    541.41097    110.26810     83.16553      8.50000
       1613.91600    543.41020    114.42160     84.50001      8.50000
       1614.06840    544.20580    115.35950    102.07639      8.50000
       1614.22080    543.87938    117.58360     96.24639      8.50000
       1614.37320    542.73690    115.17190     93.50395      8.50000
       1614.52560    542.24749    106.86490     89.16336      8.50000
       1614.67800    541.30891     96.19986     92.49875      8.50000
       1614.83040    545.90873     93.52020     91.18750      8.50000
       1614.98280    547.26590    114.68950     81.32640      8.50000
       1615.13520    548.20425    134.85840     71.66552      8.50000
       1615.28760    557.69074    144.77320     80.99999      8.50000
       1615.44000    562.68869    131.29450     94.49373      8.50000
       1615.59240    562.62754    118.76260    103.25124      8.50000
       1615.74480    554.20215    112.46540     95.00000      8.50000
       1615.89720    546.49076    115.46660     86.82639      8.50000
       1616.04960    544.65205    118.01230     78.75063      8.50000
       1616.20200    547.18429    116.44020     82.41554      8.50000
       1616.35440    545.14438    119.41470     85.99999      8.50000
       1616.50680    547.20475    113.89460     85.58446      8.50000
       1616.65920    548.85710    109.16940     86.75001      8.50000
       1616.81160    548.75526     94.29730     80.99999      8.50000
       1616.96400    552.08041     88.54496     73.12439      8.50000
       1617.11640    550.21180     84.12351     71.99937      8.50000
       1617.26880    548.23887     86.13326     70.83448      8.50000
       1617.42120    550.42132     93.38622     71.58447      8.50000
       1617.57360    553.75344    108.91040     73.49999      8.50000
