~VERSION INFORMATION 
VERS  .    2.0                                     :CWLS Log ASCII Standard - VERSION 2.0
WRAP  .    NO                                      :One Line per Depth step
PROD  .    Schlumberger Technology Corp.           :LAS Producer
PROG  .    Horizon LASWriter 13.0.221437.3100      :LAS Program name and version
SOURCE.    S1R1-Log[4]/Up                          :Run&Pass Information
CREA  .    07/28/2024                              :LAS Creation date {MM/DD/YYYY}
#--------------------------------------------------
~WELL INFORMATION 
#MNEM           .UNIT                      DATA            :DESCRIPTION
#----            ------          --------------            -----------------------------
STRT            .m                   1495.04400            :START DEPTH
STOP            .m                   2360.37120            :STOP DEPTH
STEP            .m                       0.1524            :STEP
NULL            .                       -999.25            :NULL VALUE
COMP            .                PT Pertamina EP           :COMPANY
WELL            .                BNG-059 (BNG-H1)          :WELL NAME
FLD             .                         Adera            :FIELD NAME
RIGN            .                                          :Rig Name
RIGTYP          .                          Land            :Rig Type
SON             .                A.1009322.17.2            :Service Order Number
SRVC            .                  Schlumberger            :SERVICE COMPANY
DATE            .                    07/28/2024            :LOG DATE(Composite Date for Composite LAP) (MM/DD/YYYY)
CLAB            .                     Rig Name:            :County Label
CNTY            .                South Sumatera            :COUNTY
SLAB            .                     Province:            :State/Province Label
STAT            .                 South Sumatra            :STATE or PROVINCE
PROV            .                 South Sumatra            :STATE or PROVINCE
CTRY            .                     Indonesia            :COUNTRY
CONT_REGION     .                          Asia            :Continent Region
SECT            .                                          :Section
TOWN            .                                          :Township
RANG            .                                          :Range
API             .                                          :API NUMBER
UWI             .                                          :UNIQUE WELL ID
LUL             .                      ING/IDPR            :Logging Unit Location
LUN             .                   OSLC-E 2349            :Logging Unit Number
LOC             .                         Adera            :FIELD LOCATION
FL1             .                X: 397,029.172            :Field Location Line 1
FL2             .                Y: 9,625,078.797          :Field Location Line 2
LATI            .deg             3° 23' 29.559" S          :LATITUDE
LONG            .deg             104° 4' 22.998" E         :LONGITUDE
PDAT            .                           MSL            :Local Permanent Datum
LMF             .                            DF            :Logging Measured From
APD             .m                        25.78            :Elevation of Depth Reference (LMF) Above Permanent Datum
EPD             .m                         0.00            :Elevation of Permanent Datum (PDAT) above Mean Sea Level
EKB             .m                        25.78            :Elevation of Kelly Bushing Above Permanent Datum
EDF             .m                        25.78            :Elevation of Drill Floor Above Permanent Datum
EGL             .m                        16.64            :Elevation of Ground Level Above Permanent Datum
ECF             .m                      -999.25            :Elevation of Casing Flange above Permanent Datum
#--------------------------------------------------
~CURVE INFORMATION
#MNEM           .UNIT                  API CODE            :DESCRIPTION
#----            ------          --------------            -----------------------------
DEPT            .m                                         :                                                        Depth Index
HTEN            .lbf                                       :        (LEH-QT)                (6in)                   Head Tension
GR_CAL          .gAPI                                      :        (SGT-N)                 (6in)                   Calibrated Gamma Ray
DT_BHC          .us/ft                                     :        (MAST-B)                (6in)                   1.5 Feet Span Borehole Compensated Slowness from Near Spacing
BS              .in                                        :(RT)    (Borehole)              (6in)                   Bit Size
#-------------------------------------------------------------
#            DEPT         HTEN       GR_CAL       DT_BHC           BS 
#                     (LEH-QT)      (SGT-N)     (MAST-B)   (Borehole) 
#                                                                (RT) 
#                        (6in)        (6in)        (6in)        (6in) 
~ASCII
# ...
       1775.46000    542.51951    153.50890     89.16833      8.50000
       1775.61240    543.57341    155.31320     89.16616      8.50000
       1775.76480    548.80292    161.44070     89.24937      8.50000
       1775.91720    553.77367    166.09440     89.25001      8.50000
       1776.06960    536.06457    163.71840     90.00000      8.50000
       1776.22200    540.12035    160.09190     91.20948      8.50000
       1776.37440    544.70915    163.19140     90.00000      8.50000
       1776.52680    556.97652    170.19430     89.16552      8.50000
       1776.67920    575.65005    177.94740     89.16552      8.50000
       1776.83160    577.35680    169.81910     90.99999      8.50000
       1776.98400    582.71400    166.31770     90.99999      8.50000
       1777.13640    580.56235    159.61850     90.83104      8.50000
       1777.28880    574.27917    161.36920     87.58446      8.50000
       1777.44120    567.99306    158.86820     88.33104      8.50000
       1777.59360    576.25928    158.73420     85.83509      8.50000
       1777.74600    583.83737    158.23400     87.49659      8.50000
       1777.89840    587.87404    163.98640     85.83448      8.50000
       1778.05080    565.91200    167.31810     88.33445      8.50000
       1778.20320    558.70395    167.94330     89.83447      8.50000
       1778.35560    558.01716    173.68670     92.25123      8.50000
       1778.50800    570.16629    186.56700     93.33790      8.50000
       1778.66040    569.63304    191.44400     93.49999      8.50000
       1778.81280    568.27857    176.82190    108.24999      8.50000
       1778.96520    561.27442    149.35540    107.84132      8.50000
       1779.11760    562.66419    132.34850     98.74999      8.50000
       1779.27000    560.81738    124.09510     81.66552      8.50000
       1779.42240    550.24439    124.42560     75.08446      8.50000
       1779.57480    548.51719    132.92910     73.24938      8.50000
       1779.72720    553.27729    144.18370     73.00000      8.50000
       1779.87960    556.56872    154.06270     74.25001      8.50000
       1780.03200    549.94517    158.43950     75.00000      8.50000
       1780.18440    540.38675    163.94170     74.91554      8.50000
       1780.33680    542.10046    167.81830     76.66552      8.50000
       1780.48920    548.83686    164.31690     80.00000      8.50000
       1780.64160    547.73642    160.25270     82.50000      8.50000
       1780.79400    554.47687    154.50040     85.00000      8.50000
       1780.94640    561.19821    157.00140     86.50001      8.50000
       1781.09880    554.45776    151.49130     87.50000      8.50000
       1781.25120    547.54601    145.23880     89.25001      8.50000
       1781.40360    551.71329    125.19490     91.24999      8.50000
       1781.55600    550.78303     99.50478    101.24999      8.50000
       1781.70840    545.68010     76.65620    106.49023      8.50000
       1781.86080    563.48429     71.81493    129.23779      8.50000
       1782.01320    584.01002     87.82144    135.00000      8.50000
       1782.16560    576.44970    110.79510    128.49999      8.50000
       1782.31800    576.94877    129.05250    125.00000      8.50000
       1782.47040    565.00625    141.96850     99.75001      8.50000
       1782.62280    555.77155    150.09680     87.99939      8.50000
       1782.77520    572.69876    154.47360     87.50000      8.50000
       1782.92760    574.94955    162.31610     90.83448      8.50000
       1783.08000    562.49288    162.31610     90.74999      8.50000
       1783.23240    554.99101    165.94250     93.49999      8.50000
       1783.38480    578.51974    165.56740     95.00000      8.50000
       1783.53720    575.47852    169.06880    107.59815      8.50000
       1783.68960    569.46174    166.94290    101.66336      8.50000
       1783.84200    555.90486    160.14550    101.49998      8.50000
       1783.99440    562.53110    138.26160    100.99999      8.50000
       1784.14680    568.19696    107.12390    102.50000      8.50000
       1784.29920    554.09604     71.90426    104.25001      8.50000
       1784.45160    558.30402     55.27248    121.75001      8.50000
       1784.60400    565.46328     55.89775    128.74999      8.50000
       1784.75640    568.14795     63.40080    113.74999      8.50000
       1784.90880    561.19821     70.66268     89.65000      8.50000
       1785.06120    552.85847     75.41461     72.10001      8.50000
       1785.21360    549.95889     76.16492     67.50000      8.50000
       1785.36600    550.72593     72.65456     70.74999      8.50000
       1785.51840    544.89933     68.53682     73.33680      8.50000
       1785.67080    551.01144     67.41136     76.58447      8.50000
       1785.82320    568.22416     66.41095     78.74999      8.50000
       1785.97560    571.62417     64.65130     77.25001      8.50000
       1786.12800    563.40696     60.98910     83.00000      8.50000
       1786.28040    556.70473     62.86486     84.08679      8.50000
       1786.43280    548.93600     65.86609     67.25007      8.50000
       1786.58520    540.08213     74.65538     85.00000      8.50000
       1786.73760    540.98249     82.40854     84.25062      8.50000
       1786.89000    541.54833     94.91363     82.49939      8.50000
       1787.04240    541.24372    111.79550     78.33384      8.50000
       1787.19480    545.16596    123.67530     77.66554      8.50000
       1787.34720    552.57004    133.77760     79.91554      8.50000
       1787.49960    561.52193    140.40530     79.25001      8.50000
       1787.65200    573.34598    148.53360     79.99936      8.50000
       1787.80440    562.98791    150.43620     80.00000      8.50000
       1787.95680    561.21732    150.43620     80.99999      8.50000
       1788.10920    612.74105    153.93770     83.16553      8.50000
       1788.26160    641.77783    158.56450     84.25062      8.50000
       1788.41400    599.52678    155.60800     86.58448      8.50000
       1788.56640    561.50282    153.85730     85.00061      8.50000
       1788.71880    545.51149    151.48130     85.74999      8.50000
       1788.87120    543.60466    152.81220     86.75001      8.50000
       1789.02360    555.79065    158.31440     89.25001      8.50000
       1789.17600    558.51354    163.40580     90.00000      8.50000
       1789.32840    559.78933    163.65590     89.25001      8.50000
       1789.48080    558.51354    160.65470     90.08446      8.50000
       1789.63320    560.37945    163.19140     91.58448      8.50000
       1789.78560    555.06722    166.03180     92.50000      8.50000
       1789.93800    553.12509    166.65710     91.99937      8.50000
       1790.09040    555.33362    162.53040     92.50000      8.50000
       1790.24280    558.69024    167.06800     91.66552      8.50000
       1790.39520    561.17910    167.44310     90.00000      8.50000
       1790.54760    555.27652    163.56660     90.91553      8.50000
       1790.70000    567.52366    158.09110     89.25001      8.50000
       1790.85240    585.43688    152.71390     85.74999      8.50000
       1791.00480    582.88530    159.21660     86.58448      8.50000
       1791.15720    587.01729    169.94420     87.25001      8.50000
       1791.30960    585.39867    179.69810     88.24999      8.50000
       1791.46200    581.43821    179.73380     93.77123      8.50000
       1791.61440    577.40176    180.60920     96.50062      8.50000
       1791.76680    575.30722    184.61080    100.74999      8.50000
       1791.91920    571.88001    188.07650    105.25000      8.50000
       1792.07160    569.99498    168.94370    110.00000      8.50000
       1792.22400    563.25993    136.75210    115.00000      8.50000
       1792.37640    557.44727    104.36390    104.50001      8.50000
       1792.52880    575.61183     86.35657     95.25000      8.50000
       1792.68120    588.39357     79.40731    102.12501      8.50000
       1792.83360    580.81009     77.51369     72.34452      8.50000
