~Version Information
 VERS.                  2.0:   CWLS log ASCII Standard -VERSION 2.0
 WRAP.                   NO:   One line per depth step
~Well Information Block
#MNEM.UNIT     VALUE/NAME     DESCRIPTION
#---------     -----------    ---------------------------
 STRT.M              1700.1000: START DEPTH
 STOP.M              2733.9000: STOP DEPTH
 STEP.M                 0.1500: STEP DEPTH
 NULL.               -999.2500: NULL VALUE
 CNTY.         Tanjung Benuang:  COUNTY NAME
 CTRY.               Indonesia:  COUNTRY NAME
 PROV.          South Sumatera:  PROVINCE
 STAT.          South Sumatera:  STATE NAME
 FLD .                 Benuang:  FIELD NAME
 DATE.      15.00.00 14-May-24:  END TIME
 WELL.                  BNG-B3:  WELL NAME
 COMP.     PHR Region 1 Zona 4:  COMPANY
 API .                        :  API NUMBER
 SRVC.             Halliburton:  SERVICE COMPANY
 UWI .                        :  UNIQUE WELL IDENTIFIER
 LOC .                        :  LOCATION
~Parameter Information Block
#MNEM.UNIT       Value        Description
#---------     -----------    ---------------------------
 AV  .fpm             311.0000:  Ann Velocity 
 AVMX.fpm             315.0000:  Max Ann Veloc 
 AZIF.deg             294.2000:  Azm, Final 
 BHAT.        Rotary Steerable:  BHA Type 
 BROT.°/100'            0.2000:  Build Rotating 
 BS  .in                8.5000:  Bit Size 
 BSZ .in                8.5000:  Bit Size 
 BTPL.psig            496.0000:  Bit Press Loss 
 CABU.                      No:  Customer Abuse 
 CGEO.           Achmad Gazali:  Customer Geo 
 COMM.                     üQb:  Run Comments 1 
 TCS .hr               88.2729:  Time Ciculation Ended 
 CV  .fpm             378.0000:  Crit Velocity 
 CVMX.fpm             380.0000:  Max Crit Veloc 
 DD1 .          Yudi Kurniawan:  Direct Drillr 1 
 DD2 .               Aminuddin:  Direct Drillr 2 
 DDSV.               Geo-Pilot:  DD Service 
 DEFF.%               100.0000:  % Det Eff 
 DLRX.°/100'            0.5000:  Dogleg Rot Max 
 DLSO.°/100'            1.1000:  Dogleg Oriented 
 DLSX.°/100'            2.1900:  Dogleg Str Max 
 DRET.      10.25.00 13-May-24:  Drill End Time 
 DRST.      23.00.00 09-May-24:  Drill Start Tim 
 DTIM.hr               52.9642:  Time Drilling 
 EDEP.m              2734.0000:  End Depth 
 ENG1.      Andika BP Pulungan:  Engineer 1 
 ENG2.         Edward Joshua M:  Engineer 2 
 ENG3.       Pandamama Siahaan:  Engineer 3 
 ENG4.        Siti Nurfitriani:  Engineer 4 
 ETIM.      18.45.00 14-May-24:  End Time 
 FLOI.gpm             550.0000:  Flow In 
 FLON.gpm             400.0000:  Flow In Min 
 FLOS.mptm              4.2000:  Fluid Loss 
 FLOX.gpm             600.0000:  Flow In Max 
 DFT .                 Polymer:  Mud Type 
 HPRE.                      No:  High Pressure 
 HTEM.                      No:  High Temp 
 HYDO.m                 0.0000:  Hydro Offset 
 IFIN.deg              25.6000:  Inc, Final 
 IMAX.deg              26.9023:  Inc Max 
 IMIN.deg              20.4496:  Inc Min 
 IMND.m              2580.0901:  Inc Min Depth 
 IMXD.m              2034.3999:  Inc Max Depth 
 JARR.                      No:  Jarring 
 LETM.      10.25.00 13-May-24:  Log End Time 
 LOST.hr                     0:  Lost Rig Time 
 LSTM.      23.00.00 09-May-24:  Log Start Time 
 MDCL.ppm           42000.0000:  Mud Chlorides 
 MDES.             Fresh Water:  Mud Desc 
 DFD .SG                1.3000:  Mud Density 
 MDMN.SG                1.2500:  Dens Mud Min 
 MDMX.SG                1.3000:  Dens Mud Max 
 PH  .pH               10.0000:  Mud pH 
 MOIL.                       0:  Run Mud Oil % 
 MOWR.                   0 100:  Run Mud OWR 
 MSND.                     0.2:  Run Mud Sand % 
 MSOL.                     8.9:  Run Mud Solids% 
 DFV .spqt             80.0000:  Mud Viscosity 
 MWOD.in                6.7500:  MWD Tool OD 
 MWSI.                      No:  Serv Intrp, MWD 
 OTIM.hr              124.1140:  Time Operating 
 PMAX.psig           3200.0000:  Press Op, Max 
 PV  .cP               24.0000:  Mud PV 
 RMS .ohmm              0.0800:  Mud Resistivity 
 RMCS.ohmm              0.1050:  Mud Cake Resistivity 
 MCST.degF             81.0000:  Mud Cake Sample Temperature 
 RMFS.ohmm              0.0500:  Mud Filtrate Resistivity 
 RMFT.degF             81.0000:  Mud Filtrate Sample Temperature 
 RMMT.ohmm              0.0525:  Rm @ Max Temp 
 MST .degF             82.0000:  Mud Sample Temperature 
 RUN .                     500:  Run Number 
 ROPA.m/hr             30.0000:  ROP Avg 
 ROPN.m/hr              5.0000:  ROP Min 
 ROPX.m/hr             40.0000:  ROP Max 
 RPMA.rpm             120.0000:  RPM Surface Avg 
 RPMN.rpm              80.0000:  RPM Surface Min 
 RPMX.rpm             130.0000:  RPM Surface Max 
 RRUN.                     500:  Rig Run Number 
 RTIM.hr               10.0000:  Time Reaming 
 SAZI.deg             296.4800:  Azm, Start 
 SDEP.m              1782.9999:  Start Depth 
 SIDD.                      No:  Serv Intrp, DD 
 SINC.deg              23.5300:  Inc, Start 
 SPPA.psig           3000.0000:  SPP Avg 
 SPPN.psig           2000.0000:  SPP Min 
 SPPX.psig           3100.0000:  SPP Max 
 STIM.      10.00.00 09-May-24:  Start Time 
 SVCS.                 DD, MWD:  Services 
 SVER.                  9.2000:  Sperry Version 
 TDAT.m               951.0001:  Tot Depth Attmp 
 TDDF.                      No:  Trip for DD 
 TDLG.m               951.0001:  Tot Depth Loggd 
 TFF .                      No:  Trip for Fail 
 TQAA.f-p           15000.0000:  Torque Abs Avg 
 TQAN.f-p            7000.0000:  Torque Abs Min 
 TQAX.f-p           18000.0000:  Torque Abs Max 
 TRRT.°/100'            0.2000:  Turn Rotating 
 MRT .                  EWR-P4:  Maximum Recorded Temperature 
 TTMX.degC            101.9000:  Max Tool Temp 
 VS01.        JK90757141L2N1-6:  Virtual Str1 SN 
 VS02.     DR90758460H1WGV2R-6:  Virtual Str2 SN 
 WBMN.klb               5.0000:  WOB Min 
 WITN.            Eko Agustian:  Customer Rep 2 
 WITN.            Bagus Ardika:  Customer Rep 
 WOBA.klb              20.0000:  WOB Avg 
 WOBX.klb              30.0000:  WOB Max 
 YP  .lhf2             30.0000:  Yield Point 
~Curve Information Block
#MNEM.UNIT                 API CODE     Curve Description
#---------               -----------    ---------------------------
 DEPT.M                 00 000 000 000:  Depth
 TVD .m                 00 000 000 000:  True Vertical Depth
 ROPA.m/hr              00 000 000 000:  Avg Rate of Penetration
 DGRCC.api              00 000 000 000:  DGR Comb Gamma Ray BCorr
 DGDD.ptpm              00 000 000 000:  DGR Data Density
 R09PC.ohmm             00 000 000 000:  9in Phase Resistivity BC
 R15PC.ohmm             00 000 000 000:  15in Phase Resistivity BC
 R27PC.ohmm             00 000 000 000:  27in Phase Resistivity BC
 R39PC.ohmm             00 000 000 000:  39in Phase Resistivity BC
 EWDD.ptpm              00 000 000 000:  EWR Data Density
 EWXT.hr                00 000 000 000:  EWR Formation Exp Time
 EWTEMP.degC            00 000 000 000:  EWR Temperature
 ALCDLC.g/cc            00 000 000 000:  ALD LCRB Comp Density
 ALDD.ptpm              00 000 000 000:  ALD Data Density
 TNPL.v/v               00 000 000 000:  CTN Porosity Limestone
 TNPS.v/v               00 000 000 000:  CTN Porosity Sandstone
 TNDD.ptpm              00 000 000 000:  CTN Data Density
#Other Information
#Environmental Parameters (and sensors to which they are applied)
#Hole Size 		: 8.5" (all sensors)
#Tool Size 			: 6.75"
#Mud Type 		: WBM (Gamma Ray)
#Mud Weight 		: 1.25 - 1.30 SG (Gamma Ray)
#KCl Concentration by Weight 	: 4.21 - 5.05 pbw (Gamma Ray)
#Mud Resistivity at BHT 	: 0.07  ohmm @101.9 degC (Resistivity)
#Fluid Density 		: 1.00 g/cc (Density)
#Neutron Tool Lithology	: Limestone (Porosity)
#Whole Mud Chlorides 	: 28800 - 33426 ppm (Porosity)
#Formation Water Salinity 	: 20000 ppm Cl- (Porosity)
#Pressure and Temperature 	: from PWD and EWR (Density, Porosity)
#
#Comments:
#1) All depth are calibrated to the drillers pipe tally and are measured from drill floor.
#2) No depth correction have been made for pipe stretch or compression.
#3) LWD Resistivity Tool utilized in this run is EWRP4, with spacing configuration as below:
#    - Deep Resistivity = 39in Spacing / 1 Mhz Frequency
#    - Medium Resistivity = 27in Spacing / 2 MHz Frequency
#    - Shallow Resistivity = 15in Spacing / 2 MHz Frequency
#    - XShallow Resistivity = 9in Spacing /2 MHz Frequency
#4) CTN Alloy type used for CTN data processing is Mid Nickle.
#5) Density reading might be affected by detector standoff to borehole wall while sliding.
#6) All data presented is Memory data unless otherwise stated.
#WARRANTY: Halliburton will use its best efforts to furnish customers with 
#accurate information and interpretations that are part of, and incident to, the services 
#provided.  However, Halliburton cannot and does not warrant the accuracy 
#or correctness of such information and interpretations.  Under no circumstances should any 
#such information or interpretation be relied upon as the sole basis for any drilling, 
#completion, production, or financial decision or any procedure involving any risk to the 
#safety of any drilling venture, drilling rig or its crew or any other third party.  The 
#Customer has full responsibility for all drilling, completion and production operation.  
#Halliburton makes no representations or warranties, either expressed or 
#implied, including, but not limited to, the implied warranties of merchantability or fitness 
#for a particular purpose, with respect to the services rendered.  In no event will 
#Halliburton be liable for failure to obtain any particular results or for 
#any damages, including, but not limited to, indirect, special or consequential damages, 
#resulting from the use of any information or interpretation provided by Halliburton.
#
~A   DEPT       TVD      ROPA      DGRCC     DGDD      R09PC     R15PC     R27PC     R39PC     EWDD      EWXT     EWTEMP    ALCDLC      ALDD      TNPL      TNPS       TNDD    
# ...
   2583.3000 2399.6104   25.5248   76.8626   23.1250   19.7153   22.8434   24.5199   28.7662   12.7612    1.5659   97.0459    2.5090    27.8609    0.1232    0.1668    19.6278
   2583.4500 2399.7512   25.4256   93.1596   22.1719   18.2687   26.1427   26.7232   30.9960   11.8794    1.5650   97.0459    2.4833    24.5595    0.1321    0.1758    20.3049
   2583.6000 2399.8884   24.7148   97.4293   23.8921   20.2751   24.6924   24.8737   27.8882   12.1456    1.5640   97.0459    2.4923    23.3109    0.1264    0.1701    22.6725
   2583.7500 2400.0303   24.6154   90.7973   23.5520   12.0824   18.2872   21.0265   25.0217   13.7051    1.5632   97.0459    2.4531    21.5614    0.1209    0.1646    19.0471
   2583.9000 2400.1755   24.9780   75.4097   19.0082   17.9241   29.4552   31.5230   33.1980   19.3086    1.5639   97.0459    2.4649    23.4652    0.1176    0.1613    32.0224
   2584.0500 2400.3076   23.5192   74.6108  116.8805  253.7516  108.1268   52.6290   44.2060   18.5933    1.5653   97.0459    2.4899    22.7052    0.1179    0.1615    59.5515
   2584.2000 2400.4502   22.9106   92.5216   59.8867  743.7776  170.2204   49.7665   37.2027  172.0998    1.5711   97.0459    2.4814    14.9604    0.1348    0.1785    35.6021
   2584.3500 2400.5930   24.4404   83.8427   25.7493   67.6549   25.6827   20.5806   22.4125  277.1396    1.5777   97.0728    2.4652    13.5379    0.1316    0.1754    27.0140
   2584.5000 2400.7327   24.6469   79.2768   90.8597   12.0881   15.9643   18.3347   21.2556   12.3524    1.5817   97.4970    2.4547    20.5101    0.1251    0.1689    25.1572
   2584.6500 2400.8704   24.0345   78.9694   25.1755   18.0679   25.1642   25.6151   27.6578   13.7545    1.5809   97.6563    2.4574    22.0796    0.1244    0.1682    13.3498
   2584.8000 2401.0132   24.5806   79.3571   12.3396   22.3683   30.4831   28.6674   29.9557   18.9849    1.5816   97.6563    2.4713    21.6228    0.1241    0.1678    12.4317
   2584.9500 2401.1521   25.1139   90.8044   12.5740   15.4582   19.5879   20.1613   22.4039   15.9973    1.5825   97.6563    2.4626    20.5195    0.1304    0.1742    49.0907
   2585.1000 2401.2939   25.0204   85.8277   16.0409   14.4475   18.0575   19.5514   21.4739   17.5605    1.5830   97.6563    2.4610    18.6595    0.1328    0.1766    42.4650
   2585.2500 2401.4307   24.8551   88.5520   26.8876   12.6046   16.6474   17.4942   19.4516   18.5874    1.5847   97.6563    2.4795    20.7363    0.1343    0.1780    28.4378
   2585.4000 2401.5725   25.1809   89.3943   23.4721   13.7112   18.0973   18.7010   20.6715   17.3708    1.5863   97.6563    2.4875    20.1464    0.1304    0.1742    25.9546
   2585.5500 2401.7144   26.0846   97.2950   74.4586   17.1042   20.9657   20.1492   22.0912   15.9766    1.5874   97.6563    2.4798    21.0143    0.1360    0.1797    18.5100
   2585.7000 2401.8560   25.8587   95.3487  431.3333   14.9437   19.1527   18.6653   20.3874   19.7836    1.5886   97.6563    2.4776    21.1051    0.1331    0.1768    18.1175
   2585.8500 2401.9910   24.5645   99.7713 1973.6638   13.4772   17.2247   17.3177   18.7125   13.4540    1.5883   97.6563    2.4801    23.6626    0.1289    0.1727    15.0837
   2586.0000 2402.1321   24.6724   93.0934  278.3875   10.7783   13.0913   14.0937   16.2028   17.0844    1.5886   97.6563    2.4687    20.9810    0.1221    0.1658    22.3825
   2586.1500 2402.2773   26.4751   82.6712   25.9490   10.7862   13.5950   14.9491   17.4082   19.3472    1.5908   97.6563    2.4419    20.6046    0.1148    0.1584    27.7518
   2586.3000 2402.4148   26.1976   69.7975   16.4936   10.1625   14.0401   15.3013   17.8700   17.9827    1.5919   97.6563    2.4783    22.2380    0.1127    0.1562    37.4858
   2586.4500 2402.5530   24.5623   72.8078   20.8002   11.2822   15.8016   17.0647   19.5182   24.1930    1.5945   97.6563    2.5315    25.9492    0.1239    0.1676    26.3542
   2586.6000 2402.6978   24.4386   85.3477   20.5367   13.0700   17.2537   18.8734   20.9548   16.8841    1.5959   97.6563    2.5775    28.5064    0.1353    0.1791    25.0880
   2586.7500 2402.8352   23.7798  109.5682   23.3495   20.9334   24.2415   22.8107   23.7987   15.2453    1.5955   97.6563    2.5759    29.7227    0.1402    0.1839    24.2654
   2586.9000 2403.0024   11.8773  119.4521   22.0156   13.1996   14.9086   15.1773   16.7638   14.3432    1.5860   97.6563    2.5607    25.9961    0.1363    0.1800    24.8694
   2587.0500 2403.0491    9.0018  121.9204   21.0849   14.1464   16.8020   16.4447   17.8244   19.9051    1.5673   97.6563    2.5135    20.5768    0.1272    0.1709    27.3980
   2587.2000 2403.2542   11.3925  104.5694   27.9305   22.1116   26.0004   21.8776   21.7737   21.6460    1.5609   97.6563    2.5513    24.2393    0.1214    0.1652    27.9040
   2587.3500 2403.3950   28.7682  117.2944   16.4358   14.1320   18.1708   17.0572   17.9864   24.0568    1.5643   97.6726    2.5141    24.0974    0.1239    0.1676    24.6588
   2587.5000 2403.5354   30.2012  121.8625   16.6860   12.7350   15.2073   15.7910   17.2445   22.3458    1.5689   98.0492    2.4541    21.6891    0.1114    0.1549    23.1672
   2587.6500 2403.6824   29.3760   87.0596   18.9179   10.5359   13.6173   15.0125   16.7624   22.1041    1.5724   98.2666    2.4458    19.8827    0.0991    0.1423    21.5704
   2587.8000 2403.8135   26.2795   65.6259   20.3733    9.5278   13.5725   16.0541   18.5227   74.3265    1.5748   98.2666    2.4439    23.2719    0.1003    0.1437    23.3413
   2587.9500 2403.9565   23.8725   57.2099   21.5559    9.6671   14.0113   16.7663   19.3496  138.6303    1.5781   98.2666    2.4551    20.7735    0.1114    0.1550    75.4397
   2588.1000 2404.0920   23.8377   58.1734   19.9516    9.1061   13.2599   15.4961   17.8834   15.2044    1.5797   98.2666    2.4784    24.5922    0.1134    0.1571    40.3984
   2588.2500 2404.2393   24.5506   65.2973   25.6121   16.2303   23.0793   23.2109   25.0106   54.2299    1.7312   98.2666    2.4696    28.0440    0.1135    0.1571    12.9631
   2588.4000 2404.3738   24.1500   64.8439   55.7794   16.3711   23.3201   23.3861   25.1723   49.7537    1.7384   98.2666    2.4808    23.6358    0.1173    0.1610    19.8597
   2588.5500 2404.5178   22.0115   71.6042   36.0957   13.6802   19.6619   19.7540   22.1059   11.9280    1.8821   98.2666    2.4829    25.9423    0.1241    0.1678    21.9882
   2588.7000 2404.7341   11.0338   79.4277   29.8548   13.7909   20.3913   20.9646   23.7573   12.2259    1.7418   98.2666    2.4574    25.9501    0.1327    0.1764    21.6897
   2588.8500 2404.7690    7.0473   92.0781   19.0770   21.8638   32.9847   29.8619   29.1406   13.9714    1.2932   98.2666    2.4789    35.2479    0.1291    0.1729    20.4951
   2589.0000 2404.8462    4.1738   93.5987   15.1184   75.6402  158.1602   42.3153   39.2022   21.6578    0.9535   98.2666    2.5592   115.2699    0.1275    0.1712    18.7330
   2589.1500 2405.1060   14.1822  104.4549   12.2016  179.9148  393.0715   63.3297   50.7379   27.3987    0.9187   98.2666    2.5681    44.8278    0.1348    0.1786    20.5973
   2589.3000 2405.1606   11.7146  123.8036   35.3419   24.4871   31.6819   30.0281   31.2565   43.0189    0.9099   98.2666    2.5667    18.9686    0.1364    0.1801    20.3321
   2589.4500 2405.3550   12.2840  123.9934   48.1006   23.0029   27.4156   28.1315   29.8630  171.8437    0.9156   98.2666    2.5931    26.0550    0.1353    0.1790    20.9327
   2589.6000 2405.4980   27.7154  126.1125   25.3247   23.0102   26.9686   27.4510   30.2556  135.7470    0.9235   98.2666    2.6148    24.3711    0.1414    0.1851    21.4038
   2589.7500 2405.6353   27.9158  136.9074   29.3776   20.6349   25.2574   26.0896   29.5698   91.9550    0.9335   98.2666    2.5827    22.8362    0.1457    0.1894    23.4050
   2589.9000 2405.7827   26.0400  139.8657   18.6009   19.9251   25.5529   26.8359   30.2726   31.2851    0.9425   98.2666    2.4625    19.6404    0.1378    0.1815    20.5085
   2590.0500 2405.9099   22.9793  119.3686   18.4987   24.5493   32.5193   33.1223   36.1327   17.7957    0.9446   98.2666    2.4358    35.2280    0.1344    0.1782    20.5967
