~Version Information
 VERS.                  2.0:   CWLS log ASCII Standard -VERSION 2.0
 WRAP.                   NO:   One line per depth step
~Well Information Block
#MNEM.UNIT     VALUE/NAME     DESCRIPTION
#---------     -----------    ---------------------------
 STRT.M              1700.1000: START DEPTH
 STOP.M              2733.9000: STOP DEPTH
 STEP.M                 0.1500: STEP DEPTH
 NULL.               -999.2500: NULL VALUE
 CNTY.         Tanjung Benuang:  COUNTY NAME
 CTRY.               Indonesia:  COUNTRY NAME
 PROV.          South Sumatera:  PROVINCE
 STAT.          South Sumatera:  STATE NAME
 FLD .                 Benuang:  FIELD NAME
 DATE.      15.00.00 14-May-24:  END TIME
 WELL.                  BNG-B3:  WELL NAME
 COMP.     PHR Region 1 Zona 4:  COMPANY
 API .                        :  API NUMBER
 SRVC.             Halliburton:  SERVICE COMPANY
 UWI .                        :  UNIQUE WELL IDENTIFIER
 LOC .                        :  LOCATION
~Parameter Information Block
#MNEM.UNIT       Value        Description
#---------     -----------    ---------------------------
 AV  .fpm             311.0000:  Ann Velocity 
 AVMX.fpm             315.0000:  Max Ann Veloc 
 AZIF.deg             294.2000:  Azm, Final 
 BHAT.        Rotary Steerable:  BHA Type 
 BROT.°/100'            0.2000:  Build Rotating 
 BS  .in                8.5000:  Bit Size 
 BSZ .in                8.5000:  Bit Size 
 BTPL.psig            496.0000:  Bit Press Loss 
 CABU.                      No:  Customer Abuse 
 CGEO.           Achmad Gazali:  Customer Geo 
 COMM.                     üQb:  Run Comments 1 
 TCS .hr               88.2729:  Time Ciculation Ended 
 CV  .fpm             378.0000:  Crit Velocity 
 CVMX.fpm             380.0000:  Max Crit Veloc 
 DD1 .          Yudi Kurniawan:  Direct Drillr 1 
 DD2 .               Aminuddin:  Direct Drillr 2 
 DDSV.               Geo-Pilot:  DD Service 
 DEFF.%               100.0000:  % Det Eff 
 DLRX.°/100'            0.5000:  Dogleg Rot Max 
 DLSO.°/100'            1.1000:  Dogleg Oriented 
 DLSX.°/100'            2.1900:  Dogleg Str Max 
 DRET.      10.25.00 13-May-24:  Drill End Time 
 DRST.      23.00.00 09-May-24:  Drill Start Tim 
 DTIM.hr               52.9642:  Time Drilling 
 EDEP.m              2734.0000:  End Depth 
 ENG1.      Andika BP Pulungan:  Engineer 1 
 ENG2.         Edward Joshua M:  Engineer 2 
 ENG3.       Pandamama Siahaan:  Engineer 3 
 ENG4.        Siti Nurfitriani:  Engineer 4 
 ETIM.      18.45.00 14-May-24:  End Time 
 FLOI.gpm             550.0000:  Flow In 
 FLON.gpm             400.0000:  Flow In Min 
 FLOS.mptm              4.2000:  Fluid Loss 
 FLOX.gpm             600.0000:  Flow In Max 
 DFT .                 Polymer:  Mud Type 
 HPRE.                      No:  High Pressure 
 HTEM.                      No:  High Temp 
 HYDO.m                 0.0000:  Hydro Offset 
 IFIN.deg              25.6000:  Inc, Final 
 IMAX.deg              26.9023:  Inc Max 
 IMIN.deg              20.4496:  Inc Min 
 IMND.m              2580.0901:  Inc Min Depth 
 IMXD.m              2034.3999:  Inc Max Depth 
 JARR.                      No:  Jarring 
 LETM.      10.25.00 13-May-24:  Log End Time 
 LOST.hr                     0:  Lost Rig Time 
 LSTM.      23.00.00 09-May-24:  Log Start Time 
 MDCL.ppm           42000.0000:  Mud Chlorides 
 MDES.             Fresh Water:  Mud Desc 
 DFD .SG                1.3000:  Mud Density 
 MDMN.SG                1.2500:  Dens Mud Min 
 MDMX.SG                1.3000:  Dens Mud Max 
 PH  .pH               10.0000:  Mud pH 
 MOIL.                       0:  Run Mud Oil % 
 MOWR.                   0 100:  Run Mud OWR 
 MSND.                     0.2:  Run Mud Sand % 
 MSOL.                     8.9:  Run Mud Solids% 
 DFV .spqt             80.0000:  Mud Viscosity 
 MWOD.in                6.7500:  MWD Tool OD 
 MWSI.                      No:  Serv Intrp, MWD 
 OTIM.hr              124.1140:  Time Operating 
 PMAX.psig           3200.0000:  Press Op, Max 
 PV  .cP               24.0000:  Mud PV 
 RMS .ohmm              0.0800:  Mud Resistivity 
 RMCS.ohmm              0.1050:  Mud Cake Resistivity 
 MCST.degF             81.0000:  Mud Cake Sample Temperature 
 RMFS.ohmm              0.0500:  Mud Filtrate Resistivity 
 RMFT.degF             81.0000:  Mud Filtrate Sample Temperature 
 RMMT.ohmm              0.0525:  Rm @ Max Temp 
 MST .degF             82.0000:  Mud Sample Temperature 
 RUN .                     500:  Run Number 
 ROPA.m/hr             30.0000:  ROP Avg 
 ROPN.m/hr              5.0000:  ROP Min 
 ROPX.m/hr             40.0000:  ROP Max 
 RPMA.rpm             120.0000:  RPM Surface Avg 
 RPMN.rpm              80.0000:  RPM Surface Min 
 RPMX.rpm             130.0000:  RPM Surface Max 
 RRUN.                     500:  Rig Run Number 
 RTIM.hr               10.0000:  Time Reaming 
 SAZI.deg             296.4800:  Azm, Start 
 SDEP.m              1782.9999:  Start Depth 
 SIDD.                      No:  Serv Intrp, DD 
 SINC.deg              23.5300:  Inc, Start 
 SPPA.psig           3000.0000:  SPP Avg 
 SPPN.psig           2000.0000:  SPP Min 
 SPPX.psig           3100.0000:  SPP Max 
 STIM.      10.00.00 09-May-24:  Start Time 
 SVCS.                 DD, MWD:  Services 
 SVER.                  9.2000:  Sperry Version 
 TDAT.m               951.0001:  Tot Depth Attmp 
 TDDF.                      No:  Trip for DD 
 TDLG.m               951.0001:  Tot Depth Loggd 
 TFF .                      No:  Trip for Fail 
 TQAA.f-p           15000.0000:  Torque Abs Avg 
 TQAN.f-p            7000.0000:  Torque Abs Min 
 TQAX.f-p           18000.0000:  Torque Abs Max 
 TRRT.°/100'            0.2000:  Turn Rotating 
 MRT .                  EWR-P4:  Maximum Recorded Temperature 
 TTMX.degC            101.9000:  Max Tool Temp 
 VS01.        JK90757141L2N1-6:  Virtual Str1 SN 
 VS02.     DR90758460H1WGV2R-6:  Virtual Str2 SN 
 WBMN.klb               5.0000:  WOB Min 
 WITN.            Eko Agustian:  Customer Rep 2 
 WITN.            Bagus Ardika:  Customer Rep 
 WOBA.klb              20.0000:  WOB Avg 
 WOBX.klb              30.0000:  WOB Max 
 YP  .lhf2             30.0000:  Yield Point 
~Curve Information Block
#MNEM.UNIT                 API CODE     Curve Description
#---------               -----------    ---------------------------
 DEPT.M                 00 000 000 000:  Depth
 TVD .m                 00 000 000 000:  True Vertical Depth
 ROPA.m/hr              00 000 000 000:  Avg Rate of Penetration
 DGRCC.api              00 000 000 000:  DGR Comb Gamma Ray BCorr
 DGDD.ptpm              00 000 000 000:  DGR Data Density
 R09PC.ohmm             00 000 000 000:  9in Phase Resistivity BC
 R15PC.ohmm             00 000 000 000:  15in Phase Resistivity BC
 R27PC.ohmm             00 000 000 000:  27in Phase Resistivity BC
 R39PC.ohmm             00 000 000 000:  39in Phase Resistivity BC
 EWDD.ptpm              00 000 000 000:  EWR Data Density
 EWXT.hr                00 000 000 000:  EWR Formation Exp Time
 EWTEMP.degC            00 000 000 000:  EWR Temperature
 ALCDLC.g/cc            00 000 000 000:  ALD LCRB Comp Density
 ALDD.ptpm              00 000 000 000:  ALD Data Density
 TNPL.v/v               00 000 000 000:  CTN Porosity Limestone
 TNPS.v/v               00 000 000 000:  CTN Porosity Sandstone
 TNDD.ptpm              00 000 000 000:  CTN Data Density
#Other Information
#Environmental Parameters (and sensors to which they are applied)
#Hole Size 		: 8.5" (all sensors)
#Tool Size 			: 6.75"
#Mud Type 		: WBM (Gamma Ray)
#Mud Weight 		: 1.25 - 1.30 SG (Gamma Ray)
#KCl Concentration by Weight 	: 4.21 - 5.05 pbw (Gamma Ray)
#Mud Resistivity at BHT 	: 0.07  ohmm @101.9 degC (Resistivity)
#Fluid Density 		: 1.00 g/cc (Density)
#Neutron Tool Lithology	: Limestone (Porosity)
#Whole Mud Chlorides 	: 28800 - 33426 ppm (Porosity)
#Formation Water Salinity 	: 20000 ppm Cl- (Porosity)
#Pressure and Temperature 	: from PWD and EWR (Density, Porosity)
#
#Comments:
#1) All depth are calibrated to the drillers pipe tally and are measured from drill floor.
#2) No depth correction have been made for pipe stretch or compression.
#3) LWD Resistivity Tool utilized in this run is EWRP4, with spacing configuration as below:
#    - Deep Resistivity = 39in Spacing / 1 Mhz Frequency
#    - Medium Resistivity = 27in Spacing / 2 MHz Frequency
#    - Shallow Resistivity = 15in Spacing / 2 MHz Frequency
#    - XShallow Resistivity = 9in Spacing /2 MHz Frequency
#4) CTN Alloy type used for CTN data processing is Mid Nickle.
#5) Density reading might be affected by detector standoff to borehole wall while sliding.
#6) All data presented is Memory data unless otherwise stated.
#WARRANTY: Halliburton will use its best efforts to furnish customers with 
#accurate information and interpretations that are part of, and incident to, the services 
#provided.  However, Halliburton cannot and does not warrant the accuracy 
#or correctness of such information and interpretations.  Under no circumstances should any 
#such information or interpretation be relied upon as the sole basis for any drilling, 
#completion, production, or financial decision or any procedure involving any risk to the 
#safety of any drilling venture, drilling rig or its crew or any other third party.  The 
#Customer has full responsibility for all drilling, completion and production operation.  
#Halliburton makes no representations or warranties, either expressed or 
#implied, including, but not limited to, the implied warranties of merchantability or fitness 
#for a particular purpose, with respect to the services rendered.  In no event will 
#Halliburton be liable for failure to obtain any particular results or for 
#any damages, including, but not limited to, indirect, special or consequential damages, 
#resulting from the use of any information or interpretation provided by Halliburton.
#
~A   DEPT       TVD      ROPA      DGRCC     DGDD      R09PC     R15PC     R27PC     R39PC     EWDD      EWXT     EWTEMP    ALCDLC      ALDD      TNPL      TNPS       TNDD    
# ...
   1845.0000 1726.5178   30.3692  101.2701   13.6255    1.1409    1.2029    1.2281    1.4162   13.2767    0.4578   79.3457    2.4902    22.8492    0.1794    0.2211    45.2134
   1845.1500 1726.6588   33.1169  113.9134   18.3332    1.2733    1.3810    1.6412    2.0425   11.7042    0.4582   79.3457    2.5350    46.1940    0.1877    0.2292    40.4252
   1845.3000 1726.8000   33.0122  112.5243   13.5155    1.9716    2.0843    2.6236    3.0589   11.0960    0.4572   79.3457    2.5695    39.3991    0.1748    0.2166    35.8545
   1845.4500 1726.9497   27.3755   96.7872   15.9592    3.0078    2.7648    3.0827    3.3486   11.0321    0.4543   79.3457    2.6772    14.8853    0.1304    0.1727    31.5668
   1845.6000 1727.0634   18.8149   74.8624   16.3963    3.4243    2.8940    2.6717    2.7158   11.5463    0.4513   79.3457    2.7185    22.8301    0.0997    0.1417    42.2979
   1845.7500 1727.1934   15.7624   54.3493   16.1066    2.8573    2.6096    2.1018    1.9802   11.1239    0.4483   79.3457    2.6887    27.2592    0.0952    0.1371    52.2242
   1845.9000 1727.3425   21.0545   65.1485   15.5287    1.8597    1.8398    1.4723    1.3447   16.2581    0.4473   79.3457    2.6189    25.1476    0.1283    0.1707    32.6326
   1846.0500 1727.4766   27.8703   70.4828   11.5376    1.1960    1.1789    1.0192    0.9906   21.2622    0.4502   79.3457    2.5457    22.7941    0.1640    0.2060    36.3399
   1846.2000 1727.6196   31.5969   72.2646   12.3409    0.7961    0.8309    0.8071    1.0141   15.5960    0.4526   79.3457    2.4647    16.1671    0.1791    0.2208    19.5385
   1846.3500 1727.7566   33.1280   73.1132   16.6557    1.0438    1.2201    1.4183    1.8618   16.7830    0.4548   79.3457    2.4775    12.7304    0.1787    0.2204    26.0863
   1846.5000 1727.9020   32.1366   75.7121   17.9449    1.9580    2.0248    2.4785    2.9958   11.9321    0.4552   79.3457    2.5670    14.3471    0.1498    0.1920    26.1660
   1846.6500 1728.0320   27.7603   72.2000   27.0960    2.9423    2.7030    2.7116    3.0970   10.9117    0.4534   79.3457    2.6321    12.9021    0.1076    0.1497    24.7142
   1846.8000 1728.1632   24.1872   65.7191   33.7267    3.5688    3.3970    2.9689    2.9387   11.2259    0.4518   79.3457    2.6347    15.5307    0.0879    0.1294    16.5356
   1846.9500 1728.3104   25.3068   60.9246   32.7710    3.8438    3.8030    3.2577    2.7800   11.5700    0.4506   79.3457    2.6358    14.5405    0.0902    0.1318    24.5358
   1847.1000 1728.4460   25.4598   60.7191   28.0054    3.1758    3.1321    2.5748    2.1866   11.0568    0.4495   79.3457    2.6420    11.5276    0.1065    0.1487    21.1707
   1847.2500 1728.5720   23.2930   62.0681   25.9827    1.8833    1.8121    1.6276    1.4396   10.8753    0.4480   79.3457    2.6117    11.6625    0.1303    0.1727    22.3815
   1847.4000 1728.7166   25.2644   73.6609   19.6240    1.2393    1.2642    1.2318    1.2444   11.1137    0.4468   79.3457    2.5480    11.1694    0.1658    0.2077    28.1161
   1847.5500 1728.8522   30.5214  102.2769   25.5831    1.0552    1.1236    1.1694    1.2493   10.9761    0.4466   79.3457    2.5196    11.2785    0.2015    0.2427    25.3729
   1847.7000 1728.9938   33.1818  120.0872   17.7553    1.0342    1.0656    1.1551    1.2860   11.0000    0.4468   79.3457    2.5339    11.7163    0.2215    0.2624    19.4541
   1847.8500 1729.1284   33.5502  114.7248   17.6795    1.0851    1.0824    1.1543    1.3287   10.9662    0.4469   79.3457    2.5288    11.2387    0.2291    0.2699    27.2865
   1848.0000 1729.2664   33.2431  117.6000   22.4771    1.1427    1.1413    1.1635    1.3330   10.7548    0.4469   79.3457    2.5338    11.1012    0.2279    0.2687    34.2346
   1848.1500 1729.4038   33.2957  117.2717   24.7283    1.2030    1.2049    1.1979    1.2770   11.9205    0.4469   79.3457    2.5394    10.7407    0.2267    0.2676    27.5362
   1848.3000 1729.5413   33.2564  123.1616   31.0146    1.2295    1.2267    1.2136    1.2434   21.1977    0.4489   79.3457    2.5392    11.1569    0.2377    0.2785    25.3710
   1848.4500 1729.6774   32.8985  127.1559   18.8798    1.2286    1.2237    1.2092    1.2254   20.7727    0.4526   79.3457    2.5334    11.2231    0.2323    0.2732    21.0362
   1848.6000 1729.8176   33.0368  128.5163   14.2003    1.1981    1.2007    1.1876    1.1902   11.4271    0.4536   79.3457    2.5269    12.3293    0.2360    0.2768    30.7220
   1848.7500 1729.9503   33.0030  135.9393   14.4393    1.1818    1.1832    1.1751    1.1840   12.4463    0.4541   79.6312    2.5310    12.3865    0.2484    0.2891    29.0569
   1848.9000 1730.0923   33.2609  130.7934   19.5079    1.1427    1.1448    1.1431    1.1690   17.0022    0.4558   79.8450    2.5432    12.5624    0.2476    0.2883    24.2314
   1849.0500 1730.2263   33.3379  134.9734   18.0325    1.1717    1.1770    1.1825    1.2319   16.0577    0.4580   79.7834    2.5324    11.9408    0.2561    0.2968   150.4057
   1849.2000 1730.3649   32.9884  137.6221   26.7426    1.2234    1.2270    1.2314    1.2838   14.5568    0.4592   79.9561    2.5349    12.2611    0.2589    0.2996   103.4452
   1849.3500 1730.5060   32.6312  136.5542   48.1490    1.2508    1.2490    1.2436    1.2872   16.3892    0.4608   79.9561    2.5331    14.6697    0.2620    0.3026    15.0609
   1849.5000 1730.6351   30.5017  134.3607   43.0739    1.2878    1.2805    1.2705    1.3013   15.5846    0.4627   79.9561    2.5342    12.3756    0.2526    0.2931    22.7463
   1849.6500 1730.7758   30.2438  140.6273   37.9244    1.3078    1.3033    1.2895    1.3086   17.0739    0.4647   79.9561    2.5250    16.3836    0.2507    0.2913    27.3094
   1849.8000 1730.9152   32.1992  141.4202   30.4075    1.3276    1.3139    1.3019    1.3048   12.0022    0.4655   79.9561    2.5286    29.9716    0.2499    0.2905    25.3014
   1849.9500 1731.0476   31.9802  138.2002   44.8029    1.3281    1.3056    1.2973    1.3152   11.9901    0.4657   79.9561    2.5435    29.7707    0.2495    0.2901    23.7753
   1850.1000 1731.1903   32.4120  139.8728   60.5462    1.3310    1.3181    1.3050    1.3423   14.6648    0.4665   79.9561    2.5432    33.7505    0.2452    0.2858    16.0964
   1850.2500 1731.3239   33.1364  134.8311   31.6567    1.3330    1.3177    1.3044    1.3639   16.7030    0.4687   79.9561    2.5534    32.3786    0.2571    0.2976    12.6579
   1850.4000 1731.4624   32.9404  143.8424   37.1991    1.3945    1.3942    1.3876    1.4819   21.8738    0.4726   79.9561    2.5777    28.0460    0.2482    0.2888    14.5040
   1850.5500 1731.6010   32.8126  138.8793   20.0924    1.5163    1.5161    1.5288    1.6669   32.0914    0.4793   79.9561    2.6029    46.8071    0.2382    0.2788    12.6281
   1850.7000 1731.7361   31.8358  124.5681   24.1905    1.6410    1.6442    1.6978    1.9418   31.3372    0.4874   79.9561    2.6179    41.1925    0.2228    0.2635    15.7313
   1850.8500 1731.8738   31.0348  113.5260   26.5082    1.9210    2.0298    2.1691    2.5356   30.3216    0.4952   79.9561    2.6032    42.9690    0.1977    0.2389    14.4374
   1851.0000 1732.0170   31.1781  103.4161   27.1520    2.9194    3.2431    3.5758    3.9175   28.6643    0.5017   79.9561    2.6203    40.9221    0.1715    0.2131    11.6460
   1851.1500 1732.1636   27.4716   93.6323   18.0001    4.6111    4.7964    5.0092    4.8539   21.3799    0.5037   79.9561    2.7002    31.0422    0.1333    0.1755    11.7587
   1851.3000 1732.2875   19.3031   70.8882   21.4700    8.1564    6.9471    6.1468    5.4740   21.4703    0.5023   79.9561    2.7106    27.8742    0.1003    0.1420    11.3676
   1851.4500 1732.4160   14.8089   52.2382   24.2473    9.3222    7.5119    6.0832    5.4144   23.8409    0.5029   79.9561    2.6000   122.6422    0.0832    0.1243    11.3233
   1851.6000 1732.5492   15.8798   39.2400   19.2656    6.6027    6.5194    5.7652    5.1897   15.8147    0.5015   79.9561    2.5522   203.4387    0.0876    0.1289    11.6970
   1851.7500 1732.6970   22.1615   53.8836   27.0837    6.5482    7.1327    6.8511    6.0886   21.3562    0.5033   79.9561    2.5251    86.8712    0.1062    0.1482    11.0259
