~Version Information
 VERS.                  2.0:   CWLS log ASCII Standard -VERSION 2.0
 WRAP.                   NO:   One line per depth step
~Well Information Block
#MNEM.UNIT     VALUE/NAME     DESCRIPTION
#---------     -----------    ---------------------------
 STRT.M              1700.1000: START DEPTH
 STOP.M              2733.9000: STOP DEPTH
 STEP.M                 0.1500: STEP DEPTH
 NULL.               -999.2500: NULL VALUE
 CNTY.         Tanjung Benuang:  COUNTY NAME
 CTRY.               Indonesia:  COUNTRY NAME
 PROV.          South Sumatera:  PROVINCE
 STAT.          South Sumatera:  STATE NAME
 FLD .                 Benuang:  FIELD NAME
 DATE.      15.00.00 14-May-24:  END TIME
 WELL.                  BNG-B3:  WELL NAME
 COMP.     PHR Region 1 Zona 4:  COMPANY
 API .                        :  API NUMBER
 SRVC.             Halliburton:  SERVICE COMPANY
 UWI .                        :  UNIQUE WELL IDENTIFIER
 LOC .                        :  LOCATION
~Parameter Information Block
#MNEM.UNIT       Value        Description
#---------     -----------    ---------------------------
 AV  .fpm             311.0000:  Ann Velocity 
 AVMX.fpm             315.0000:  Max Ann Veloc 
 AZIF.deg             294.2000:  Azm, Final 
 BHAT.        Rotary Steerable:  BHA Type 
 BROT.°/100'            0.2000:  Build Rotating 
 BS  .in                8.5000:  Bit Size 
 BSZ .in                8.5000:  Bit Size 
 BTPL.psig            496.0000:  Bit Press Loss 
 CABU.                      No:  Customer Abuse 
 CGEO.           Achmad Gazali:  Customer Geo 
 COMM.                     üQb:  Run Comments 1 
 TCS .hr               88.2729:  Time Ciculation Ended 
 CV  .fpm             378.0000:  Crit Velocity 
 CVMX.fpm             380.0000:  Max Crit Veloc 
 DD1 .          Yudi Kurniawan:  Direct Drillr 1 
 DD2 .               Aminuddin:  Direct Drillr 2 
 DDSV.               Geo-Pilot:  DD Service 
 DEFF.%               100.0000:  % Det Eff 
 DLRX.°/100'            0.5000:  Dogleg Rot Max 
 DLSO.°/100'            1.1000:  Dogleg Oriented 
 DLSX.°/100'            2.1900:  Dogleg Str Max 
 DRET.      10.25.00 13-May-24:  Drill End Time 
 DRST.      23.00.00 09-May-24:  Drill Start Tim 
 DTIM.hr               52.9642:  Time Drilling 
 EDEP.m              2734.0000:  End Depth 
 ENG1.      Andika BP Pulungan:  Engineer 1 
 ENG2.         Edward Joshua M:  Engineer 2 
 ENG3.       Pandamama Siahaan:  Engineer 3 
 ENG4.        Siti Nurfitriani:  Engineer 4 
 ETIM.      18.45.00 14-May-24:  End Time 
 FLOI.gpm             550.0000:  Flow In 
 FLON.gpm             400.0000:  Flow In Min 
 FLOS.mptm              4.2000:  Fluid Loss 
 FLOX.gpm             600.0000:  Flow In Max 
 DFT .                 Polymer:  Mud Type 
 HPRE.                      No:  High Pressure 
 HTEM.                      No:  High Temp 
 HYDO.m                 0.0000:  Hydro Offset 
 IFIN.deg              25.6000:  Inc, Final 
 IMAX.deg              26.9023:  Inc Max 
 IMIN.deg              20.4496:  Inc Min 
 IMND.m              2580.0901:  Inc Min Depth 
 IMXD.m              2034.3999:  Inc Max Depth 
 JARR.                      No:  Jarring 
 LETM.      10.25.00 13-May-24:  Log End Time 
 LOST.hr                     0:  Lost Rig Time 
 LSTM.      23.00.00 09-May-24:  Log Start Time 
 MDCL.ppm           42000.0000:  Mud Chlorides 
 MDES.             Fresh Water:  Mud Desc 
 DFD .SG                1.3000:  Mud Density 
 MDMN.SG                1.2500:  Dens Mud Min 
 MDMX.SG                1.3000:  Dens Mud Max 
 PH  .pH               10.0000:  Mud pH 
 MOIL.                       0:  Run Mud Oil % 
 MOWR.                   0 100:  Run Mud OWR 
 MSND.                     0.2:  Run Mud Sand % 
 MSOL.                     8.9:  Run Mud Solids% 
 DFV .spqt             80.0000:  Mud Viscosity 
 MWOD.in                6.7500:  MWD Tool OD 
 MWSI.                      No:  Serv Intrp, MWD 
 OTIM.hr              124.1140:  Time Operating 
 PMAX.psig           3200.0000:  Press Op, Max 
 PV  .cP               24.0000:  Mud PV 
 RMS .ohmm              0.0800:  Mud Resistivity 
 RMCS.ohmm              0.1050:  Mud Cake Resistivity 
 MCST.degF             81.0000:  Mud Cake Sample Temperature 
 RMFS.ohmm              0.0500:  Mud Filtrate Resistivity 
 RMFT.degF             81.0000:  Mud Filtrate Sample Temperature 
 RMMT.ohmm              0.0525:  Rm @ Max Temp 
 MST .degF             82.0000:  Mud Sample Temperature 
 RUN .                     500:  Run Number 
 ROPA.m/hr             30.0000:  ROP Avg 
 ROPN.m/hr              5.0000:  ROP Min 
 ROPX.m/hr             40.0000:  ROP Max 
 RPMA.rpm             120.0000:  RPM Surface Avg 
 RPMN.rpm              80.0000:  RPM Surface Min 
 RPMX.rpm             130.0000:  RPM Surface Max 
 RRUN.                     500:  Rig Run Number 
 RTIM.hr               10.0000:  Time Reaming 
 SAZI.deg             296.4800:  Azm, Start 
 SDEP.m              1782.9999:  Start Depth 
 SIDD.                      No:  Serv Intrp, DD 
 SINC.deg              23.5300:  Inc, Start 
 SPPA.psig           3000.0000:  SPP Avg 
 SPPN.psig           2000.0000:  SPP Min 
 SPPX.psig           3100.0000:  SPP Max 
 STIM.      10.00.00 09-May-24:  Start Time 
 SVCS.                 DD, MWD:  Services 
 SVER.                  9.2000:  Sperry Version 
 TDAT.m               951.0001:  Tot Depth Attmp 
 TDDF.                      No:  Trip for DD 
 TDLG.m               951.0001:  Tot Depth Loggd 
 TFF .                      No:  Trip for Fail 
 TQAA.f-p           15000.0000:  Torque Abs Avg 
 TQAN.f-p            7000.0000:  Torque Abs Min 
 TQAX.f-p           18000.0000:  Torque Abs Max 
 TRRT.°/100'            0.2000:  Turn Rotating 
 MRT .                  EWR-P4:  Maximum Recorded Temperature 
 TTMX.degC            101.9000:  Max Tool Temp 
 VS01.        JK90757141L2N1-6:  Virtual Str1 SN 
 VS02.     DR90758460H1WGV2R-6:  Virtual Str2 SN 
 WBMN.klb               5.0000:  WOB Min 
 WITN.            Eko Agustian:  Customer Rep 2 
 WITN.            Bagus Ardika:  Customer Rep 
 WOBA.klb              20.0000:  WOB Avg 
 WOBX.klb              30.0000:  WOB Max 
 YP  .lhf2             30.0000:  Yield Point 
~Curve Information Block
#MNEM.UNIT                 API CODE     Curve Description
#---------               -----------    ---------------------------
 DEPT.M                 00 000 000 000:  Depth
 TVD .m                 00 000 000 000:  True Vertical Depth
 ROPA.m/hr              00 000 000 000:  Avg Rate of Penetration
 DGRCC.api              00 000 000 000:  DGR Comb Gamma Ray BCorr
 DGDD.ptpm              00 000 000 000:  DGR Data Density
 R09PC.ohmm             00 000 000 000:  9in Phase Resistivity BC
 R15PC.ohmm             00 000 000 000:  15in Phase Resistivity BC
 R27PC.ohmm             00 000 000 000:  27in Phase Resistivity BC
 R39PC.ohmm             00 000 000 000:  39in Phase Resistivity BC
 EWDD.ptpm              00 000 000 000:  EWR Data Density
 EWXT.hr                00 000 000 000:  EWR Formation Exp Time
 EWTEMP.degC            00 000 000 000:  EWR Temperature
 ALCDLC.g/cc            00 000 000 000:  ALD LCRB Comp Density
 ALDD.ptpm              00 000 000 000:  ALD Data Density
 TNPL.v/v               00 000 000 000:  CTN Porosity Limestone
 TNPS.v/v               00 000 000 000:  CTN Porosity Sandstone
 TNDD.ptpm              00 000 000 000:  CTN Data Density
#Other Information
#Environmental Parameters (and sensors to which they are applied)
#Hole Size 		: 8.5" (all sensors)
#Tool Size 			: 6.75"
#Mud Type 		: WBM (Gamma Ray)
#Mud Weight 		: 1.25 - 1.30 SG (Gamma Ray)
#KCl Concentration by Weight 	: 4.21 - 5.05 pbw (Gamma Ray)
#Mud Resistivity at BHT 	: 0.07  ohmm @101.9 degC (Resistivity)
#Fluid Density 		: 1.00 g/cc (Density)
#Neutron Tool Lithology	: Limestone (Porosity)
#Whole Mud Chlorides 	: 28800 - 33426 ppm (Porosity)
#Formation Water Salinity 	: 20000 ppm Cl- (Porosity)
#Pressure and Temperature 	: from PWD and EWR (Density, Porosity)
#
#Comments:
#1) All depth are calibrated to the drillers pipe tally and are measured from drill floor.
#2) No depth correction have been made for pipe stretch or compression.
#3) LWD Resistivity Tool utilized in this run is EWRP4, with spacing configuration as below:
#    - Deep Resistivity = 39in Spacing / 1 Mhz Frequency
#    - Medium Resistivity = 27in Spacing / 2 MHz Frequency
#    - Shallow Resistivity = 15in Spacing / 2 MHz Frequency
#    - XShallow Resistivity = 9in Spacing /2 MHz Frequency
#4) CTN Alloy type used for CTN data processing is Mid Nickle.
#5) Density reading might be affected by detector standoff to borehole wall while sliding.
#6) All data presented is Memory data unless otherwise stated.
#WARRANTY: Halliburton will use its best efforts to furnish customers with 
#accurate information and interpretations that are part of, and incident to, the services 
#provided.  However, Halliburton cannot and does not warrant the accuracy 
#or correctness of such information and interpretations.  Under no circumstances should any 
#such information or interpretation be relied upon as the sole basis for any drilling, 
#completion, production, or financial decision or any procedure involving any risk to the 
#safety of any drilling venture, drilling rig or its crew or any other third party.  The 
#Customer has full responsibility for all drilling, completion and production operation.  
#Halliburton makes no representations or warranties, either expressed or 
#implied, including, but not limited to, the implied warranties of merchantability or fitness 
#for a particular purpose, with respect to the services rendered.  In no event will 
#Halliburton be liable for failure to obtain any particular results or for 
#any damages, including, but not limited to, indirect, special or consequential damages, 
#resulting from the use of any information or interpretation provided by Halliburton.
#
~A   DEPT       TVD      ROPA      DGRCC     DGDD      R09PC     R15PC     R27PC     R39PC     EWDD      EWXT     EWTEMP    ALCDLC      ALDD      TNPL      TNPS       TNDD    
# ...
   2383.2000 2214.9841   11.2451  158.8459   41.2928    9.5107    9.6717    9.2753   10.8054   14.8358    1.3942   96.4355    2.7072    13.3628    0.1903    0.2330    11.8675
   2383.3500 2215.0632    8.2234  150.4869   26.7430    8.0844    8.4338    8.1968    9.7616   11.7453    1.3864   96.4355    2.7698    14.6724    0.2018    0.2442    13.7361
   2383.5000 2215.2725   17.9052  145.4131   25.4138    7.0904    7.6985    7.7566    9.3073   12.7059    1.3867   96.5482    2.7189    18.1451    0.2021    0.2446    24.1122
   2383.6500 2215.4382   31.7008  161.1557   21.3375   10.6368   11.1784   11.5738   12.9743  186.0841    1.3910   96.5046    2.6533    18.0108    0.1977    0.2402    23.9482
   2383.8000 2215.5557   19.5765  153.7114   20.0366   12.6755   13.3021   13.2378   14.3719  183.3382    1.3945   96.6320    2.7113    18.1736    0.1936    0.2362    12.9854
   2383.9500 2215.6467   12.3154  108.4131   21.0776   16.5432   16.5336   13.9217   14.3881   10.2603    1.3970   96.8902    2.8043    17.3798    0.1659    0.2091    10.0170
   2384.1000 2215.8159   15.1444  108.2106   20.5702   12.8610   13.4404   11.0849   12.1720   11.3806    1.3926   96.5998    2.7047    22.6517    0.1534    0.1968    10.8842
   2384.2500 2215.9609   30.0104  139.7177   17.0549   11.0876   12.1060   10.9706   11.6622   12.1281    1.3913   96.4355    2.5908    18.8777    0.1748    0.2178    13.2428
   2384.4000 2216.0986   29.7847  169.4241   16.3700   10.9115   11.6369   10.9954   11.4081   13.2205    1.3911   96.4355    2.5907    15.6139    0.1861    0.2289    17.4067
   2384.5500 2216.2327   24.1984  175.2839   16.7832   10.8654   11.3752   10.5744   11.0497   13.4523    1.3905   96.4355    2.6801    17.9002    0.1872    0.2299    19.7674
   2384.7000 2216.3525   21.1173  164.3285   17.1545    9.9512   10.2172    9.5016   10.2445   12.4875    1.3885   96.4355    2.8328    16.5075    0.1868    0.2296    19.1252
   2384.8500 2216.5032   23.8614  155.9942   20.9093    8.8059    9.3279    8.8887    9.7464   13.2530    1.3881   96.4355    2.7582    18.9766    0.1966    0.2392    16.1901
   2385.0000 2216.6436   28.1983  153.5075   17.1281    8.2625    8.7539    8.7982    9.7833   12.1770    1.3880   96.4355    2.7429    16.8304    0.2100    0.2522    15.7357
   2385.1500 2216.7695   26.5442  162.1082   16.8113    8.0495    8.5738    8.6622    9.7630   14.4103    1.3882   96.4355    2.7655    16.5956    0.2080    0.2504    17.9722
   2385.3000 2216.9121   27.2843  166.1421   16.3824    8.1324    8.5137    8.6227    9.8017   16.6408    1.3892   96.4355    2.7161    16.7181    0.2058    0.2481    14.9022
   2385.4500 2217.0540   29.8757  158.2415   16.7503    8.4207    8.7077    8.7306    9.8143   20.5052    1.3915   96.4355    2.6779    18.6696    0.2105    0.2527    16.4445
   2385.6000 2217.1855   28.0030  162.5505   16.0536    8.8208    8.8413    8.5604    9.5080   16.0022    1.3932   96.4355    2.6836    16.7353    0.2120    0.2542    16.0068
   2385.7500 2217.3225   25.7694  168.4357   17.8455    8.5659    8.5240    8.0544    8.8843   16.6177    1.3939   96.4355    2.6891    18.4112    0.1988    0.2413    15.9032
   2385.9000 2217.4583   25.0324  167.9208   17.7125    8.1055    8.1225    7.4963    8.2912   15.2078    1.3940   96.4355    2.6821    16.6195    0.1956    0.2382    16.2976
   2386.0500 2217.5947   24.9194  165.3338   19.7485    7.2686    7.2336    6.8363    7.6613   16.5670    1.3950   96.4355    2.7036    24.6641    0.1930    0.2356    16.3275
   2386.2000 2217.7283   25.5379  159.8271   17.5580    6.3368    6.4936    6.2233    7.1741   18.7560    1.3967   96.4355    2.7072    32.3700    0.2001    0.2425    17.2953
   2386.3500 2217.8679   27.3339  168.1821   23.0225    5.5343    5.8123    5.9079    7.0494   30.5137    1.4004   96.4355    2.6893    17.6428    0.2079    0.2503    16.5523
   2386.5000 2218.0200   28.4504  169.7338   21.4431    5.4342    5.9021    6.2982    7.5739   82.7666    1.4101   96.4355    2.6878    15.4522    0.1975    0.2400    15.8284
   2386.6500 2218.1377   23.5259  161.9920   16.1625    7.2724    7.8202    8.5694    9.7450 2537.9282    1.4245   96.4355    2.6530    17.7062    0.1827    0.2255    15.3048
   2386.8000 2218.2781   19.8593  152.2807   13.8731   10.2944    9.9496   10.2910   11.1899 1078.9036    1.4369   96.4355    2.6048    17.7740    0.1508    0.1943    13.7227
   2386.9500 2218.4128   20.9762  135.0264   12.7557   11.3264   10.3180    9.6898   10.3709   57.3160    1.4458   96.4355    2.6221    17.0018    0.1418    0.1854    13.5912
   2387.1000 2218.5493   22.3790  133.2982   13.0066    9.2917    8.6965    7.8498    8.4663   30.4991    1.4522   96.4355    2.6182    16.4797    0.1438    0.1874    13.3930
   2387.2500 2218.6995   21.8923  130.9878   11.7943    5.4517    5.8980    5.7067    6.5279   22.7256    1.4554   96.4355    2.5735    19.7349    0.1358    0.1794    14.5011
   2387.4000 2218.8853   13.0644  106.6969   11.2294    3.7963    4.9159    5.4735    6.5082   24.4811    1.4533   96.5433    2.4869    20.1787    0.1285    0.1721    18.0369
   2387.5500 2218.9370    7.5096   81.1735   11.2858    3.1854    4.9525    6.8798    8.3159   17.7726    1.2801   96.7808    2.4338    19.4578    0.1129    0.1565    17.7673
   2387.7000 2219.0151    4.4894   45.8772   13.0093    3.2935    5.6610   10.1212   11.7865   24.3091    0.9804   97.0257    2.4276    20.7169    0.1047    0.1481    18.0675
   2387.8500 2219.2434   23.3843   34.0340   19.2094    4.4325    7.4407   15.7930   16.9574   21.0863    0.7323   97.0459    2.4221    24.2648    0.1025    0.1459    17.7717
   2388.0000 2219.3765   28.1133   31.4323   27.0600    6.0366    8.4526   15.2445   16.7688   17.4091    0.7150   97.0459    2.4169    27.5829    0.0983    0.1415    22.3654
   2388.1500 2219.5073   22.8896   30.0388   15.9132    7.3161    9.0687   13.3026   15.9308   16.5940    0.7154   97.0459    2.4224    29.4394    0.0950    0.1381    19.5421
   2388.3000 2219.6409   21.0782   35.3070   10.2960    9.2283   11.3842   13.5249   16.4930   15.9831    0.7153   97.0459    2.4500    29.9555    0.0959    0.1389    15.9897
   2388.4500 2219.7805   22.5872   50.3786   10.5508   13.8905   16.2730   15.9869   17.7909   17.1767    0.7159   97.0459    2.4843    26.3761    0.1022    0.1455    18.3943
   2388.6000 2219.9165   25.0328   72.9429   12.8602   15.1244   15.6448   14.8807   15.7416   19.6847    0.7176   97.0459    2.5490    24.9392    0.1155    0.1591    16.4977
   2388.7500 2220.0549   26.8471  106.3866   15.7669   14.0012   14.3708   13.9591   14.5084   18.6931    0.7199   97.0459    2.5997    29.2934    0.1312    0.1748    18.3715
   2388.9000 2220.2002   27.6662  131.8496   20.6339   12.8910   13.7919   13.5820   14.2485   16.7339    0.7211   97.0459    2.6044    27.5571    0.1390    0.1827    16.7283
   2389.0500 2220.3352   24.0435  128.4684   18.7660   13.7853   15.0478   14.6509   14.9326   16.4989    0.7215   97.0459    2.5653    25.1440    0.1282    0.1719    16.5531
   2389.2000 2220.4570   19.2429  101.9166   16.9227   13.9904   14.9685   14.4011   14.5142   16.3514    0.7204   97.0459    2.4861    24.7506    0.1114    0.1549    16.8219
   2389.3500 2220.6040   18.5109   73.9486   15.7270   10.8809   12.9196   13.1385   13.7788   16.2005    0.7194   97.0459    2.4551    25.7701    0.1002    0.1434    18.2389
   2389.5000 2220.7363   20.5682   58.8091   17.1695    9.9316   12.7782   13.3849   14.2443   16.5152    0.7190   97.0459    2.4416    22.3976    0.0997    0.1429    16.4774
   2389.6500 2220.8809   20.9769   53.5491   15.7031    9.3339   12.1422   13.4267   14.7270   17.7368    0.7193   97.0459    2.4380    19.4003    0.1011    0.1444    18.3058
   2389.8000 2221.0044   19.8743   59.0412   16.0372    9.6112   12.3774   14.0247   15.3362   18.5632    0.7191   97.0459    2.4405    15.0966    0.0998    0.1431    16.2369
   2389.9500 2221.1501   20.4831   61.2290   15.8624    9.1902   11.5382   13.0592   14.8933   20.2268    0.7196   97.0459    2.4357    14.5086    0.0986    0.1418    23.9990
