~VERSION INFORMATION 
VERS  .    2.0                                     :CWLS Log ASCII Standard - VERSION 2.0
WRAP  .    NO                                      :One Line per Depth step
PROD  .    Schlumberger Technology Corp.           :LAS Producer
PROG  .    Horizon LASWriter 13.0.221437.3100      :LAS Program name and version
SOURCE.    S1R1-Log[3]/Up                          :Run&Pass Information
CREA  .    05/17/2024                              :LAS Creation date {MM/DD/YYYY}
#--------------------------------------------------
~WELL INFORMATION 
#MNEM           .UNIT                      DATA            :DESCRIPTION
#----            ------          --------------            -----------------------------
STRT            .m                   1744.98000            :START DEPTH
STOP            .m                   2740.91400            :STOP DEPTH
STEP            .m                       0.1524            :STEP
NULL            .                       -999.25            :NULL VALUE
COMP            .                PT Pertamina EP           :COMPANY
WELL            .                BNG-056 (BNG-B3)          :WELL NAME
FLD             .                    Prabumulih            :FIELD NAME
RIGN            .                                          :Rig Name
RIGTYP          .                          Land            :Rig Type
SON             .                A.1009322.16.02           :Service Order Number
SRVC            .                  Schlumberger            :SERVICE COMPANY
DATE            .                    05/17/2024            :LOG DATE(Composite Date for Composite LAP) (MM/DD/YYYY)
CLAB            .                     Rig Name:            :County Label
CNTY            .                PDSI#39.3/D1500-E         :COUNTY
SLAB            .                     Province:            :State/Province Label
STAT            .                 South Sumatra            :STATE or PROVINCE
PROV            .                 South Sumatra            :STATE or PROVINCE
CTRY            .                     Indonesia            :COUNTRY
CONT_REGION     .                          Asia            :Continent Region
SECT            .                                          :Section
TOWN            .                                          :Township
RANG            .                                          :Range
API             .                                          :API NUMBER
UWI             .                                          :UNIQUE WELL ID
LUL             .                ING/IDPRA-WLES            :Logging Unit Location
LUN             .                  OSLC-AA 2175            :Logging Unit Number
LOC             .                         Adera            :FIELD LOCATION
FL1             .                 X: 389146.04             :Field Location Line 1
FL2             .                Y: 9628977.87             :Field Location Line 2
LATI            .deg             3° 21' 22.33" S           :LATITUDE
LONG            .deg             104° 0' 7.68" E           :LONGITUDE
PDAT            .                           MSL            :Local Permanent Datum
LMF             .                            DF            :Logging Measured From
APD             .m                        34.37            :Elevation of Depth Reference (LMF) Above Permanent Datum
EPD             .m                         0.00            :Elevation of Permanent Datum (PDAT) above Mean Sea Level
EKB             .m                        34.37            :Elevation of Kelly Bushing Above Permanent Datum
EDF             .m                        34.37            :Elevation of Drill Floor Above Permanent Datum
EGL             .m                        25.23            :Elevation of Ground Level Above Permanent Datum
ECF             .m                      -999.25            :Elevation of Casing Flange above Permanent Datum
#--------------------------------------------------
~CURVE INFORMATION
#MNEM           .UNIT                  API CODE            :DESCRIPTION
#----            ------          --------------            -----------------------------
DEPT            .m                                         :                                                        Depth Index
GR_CAL          .gAPI                                      :        (EDTC-B)                (6in)                   Calibrated Gamma Ray
TENS            .lbf                                       :        (WLWorkflow)            (6in)                   Cable Tension
DT              .us/ft                                     :        (DSLT-H)                (6in)                   Delta-T (also called Slowness or Interval Transit Time)
#-------------------------------------------------------------
#            DEPT       GR_CAL         TENS           DT 
#                     (EDTC-B)  (WLWorkflo)     (DSLT-H) 
#                                                        
#                        (6in)        (6in)        (6in) 
~ASCII
# ...
       1809.44520    145.27270   3073.72725     90.77569
       1809.59760    148.15080   3079.81733     92.34361
       1809.75000    152.61720   3087.18207     92.64042
       1809.90240    149.35290   3089.90900     92.43834
       1810.05480    146.50860   3091.27359     91.85852
       1810.20720    143.63180   3099.27229     90.12253
       1810.35960    147.11360   3034.54530     91.25002
       1810.51200    149.11470   3057.36341     91.15172
       1810.66440    149.66190   3049.00052     90.58427
       1810.81680    142.21450   3059.27204     89.75007
       1810.96920    145.27280   3069.09169     88.91464
       1811.12160    144.73790   3075.36386     89.29131
       1811.27400    148.36420   3080.54571     89.87366
       1811.42640    151.23060   3110.09010     90.75118
       1811.57880    154.09770   3082.18232     91.26739
       1811.73120    154.49950   3097.09165     91.48538
       1811.88360    145.55970   3075.91015     90.92568
       1812.03600    138.98910   3067.81702     90.22278
       1812.18840    130.77550   3065.00017     86.37843
       1812.34080    109.69200   3080.09159     78.38630
       1812.49320     89.01997   3079.09119     66.52790
       1812.64560     77.35925   3115.54621     59.45481
       1812.79800     85.02458   3111.45469     56.60148
       1812.95040    102.71850   3128.72676     64.35855
       1813.10280    126.07310   3141.25087     74.72818
       1813.25520    144.57430   3130.09135     81.54506
       1813.40760    147.88030   3139.54457     85.12601
       1813.56000    145.63100   3134.99893     88.02749
       1813.71240    142.82310   3091.16568     90.86085
       1813.86480    146.40170   3097.27374     93.40748
       1814.01720    153.44300   3102.58373     95.55776
       1814.16960    149.59550   3081.45393     94.80667
       1814.32200    147.96690   3126.08301     95.20526
       1814.47440    138.35740   3121.09000     96.46109
       1814.62680    149.59710   3106.08400     95.10171
       1814.77920    156.89720   3111.45469     94.68210
       1814.93160    164.29190   3077.63668     94.79615
       1815.08400    156.94760   3095.50000     95.08647
       1815.23640    151.99870   3101.00107     93.99666
       1815.38880    145.47980   3068.33409     94.79186
       1815.54120    148.96760   3062.54525     94.76948
       1815.69360    149.00640   3044.33348     95.70763
       1815.84600    151.22460   3054.63648     96.02736
       1815.99840    148.03200   3080.72780     95.55373
       1816.15080    142.43580   3084.33374     95.32123
       1816.30320    139.21010   3083.63683     95.71961
       1816.45560    141.78800   3085.99957     98.29020
       1816.60800    159.29740   3086.18167     97.76652
       1816.76040    164.20180   3108.09155     98.40072
       1816.91280    166.30550   3061.54485     98.02368
       1817.06520    152.49610   3064.54605     93.93863
       1817.21760    149.66820   3116.33304     92.40247
       1817.37000    144.43890   3084.36296     89.75891
       1817.52240    146.94090   3065.27219     86.28184
       1817.67480    142.90890   3089.27279     83.57314
       1817.82720    139.09650   3103.18172     82.85189
       1817.97960    137.71780   3123.27289     83.18361
       1818.13200    136.14390   3097.90995     84.63769
       1818.28440    130.47670   3111.81888     82.02957
       1818.43680    116.00690   3147.90971     78.76934
       1818.58920    114.01480   3111.63678     78.84713
       1818.74160    117.20920   3107.36317     77.15793
       1818.89400    126.44430   3122.45459     77.09898
       1819.04640    125.61330   3098.81818     79.06597
       1819.19880    127.90710   3098.63608     77.39893
       1819.35120    128.09360   3106.45494     77.05417
       1819.50360    126.02700   3120.09185     77.24470
       1819.65600    114.18380   3141.27335     76.40501
       1819.80840    103.96270   3139.72666     75.27405
       1819.96080     98.57685   3124.54531     74.84544
       1820.11320    105.69790   3116.45444     74.95800
       1820.26560    113.36220   3106.36277     75.85369
       1820.41800    121.17330   3108.90985     76.40717
       1820.57040    111.69480   3110.18227     73.86983
       1820.72280    112.20330   3084.63723     74.58456
       1820.87520    109.11850   3070.45403     74.74748
       1821.02760    119.98010   3056.00107     76.82585
       1821.18000    119.87050   3043.09928     78.05428
       1821.33240    122.37650   3087.81828     78.21326
       1821.48480    121.21530   3138.45424     78.15767
       1821.63720    121.03430   3208.18098     77.96165
       1821.78960    115.65400   3232.81780     77.20566
       1821.94200    114.09830   3143.45399     76.23472
       1822.09440    111.84380   3120.54596     75.49250
       1822.24680    117.19200   3144.00028     76.37361
       1822.39920    118.41110   3131.81788     80.27335
       1822.55160    120.00050   3132.90821     77.14881
       1822.70400    107.70790   3103.09180     70.51947
       1822.85640     96.81347   3094.90875     66.98120
       1823.00880     84.76117   3119.81758     66.57612
       1823.16120    101.36450   3130.45554     71.75781
       1823.31360    114.43190   3113.91635     77.67444
       1823.46600    132.33410   3088.90860     82.46873
       1823.61840    137.47880   3085.72755     88.56537
       1823.77080    148.45760   3117.81903     91.32732
       1823.92320    160.42000   3123.54491     92.14817
       1824.07560    161.51420   3101.74969     92.44822
       1824.22800    160.36480   3118.09105     91.21487
       1824.38040    156.34070   3140.81923     89.92301
       1824.53280    162.43060   3149.49911     89.24306
       1824.68520    164.95920   3144.27230     90.50186
       1824.83760    163.00250   3102.27349     90.79736
       1824.99000    156.13400   3097.27374     91.21125
       1825.14240    159.55140   3107.25076     90.54758
       1825.29480    163.22110   3097.18157     90.91687
       1825.44720    167.14560   3091.18142     91.20579
       1825.59960    163.64520   3124.45539     91.07064
       1825.75200    156.01540   3163.16749     92.64518
       1825.90440    159.58080   3184.09046     92.42786
       1826.05680    162.56470   3158.81744     94.01489
       1826.20920    172.81340   3109.45389     94.06698
       1826.36160    173.63850   3094.45464     95.59778
       1826.51400    173.79220   3101.16743     96.82883
       1826.66640    178.97930   3084.99917     97.50726
       1826.81880    179.05330   3094.09045     97.81794
       1826.97120    177.26620   3090.09109     97.95940
       1827.12360    170.37300   3138.54641     99.94651
       1827.27600    165.72860   3226.18144     98.98051
       1827.42840    170.52590   3246.36254     98.56446
       1827.58080    169.14650   3203.36333     99.44841
       1827.73320    169.87690   3144.36447     97.84702
       1827.88560    171.47200   3147.09140     97.12748
       1828.03800    172.96750   3149.54632     97.34004
       1828.19040    171.07530   3130.90965     95.07706
       1828.34280    154.50340   3114.54581     90.28749
       1828.49520    131.89500   3122.00048     82.02250
       1828.64760    103.92750   3109.45389     74.40345
       1828.80000     80.95760   3145.72681     68.78306
       1828.95240     65.18697   3149.90826     64.84916
       1829.10480     61.22954   3156.00058     62.66103
       1829.25720     65.22434   3191.39900     66.40239
       1829.40960     73.73135   3175.27345     72.21578
       1829.56200     79.94553   3163.45525     75.87585
       1829.71440     87.10387   3144.36447     79.12754
       1829.86680     92.84311   3128.09055     79.10898
       1830.01920    100.68630   3145.27270     78.32881
       1830.17160    103.92390   3125.90990     77.54798
       1830.32400    107.98670   3119.16564     76.76888
       1830.47640    109.49400   3143.81818     75.92711
       1830.62880    110.83170   3172.09016     75.07782
       1830.78120    114.77180   3155.40034     74.92728
