~VERSION INFORMATION 
VERS  .    2.0                                     :CWLS Log ASCII Standard - VERSION 2.0
WRAP  .    NO                                      :One Line per Depth step
PROD  .    Schlumberger Technology Corp.           :LAS Producer
PROG  .    Horizon LASWriter 13.0.221437.3100      :LAS Program name and version
SOURCE.    S1R1-Log[3]/Up                          :Run&Pass Information
CREA  .    05/17/2024                              :LAS Creation date {MM/DD/YYYY}
#--------------------------------------------------
~WELL INFORMATION 
#MNEM           .UNIT                      DATA            :DESCRIPTION
#----            ------          --------------            -----------------------------
STRT            .m                   1744.98000            :START DEPTH
STOP            .m                   2740.91400            :STOP DEPTH
STEP            .m                       0.1524            :STEP
NULL            .                       -999.25            :NULL VALUE
COMP            .                PT Pertamina EP           :COMPANY
WELL            .                BNG-056 (BNG-B3)          :WELL NAME
FLD             .                    Prabumulih            :FIELD NAME
RIGN            .                                          :Rig Name
RIGTYP          .                          Land            :Rig Type
SON             .                A.1009322.16.02           :Service Order Number
SRVC            .                  Schlumberger            :SERVICE COMPANY
DATE            .                    05/17/2024            :LOG DATE(Composite Date for Composite LAP) (MM/DD/YYYY)
CLAB            .                     Rig Name:            :County Label
CNTY            .                PDSI#39.3/D1500-E         :COUNTY
SLAB            .                     Province:            :State/Province Label
STAT            .                 South Sumatra            :STATE or PROVINCE
PROV            .                 South Sumatra            :STATE or PROVINCE
CTRY            .                     Indonesia            :COUNTRY
CONT_REGION     .                          Asia            :Continent Region
SECT            .                                          :Section
TOWN            .                                          :Township
RANG            .                                          :Range
API             .                                          :API NUMBER
UWI             .                                          :UNIQUE WELL ID
LUL             .                ING/IDPRA-WLES            :Logging Unit Location
LUN             .                  OSLC-AA 2175            :Logging Unit Number
LOC             .                         Adera            :FIELD LOCATION
FL1             .                 X: 389146.04             :Field Location Line 1
FL2             .                Y: 9628977.87             :Field Location Line 2
LATI            .deg             3° 21' 22.33" S           :LATITUDE
LONG            .deg             104° 0' 7.68" E           :LONGITUDE
PDAT            .                           MSL            :Local Permanent Datum
LMF             .                            DF            :Logging Measured From
APD             .m                        34.37            :Elevation of Depth Reference (LMF) Above Permanent Datum
EPD             .m                         0.00            :Elevation of Permanent Datum (PDAT) above Mean Sea Level
EKB             .m                        34.37            :Elevation of Kelly Bushing Above Permanent Datum
EDF             .m                        34.37            :Elevation of Drill Floor Above Permanent Datum
EGL             .m                        25.23            :Elevation of Ground Level Above Permanent Datum
ECF             .m                      -999.25            :Elevation of Casing Flange above Permanent Datum
#--------------------------------------------------
~CURVE INFORMATION
#MNEM           .UNIT                  API CODE            :DESCRIPTION
#----            ------          --------------            -----------------------------
DEPT            .m                                         :                                                        Depth Index
GR_CAL          .gAPI                                      :        (EDTC-B)                (6in)                   Calibrated Gamma Ray
TENS            .lbf                                       :        (WLWorkflow)            (6in)                   Cable Tension
DT              .us/ft                                     :        (DSLT-H)                (6in)                   Delta-T (also called Slowness or Interval Transit Time)
#-------------------------------------------------------------
#            DEPT       GR_CAL         TENS           DT 
#                     (EDTC-B)  (WLWorkflo)     (DSLT-H) 
#                                                        
#                        (6in)        (6in)        (6in) 
~ASCII
# ...
       2454.09720    182.91500   4036.90993     79.93319
       2454.24960    176.40040   4076.50103     79.90039
       2454.40200    178.67680   4090.91578     81.40818
       2454.55440    176.10910   4107.54490     83.24966
       2454.70680    187.46710   4091.18105     86.70667
       2454.85920    191.24980   4036.16581     87.40914
       2455.01160    194.84210   4043.36419     87.01924
       2455.16400    186.16960   4052.91632     85.07791
       2455.31640    167.43430   4057.63731     82.30002
       2455.46880    162.92480   4097.25090     78.23201
       2455.62120    150.48560   4085.18090     74.72711
       2455.77360    146.55440   4064.66709     70.16191
       2455.92600    138.84190   4075.90978     68.53803
       2456.07840    140.11320   4012.00110     70.38545
       2456.23080    143.55300   4040.90928     66.33076
       2456.38320    147.10590   4023.08418     68.46985
       2456.53560    151.36430   4056.74932     69.68115
       2456.68800    151.91290   4056.36489     68.67144
       2456.84040    153.58520   4002.83339     67.49406
       2456.99280    152.12030   4004.41604     68.21137
       2457.14520    152.78690   3984.16750     70.17173
       2457.29760    147.36010   3981.81825     69.16936
       2457.45000    146.21530   3986.83374     68.61798
       2457.60240    143.26950   4007.66678     69.38312
       2457.75480    141.28810   4004.24968     68.78333
       2457.90720    138.45440   4026.45406     69.86516
       2458.05960    140.07830   4009.66758     69.10825
       2458.21200    140.93720   3998.08318     65.42389
       2458.36440    138.79910   4007.90957     65.16953
       2458.51680    130.26150   3992.16620     66.21579
       2458.66920    126.98490   3984.91612     66.46703
       2458.82160    127.11850   3982.36453     65.63045
       2458.97400    125.83970   4013.33421     67.62756
       2459.12640    121.26560   4075.25109     71.55921
       2459.27880    121.88440   4183.36396     72.62942
       2459.43120    126.04530   4172.24941     72.79362
       2459.58360    135.74070   4117.16672     69.37970
       2459.73600    147.63500   4071.08314     69.19637
       2459.88840    155.44940   4058.91648     71.38212
       2460.04080    161.88280   4048.09192     71.30988
       2460.19320    151.15980   4033.91772     73.00192
       2460.34560    143.76220   4063.45537     72.61467
       2460.49800    138.63290   4086.36340     72.12958
       2460.65040    145.98060   4076.66739     71.67692
       2460.80280    156.48970   4082.08978     71.06369
       2460.95520    158.10110   4052.91632     69.93075
       2461.10760    141.93890   4063.90948     70.96927
       2461.26000    130.58090   4111.00021     69.83895
       2461.41240    117.50070   4115.08274     70.09507
       2461.56480    126.78100   4139.45428     69.37903
       2461.71720    134.92450   4115.91004     72.25839
       2461.86960    142.76590   4090.74942     73.50755
       2462.02200    143.27290   4075.45567     72.87320
       2462.17440    144.49390   4072.27237     72.83464
       2462.32680    155.81710   4056.66614     72.80182
       2462.47920    159.50800   4059.09183     72.78139
       2462.63160    147.67800   4075.83335     72.76015
       2462.78400    125.29400   4108.18111     72.75704
       2462.93640    117.01600   4242.54492     72.80038
       2463.08880    128.47570   4207.49945     73.10768
       2463.24120    134.64340   4138.54605     72.97744
       2463.39360    130.48330   4090.18290     72.45651
       2463.54600    119.37540   4072.08354     72.30264
       2463.69840    121.14800   4083.72639     73.52410
       2463.85080    125.14180   4059.27167     72.27978
       2464.00320    125.75830   4069.66684     70.64389
       2464.15560    128.47560   4114.99956     69.47111
       2464.30800    133.03230   4082.08304     66.42659
       2464.46040    137.60460   4062.72699     67.49958
       2464.61280    141.10450   4090.41670     66.54400
       2464.76520    143.37480   4138.27403     65.94567
       2464.91760    145.90050   4234.75079     68.28376
       2465.07000    145.51120   4242.54492     66.35209
       2465.22240    139.34250   4185.91554     67.70023
       2465.37480    136.44700   4129.81897     67.70626
       2465.52720    139.75540   4045.08398     66.65616
       2465.67960    148.83520   4014.24919     67.34230
       2465.83200    155.49950   3976.63640     66.93576
       2465.98440    150.04620   3902.50116     67.27750
       2466.13680    143.18280   3896.54597     68.95329
       2466.28920    141.53300   4011.16706     67.76807
       2466.44160    146.51980   4541.00127     67.66816
       2466.59400    156.43670   4963.81743     68.27398
       2466.74640    156.31840   4843.25015     65.91477
       2466.89880    152.92600   4790.50098     68.08342
       2467.05120    144.57670   4695.91711     67.78792
       2467.20360    149.09670   4587.75029     67.26476
       2467.35600    153.45090   4524.74983     67.88698
       2467.50840    160.36580   4440.41725     67.34794
       2467.66080    160.59710   4359.16680     67.64929
       2467.81320    161.95640   4308.00029     67.42328
       2467.96560    160.49820   4235.41622     67.75408
       2468.11800    156.84110   4157.00062     67.01162
       2468.27040    154.48950   4097.91633     66.66019
       2468.42280    157.77760   4111.41611     66.43628
       2468.57520    161.36000   4099.72829     66.45064
       2468.72760    160.18360   4100.49939     66.68893
       2468.88000    165.40490   4094.16652     66.55150
       2469.03240    170.06490   4120.75018     66.60057
       2469.18480    173.48250   4134.36460     66.25648
       2469.33720    165.46420   4112.33333     66.40607
       2469.48960    160.24220   4088.41590     66.06558
       2469.64200    153.26320   4106.36465     66.01377
       2469.79440    150.18550   4112.54465     65.92135
       2469.94680    147.19880   4098.33223     66.27300
       2470.09920    152.59830   4062.08403     67.01336
       2470.25160    159.95530   4106.00046     67.13223
       2470.40400    161.47970   4087.83365     67.58931
       2470.55640    160.77550   4076.66739     66.89305
       2470.70880    155.44040   4081.91668     66.94740
       2470.86120    154.20570   4056.18055     67.25263
       2471.01360    153.24020   4088.92397     67.51055
       2471.16600    150.71120   4109.36360     67.90670
       2471.31840    152.25920   4074.74977     66.89470
       2471.47080    152.09500   4099.24945     67.43292
       2471.62320    157.55320   4077.58236     67.01177
       2471.77560    155.22340   4050.66599     67.25125
       2471.92800    157.82270   4090.83260     66.99260
       2472.08040    154.28190   4070.18165     67.10867
       2472.23280    153.60240   4109.50074     66.85855
       2472.38520    152.70030   4168.16688     67.22346
       2472.53760    157.25200   4153.74988     66.31278
       2472.69000    163.23500   4132.33458     66.31201
       2472.84240    166.00910   4106.66589     66.32466
       2472.99480    165.40760   4102.69352     66.25227
       2473.14720    158.84490   4097.08229     66.37081
       2473.29960    155.95860   4102.50019     66.52309
       2473.45200    161.58920   4090.61454     69.12584
       2473.60440    169.25940   4112.41651     73.55437
       2473.75680    178.35180   4095.38498     77.04826
       2473.90920    175.78810   4099.38433     80.45857
       2474.06160    173.41630   4082.84514     82.54414
       2474.21400    161.52570   4065.07624     83.08693
       2474.36640    160.00420   4105.57108     82.49479
       2474.51880    166.68120   4100.92203     80.95711
       2474.67120    182.23340   4151.53776     79.70316
       2474.82360    183.26340   4187.14300     79.05305
       2474.97600    181.77060   4147.85764     78.57957
       2475.12840    170.83880   4100.13295     77.06021
       2475.28080    174.75700   4049.86792     74.84910
       2475.43320    175.85680   4056.58745     72.77021
