~VERSION INFORMATION 
VERS  .    2.0                                     :CWLS Log ASCII Standard - VERSION 2.0
WRAP  .    NO                                      :One Line per Depth step
PROD  .    Schlumberger Technology Corp.           :LAS Producer
PROG  .    Horizon LASWriter 13.0.221437.3100      :LAS Program name and version
SOURCE.    S1R1-Log[3]/Up                          :Run&Pass Information
CREA  .    07/04/2024                              :LAS Creation date {MM/DD/YYYY}
#--------------------------------------------------
~WELL INFORMATION 
#MNEM           .UNIT                      DATA            :DESCRIPTION
#----            ------          --------------            -----------------------------
STRT            .m                   1718.15760            :START DEPTH
STOP            .m                   2673.85800            :STOP DEPTH
STEP            .m                       0.1524            :STEP
NULL            .                       -999.25            :NULL VALUE
COMP            .                PT Pertamina EP           :COMPANY
WELL            .                BNG-A4(BNG-058)           :WELL NAME
FLD             .                       Benuang            :FIELD NAME
RIGN            .                       Tiger-7            :Rig Name
RIGTYP          .                      Land Rig            :Rig Type
SON             .                A.1059389.01.02           :Service Order Number
SRVC            .                  Schlumberger            :SERVICE COMPANY
DATE            .                    07/04/2024            :LOG DATE(Composite Date for Composite LAP) (MM/DD/YYYY)
CLAB            .                     Rig Name:            :County Label
CNTY            .                       TIGER-7            :COUNTY
SLAB            .                     Province:            :State/Province Label
STAT            .                 South Sumatra            :STATE or PROVINCE
PROV            .                 South Sumatra            :STATE or PROVINCE
CTRY            .                     Indonesia            :COUNTRY
CONT_REGION     .                          Asia            :Continent Region
SECT            .                                          :Section
TOWN            .                                          :Township
RANG            .                                          :Range
API             .                                          :API NUMBER
UWI             .                                          :UNIQUE WELL ID
LUL             .                         IDPRA            :Logging Unit Location
LUN             .                   OSLC-A 2155            :Logging Unit Number
LOC             .                         Adera            :FIELD LOCATION
FL1             .                X: 387.623,270 mE         :Field Location Line 1
FL2             .                Y: 9.630.308,141 mN       :Field Location Line 2
LATI            .deg             3° 20' 38.96" S           :LATITUDE
LONG            .deg             103° 59' 18.38" E         :LONGITUDE
PDAT            .                           MSL            :Local Permanent Datum
LMF             .                            DF            :Logging Measured From
APD             .m                        44.63            :Elevation of Depth Reference (LMF) Above Permanent Datum
EPD             .m                         0.00            :Elevation of Permanent Datum (PDAT) above Mean Sea Level
EKB             .m                        44.63            :Elevation of Kelly Bushing Above Permanent Datum
EDF             .m                        44.63            :Elevation of Drill Floor Above Permanent Datum
EGL             .m                        34.03            :Elevation of Ground Level Above Permanent Datum
ECF             .m                      -999.25            :Elevation of Casing Flange above Permanent Datum
#--------------------------------------------------
~CURVE INFORMATION
#MNEM           .UNIT                  API CODE            :DESCRIPTION
#----            ------          --------------            -----------------------------
DEPT            .m                                         :                                                        Depth Index
TENS            .lbf                                       :        (WLWorkflow)            (1in)                   Cable Tension
BS              .in                                        :(RT)    (Borehole)              (6in)                   Bit Size
GR_CAL          .gAPI                                      :        (EDTC-B)                (6in)                   Calibrated Gamma Ray
DT              .us/ft                                     :        (ASLT-B)                (6in)                   Delta-T (also called Slowness or Interval Transit Time)
#-------------------------------------------------------------
#            DEPT         TENS           BS       GR_CAL           DT 
#                  (WLWorkflo)   (Borehole)     (EDTC-B)     (ASLT-B) 
#                                      (RT)                           
#                        (1in)        (6in)        (6in)        (6in) 
~ASCII
# ...
       2419.19760   3067.99912      8.50000     97.79675     80.45900
       2419.35000   3072.99887      8.50000    105.68330     79.72657
       2419.50240   3026.00031      8.50000    115.17410     78.31056
       2419.65480   3011.00106      8.50000    122.76100     75.97655
       2419.80720   3032.00046      8.50000    112.74650     75.21486
       2419.95960   3021.00056      8.50000    114.88300     76.71874
       2420.11200   3059.00002      8.50000    126.31940     76.77735
       2420.26440   3097.99987      8.50000    132.71410     76.66016
       2420.41680   3078.99902      8.50000    134.95800     78.51563
       2420.56920   3066.00057      8.50000    133.90990     76.98242
       2420.72160   3094.00052      8.50000    145.08150     75.14649
       2420.87400   3005.00091      8.50000    146.35000     78.53516
       2421.02640   2998.49943      8.50000    142.72380     80.39063
       2421.17880   2994.99916      8.50000    130.72740     80.60546
       2421.33120   2982.99886      8.50000    121.42120     79.96093
       2421.48360   3026.00031      8.50000    120.25290     77.00196
       2421.63600   3035.50074      8.50000    126.26720     75.15624
       2421.78840   3044.00077      8.50000    131.53530     75.88868
       2421.94080   3044.99892      8.50000    127.13920     79.73632
       2422.09320   2998.49943      8.50000    121.08570     80.39063
       2422.24560   3026.00031      8.50000    129.08510     76.05470
       2422.39800   3039.00101      8.50000    137.38290     72.18749
       2422.55040   3031.00006      8.50000    152.14870     71.02538
       2422.70280   3052.99987      8.50000    150.23660     71.65040
       2422.85520   3005.00091      8.50000    150.26690     73.21290
       2423.00760   2990.99981      8.50000    138.67600     76.10353
       2423.16000   3022.99911      8.50000    127.28030     78.40822
       2423.31240   3000.00116      8.50000    116.89530     79.30664
       2423.46480   3027.99886      8.50000    116.97140     79.24806
       2423.61720   3085.50050      8.50000    120.91240     77.39259
       2423.76960   3031.00006      8.50000    123.37890     77.42188
       2423.92200   3089.00077      8.50000    119.79650     80.96680
       2424.07440   3057.50054      8.50000    116.04970     80.64453
       2424.22680   3059.49909      8.50000    120.19990     74.88281
       2424.37920   3091.99972      8.50000    123.14550     69.55079
       2424.53160   3050.99907      8.50000    136.96960     67.00196
       2424.68400   3033.00086      8.50000    131.43600     68.95509
       2424.83640   3024.99991      8.50000    120.41130     76.30860
       2424.98880   3010.00066      8.50000     96.34088     81.60154
       2425.14120   3005.00091      8.50000     82.92119     81.39647
       2425.29360   3016.49989      8.50000     80.75702     79.69728
       2425.44600   2988.00086      8.50000     82.21358     77.05079
       2425.59840   3031.00006      8.50000     75.75042     74.75586
       2425.75080   3020.00016      8.50000     60.85039     73.48634
       2425.90320   3022.50004      8.50000     48.67071     72.87110
       2426.05560   3057.99962      8.50000     54.72438     72.97851
       2426.20800   3026.49939      8.50000     73.84442     73.42772
       2426.36040   3037.00021      8.50000     96.46204     74.25781
       2426.51280   3028.99926      8.50000    120.79450     73.25194
       2426.66520   2999.00076      8.50000    126.70380     70.98634
       2426.81760   3009.00026      8.50000    107.96550     71.22070
       2426.97000   3020.00016      8.50000     82.28870     73.71094
       2427.12240   3030.50099      8.50000     65.46641     75.16603
       2427.27480   3063.99977      8.50000     63.19403     74.73632
       2427.42720   3006.50039      8.50000     62.07143     74.85352
       2427.57960   3052.99987      8.50000     63.90565     75.82031
       2427.73200   3027.00071      8.50000     66.63242     76.13282
       2427.88440   2988.99901      8.50000     67.90456     75.23436
       2428.03680   2992.00021      8.50000     60.13025     74.43359
       2428.18920   3001.50063      8.50000     58.30460     74.68749
       2428.34160   2981.00031      8.50000     57.65686     75.25390
       2428.49400   3014.49909      8.50000     59.22771     74.02342
       2428.64640   3000.50023      8.50000     60.19538     71.20116
       2428.79880   3006.99946      8.50000     64.71232     69.77540
       2428.95120   3055.00067      8.50000     89.48649     71.62108
       2429.10360   3024.50084      8.50000    121.32290     75.05858
       2429.25600   3042.49904      8.50000    147.79930     74.20899
       2429.40840   3066.00057      8.50000    162.93620     70.37110
       2429.56080   3047.66740      8.50000    164.02260     68.12499
       2429.71320   3048.49919      8.50000    162.67670     66.86523
       2429.86560   3024.99991      8.50000    164.45010     66.36718
       2430.01800   2990.99981      8.50000    162.28560     66.42580
       2430.17040   3035.99981      8.50000    161.72280     66.70899
       2430.32280   3010.00066      8.50000    157.55440     67.23632
       2430.47520   3035.99981      8.50000    155.23270     67.29493
       2430.62760   3039.99917      8.50000    152.46440     66.49413
       2430.78000   3041.50089      8.50000    146.33920     65.54687
       2430.93240   3041.99997      8.50000    154.41270     65.64453
       2431.08480   3067.00097      8.50000    163.78410     66.04492
       2431.23720   3012.99961      8.50000    168.36410     65.58595
       2431.38960   3021.00056      8.50000    159.88890     69.30664
       2431.54200   2998.49943      8.50000    153.33240     73.09570
       2431.69440   2981.00031      8.50000    156.23220     70.16603
       2431.84680   3022.00096      8.50000    162.80470     67.28515
       2431.99920   3018.99976      8.50000    164.03270     67.61720
       2432.15160   3034.99941      8.50000    166.11850     67.70507
       2432.30400   3050.00092      8.50000    169.81200     67.04100
       2432.45640   3020.49924      8.50000    171.47220     67.12891
       2432.60880   3072.00072      8.50000    173.04160     67.78319
       2432.76120   3039.99917      8.50000    174.99040     67.95897
       2432.91360   3066.00057      8.50000    173.51540     67.61720
       2433.06600   3034.99941      8.50000    165.74360     68.02734
       2433.21840   3016.49989      8.50000    151.43030     70.64453
       2433.37080   3000.99931      8.50000    134.31600     74.83398
       2433.52320   3090.99932      8.50000    116.11840     78.84765
       2433.67560   3056.00107      8.50000     94.44423     79.91210
       2433.82800   3074.99967      8.50000     85.32579     78.43751
       2433.98040   3068.50044      8.50000     86.63380     77.20703
       2434.13280   3048.49919      8.50000    109.54090     76.24023
       2434.28520   3089.00077      8.50000    137.16600     75.83006
       2434.43760   3082.00022      8.50000    151.28860     73.55470
       2434.59000   3058.50094      8.50000    157.67770     69.69727
       2434.74240   3079.50035      8.50000    157.28990     68.42772
       2434.89480   3041.99997      8.50000    158.40940     68.50587
       2435.04720   3052.99987      8.50000    153.28940     68.33009
       2435.19960   3074.99967      8.50000    154.22760     68.13478
       2435.35200   3005.00091      8.50000    163.16420     67.49025
       2435.50440   3057.99962      8.50000    162.34600     67.41210
       2435.65680   3085.99957      8.50000    163.02130     67.16798
       2435.80920   3033.00086      8.50000    166.17390     66.58204
       2435.96160   3107.99937      8.50000    166.92140     66.73828
       2436.11400   3062.99937      8.50000    158.88150     67.05079
       2436.26640   3056.99922      8.50000    148.51350     67.46093
       2436.41880   3101.00107      8.50000    153.29040     67.76368
       2436.57120   3049.00052      8.50000    160.84190     67.85156
