~VERSION INFORMATION 
VERS  .    2.0                                     :CWLS Log ASCII Standard - VERSION 2.0
WRAP  .    NO                                      :One Line per Depth step
PROD  .    Schlumberger Technology Corp.           :LAS Producer
PROG  .    Horizon LASWriter 13.0.221437.3100      :LAS Program name and version
SOURCE.    S1R1-Log[4]/Up                          :Run&Pass Information
CREA  .    07/28/2024                              :LAS Creation date {MM/DD/YYYY}
#--------------------------------------------------
~WELL INFORMATION 
#MNEM           .UNIT                      DATA            :DESCRIPTION
#----            ------          --------------            -----------------------------
STRT            .m                   1495.04400            :START DEPTH
STOP            .m                   2360.37120            :STOP DEPTH
STEP            .m                       0.1524            :STEP
NULL            .                       -999.25            :NULL VALUE
COMP            .                PT Pertamina EP           :COMPANY
WELL            .                BNG-059 (BNG-H1)          :WELL NAME
FLD             .                         Adera            :FIELD NAME
RIGN            .                                          :Rig Name
RIGTYP          .                          Land            :Rig Type
SON             .                A.1009322.17.2            :Service Order Number
SRVC            .                  Schlumberger            :SERVICE COMPANY
DATE            .                    07/28/2024            :LOG DATE(Composite Date for Composite LAP) (MM/DD/YYYY)
CLAB            .                     Rig Name:            :County Label
CNTY            .                South Sumatera            :COUNTY
SLAB            .                     Province:            :State/Province Label
STAT            .                 South Sumatra            :STATE or PROVINCE
PROV            .                 South Sumatra            :STATE or PROVINCE
CTRY            .                     Indonesia            :COUNTRY
CONT_REGION     .                          Asia            :Continent Region
SECT            .                                          :Section
TOWN            .                                          :Township
RANG            .                                          :Range
API             .                                          :API NUMBER
UWI             .                                          :UNIQUE WELL ID
LUL             .                      ING/IDPR            :Logging Unit Location
LUN             .                   OSLC-E 2349            :Logging Unit Number
LOC             .                         Adera            :FIELD LOCATION
FL1             .                X: 397,029.172            :Field Location Line 1
FL2             .                Y: 9,625,078.797          :Field Location Line 2
LATI            .deg             3° 23' 29.559" S          :LATITUDE
LONG            .deg             104° 4' 22.998" E         :LONGITUDE
PDAT            .                           MSL            :Local Permanent Datum
LMF             .                            DF            :Logging Measured From
APD             .m                        25.78            :Elevation of Depth Reference (LMF) Above Permanent Datum
EPD             .m                         0.00            :Elevation of Permanent Datum (PDAT) above Mean Sea Level
EKB             .m                        25.78            :Elevation of Kelly Bushing Above Permanent Datum
EDF             .m                        25.78            :Elevation of Drill Floor Above Permanent Datum
EGL             .m                        16.64            :Elevation of Ground Level Above Permanent Datum
ECF             .m                      -999.25            :Elevation of Casing Flange above Permanent Datum
#--------------------------------------------------
~CURVE INFORMATION
#MNEM           .UNIT                  API CODE            :DESCRIPTION
#----            ------          --------------            -----------------------------
DEPT            .m                                         :                                                        Depth Index
HTEN            .lbf                                       :        (LEH-QT)                (6in)                   Head Tension
GR_CAL          .gAPI                                      :        (SGT-N)                 (6in)                   Calibrated Gamma Ray
DT_BHC          .us/ft                                     :        (MAST-B)                (6in)                   1.5 Feet Span Borehole Compensated Slowness from Near Spacing
BS              .in                                        :(RT)    (Borehole)              (6in)                   Bit Size
#-------------------------------------------------------------
#            DEPT         HTEN       GR_CAL       DT_BHC           BS 
#                     (LEH-QT)      (SGT-N)     (MAST-B)   (Borehole) 
#                                                                (RT) 
#                        (6in)        (6in)        (6in)        (6in) 
~ASCII
# ...
       2231.13600    555.23852     32.72165     78.41553      8.50000
       2231.28840    550.77022     33.97216    101.26334      8.50000
       2231.44080    550.29430     35.22267     77.33447      8.50000
       2231.59320    553.97555     39.59945     75.83311      8.50000
       2231.74560    551.21467     43.55939     74.66670      8.50000
       2231.89800    550.48471     47.10250     76.75001      8.50000
       2232.05040    542.20208     42.72572     74.99939      8.50000
       2232.20280    539.63161     41.26679     72.50000      8.50000
       2232.35520    540.07583     34.38900     74.25001      8.50000
       2232.50760    539.30159     36.68159     74.58276      8.50000
       2232.66000    538.64785     35.84792     72.91554      8.50000
       2232.81240    539.34588     39.39103     73.49999      8.50000
       2232.96480    538.90166     40.84995     74.91688      8.50000
       2233.11720    540.20285     41.68363     74.16686      8.50000
       2233.26960    539.59991     42.66319     74.52750      8.50000
       2233.42200    543.12245     44.33054     86.40473      8.50000
       2233.57440    545.50250     40.78743     75.83448      8.50000
       2233.72680    542.96373     35.30082     75.00000      8.50000
       2233.87920    539.59991     32.19539     73.33104      8.50000
       2234.03160    537.82280     38.03110     74.25001      8.50000
       2234.18400    536.99775     42.32972     74.25001      8.50000
       2234.33640    534.68109     43.76781     74.25001      8.50000
       2234.48880    540.32964     43.14256     75.00000      8.50000
       2234.64120    542.13868     44.80990     74.08447      8.50000
       2234.79360    542.55121     45.85199     74.99939      8.50000
       2234.94600    537.28326     44.80990     73.24938      8.50000
       2235.09840    550.57981     43.55939     72.49939      8.50000
       2235.25080    544.74084     43.76781     75.83448      8.50000
       2235.40320    548.19976     43.35098     55.12500      8.50000
       2235.55560    549.88178     48.97826     74.16616      8.50000
       2235.70800    541.18662     55.43922     73.24999      8.50000
       2235.86040    543.24924     60.02443     74.91679      8.50000
       2236.01280    542.10676     54.81397     84.50001      8.50000
       2236.16520    539.59991     42.51730     83.00179      8.50000
       2236.31760    539.28248     36.05634     80.25000      8.50000
       2236.47000    539.64420     37.30684     80.50000      8.50000
       2236.62240    538.20363     42.10046     77.50000      8.50000
       2236.77480    535.60146     47.51934     76.75001      8.50000
       2236.92720    531.69810     52.93821     77.50061      8.50000
       2237.07960    537.15624     71.69584     84.25001      8.50000
       2237.23200    539.82203     83.36726     65.90038      8.50000
       2237.38440    540.90088     92.32924     61.50023      8.50000
       2237.53680    537.69578     88.24424     75.83427      8.50000
       2237.68920    535.09362     87.54083     71.75977      8.50000
       2237.84160    530.14310     82.20532     64.99939      8.50000
       2237.99400    531.95191     80.87145     63.33107      8.50000
       2238.14640    537.88620     83.24220     40.87499      8.50000
       2238.29880    541.63084     95.03867     70.00000      8.50000
       2238.45120    543.37625    101.91650     67.58446      8.50000
       2238.60360    542.48758     96.28918     66.75001      8.50000
       2238.75600    537.25156     85.45143     69.33679      8.50000
       2238.90840    536.64862     86.70195     55.74999      8.50000
       2239.06080    539.79033    101.70800     69.25001      8.50000
       2239.21320    540.77409    121.50780     69.91896      8.50000
       2239.36560    539.69501    129.42770     70.83448      8.50000
       2239.51800    537.72748    135.26340     70.99999      8.50000
       2239.67040    534.80811    136.51390     73.24999      8.50000
       2239.82280    532.68187    127.76030     71.49998      8.50000
       2239.97520    532.39614    118.17310     67.50000      8.50000
       2240.12760    533.93226    110.41990     65.83448      8.50000
       2240.28000    536.90243    122.92500     66.50001      8.50000
       2240.43240    537.25156    140.84900     70.17648      8.50000
       2240.58480    533.79242    158.18940     72.33392      8.50000
       2240.73720    532.77696    162.56610     75.00000      8.50000
       2240.88960    533.37990    159.85670     72.58446      8.50000
       2241.04200    532.52315    157.98100     71.75001      8.50000
       2241.19440    536.36289    140.47380     73.24938      8.50000
       2241.34680    541.28171    118.17310     59.32234      8.50000
       2241.49920    540.71047     88.36929     77.00001      8.50000
       2241.65160    539.56822     82.84621     83.33104      8.50000
       2241.80400    537.72748     69.13230     80.25061      8.50000
       2241.95640    533.79242     66.42286     78.24999      8.50000
       2242.10880    536.48991     64.23447     77.49939      8.50000
       2242.26120    537.75940     73.78001     78.99998      8.50000
       2242.41360    538.33042     70.86217     77.66895      8.50000
       2242.56600    535.63316     61.06651     77.58105      8.50000
       2242.71840    536.20440     54.39713     75.75036      8.50000
       2242.87080    534.96660     53.56346     77.54054      8.50000
       2243.02320    537.88620     51.27086     78.33448      8.50000
       2243.17560    538.52083     46.26882     78.74999      8.50000
       2243.32800    537.37835     45.64357     76.50001      8.50000
       2243.48040    537.12454     44.18465     75.74938      8.50000
       2243.63280    539.44120     42.93414     39.27004      8.50000
       2243.78520    547.53342     39.59945     73.96975      8.50000
       2243.93760    557.43446     37.72368     73.41553      8.50000
       2244.09000    553.65812     37.09843     73.49999      8.50000
       2244.24240    555.81606     36.47317     72.50000      8.50000
       2244.39480    555.08610     39.80787     70.74999      8.50000
       2244.54720    556.22858     39.80787     73.41553      8.50000
       2244.69960    557.32340     43.05919     72.50342      8.50000
       2244.85200    556.32390     44.67443     72.58446      8.50000
       2245.00440    554.29275     50.71856     70.91721      8.50000
       2245.15680    551.39699     50.53098     69.08350      8.50000
       2245.30920    551.53187     47.87365     68.41894      8.50000
       2245.46160    546.58136     42.87161     69.99939      8.50000
       2245.61400    531.13316     41.47521     71.75001      8.50000
       2245.76640    532.36444     39.20866     70.75060      8.50000
       2245.91880    526.77928     38.79183     74.16552      8.50000
       2246.07120    530.01608     37.33290     72.45946      8.50000
       2246.22360    532.20572     38.76577     73.41553      8.50000
       2246.37600    534.61770     40.01628     71.66893      8.50000
       2246.52840    535.53784     42.93414     69.25001      8.50000
       2246.68080    535.03022     44.39306     69.25001      8.50000
       2246.83320    535.15701     46.26883     68.49999      8.50000
       2246.98560    534.55408     44.60148     80.00000      8.50000
       2247.13800    542.48758     45.22674     71.74876      8.50000
       2247.29040    538.42574     47.10250     69.25001      8.50000
       2247.44280    535.69656     52.93821     71.66552      8.50000
       2247.59520    539.31418     59.19075     68.91677      8.50000
       2247.74760    530.49223     59.06570     72.58333      8.50000
       2247.90000    523.70098     59.89937     78.91894      8.50000
       2248.05240    527.92154     60.73304     80.91553      8.50000
       2248.20480    528.27067     60.44126     78.50036      8.50000
       2248.35720    527.25521     51.06245     57.26625      8.50000
       2248.50960    526.93800     43.35098     55.99755      8.50000
