~VERSION INFORMATION 
VERS  .    2.0                                     :CWLS Log ASCII Standard - VERSION 2.0
WRAP  .    NO                                      :One Line per Depth step
PROD  .    Schlumberger Technology Corp.           :LAS Producer
PROG  .    Horizon LASWriter 13.0.221437.3100      :LAS Program name and version
SOURCE.    S1R1-Log[3]/Up                          :Run&Pass Information
CREA  .    07/04/2024                              :LAS Creation date {MM/DD/YYYY}
#--------------------------------------------------
~WELL INFORMATION 
#MNEM           .UNIT                      DATA            :DESCRIPTION
#----            ------          --------------            -----------------------------
STRT            .m                   1718.15760            :START DEPTH
STOP            .m                   2673.85800            :STOP DEPTH
STEP            .m                       0.1524            :STEP
NULL            .                       -999.25            :NULL VALUE
COMP            .                PT Pertamina EP           :COMPANY
WELL            .                BNG-A4(BNG-058)           :WELL NAME
FLD             .                       Benuang            :FIELD NAME
RIGN            .                       Tiger-7            :Rig Name
RIGTYP          .                      Land Rig            :Rig Type
SON             .                A.1059389.01.02           :Service Order Number
SRVC            .                  Schlumberger            :SERVICE COMPANY
DATE            .                    07/04/2024            :LOG DATE(Composite Date for Composite LAP) (MM/DD/YYYY)
CLAB            .                     Rig Name:            :County Label
CNTY            .                       TIGER-7            :COUNTY
SLAB            .                     Province:            :State/Province Label
STAT            .                 South Sumatra            :STATE or PROVINCE
PROV            .                 South Sumatra            :STATE or PROVINCE
CTRY            .                     Indonesia            :COUNTRY
CONT_REGION     .                          Asia            :Continent Region
SECT            .                                          :Section
TOWN            .                                          :Township
RANG            .                                          :Range
API             .                                          :API NUMBER
UWI             .                                          :UNIQUE WELL ID
LUL             .                         IDPRA            :Logging Unit Location
LUN             .                   OSLC-A 2155            :Logging Unit Number
LOC             .                         Adera            :FIELD LOCATION
FL1             .                X: 387.623,270 mE         :Field Location Line 1
FL2             .                Y: 9.630.308,141 mN       :Field Location Line 2
LATI            .deg             3° 20' 38.96" S           :LATITUDE
LONG            .deg             103° 59' 18.38" E         :LONGITUDE
PDAT            .                           MSL            :Local Permanent Datum
LMF             .                            DF            :Logging Measured From
APD             .m                        44.63            :Elevation of Depth Reference (LMF) Above Permanent Datum
EPD             .m                         0.00            :Elevation of Permanent Datum (PDAT) above Mean Sea Level
EKB             .m                        44.63            :Elevation of Kelly Bushing Above Permanent Datum
EDF             .m                        44.63            :Elevation of Drill Floor Above Permanent Datum
EGL             .m                        34.03            :Elevation of Ground Level Above Permanent Datum
ECF             .m                      -999.25            :Elevation of Casing Flange above Permanent Datum
#--------------------------------------------------
~CURVE INFORMATION
#MNEM           .UNIT                  API CODE            :DESCRIPTION
#----            ------          --------------            -----------------------------
DEPT            .m                                         :                                                        Depth Index
TENS            .lbf                                       :        (WLWorkflow)            (1in)                   Cable Tension
BS              .in                                        :(RT)    (Borehole)              (6in)                   Bit Size
GR_CAL          .gAPI                                      :        (EDTC-B)                (6in)                   Calibrated Gamma Ray
DT              .us/ft                                     :        (ASLT-B)                (6in)                   Delta-T (also called Slowness or Interval Transit Time)
#-------------------------------------------------------------
#            DEPT         TENS           BS       GR_CAL           DT 
#                  (WLWorkflo)   (Borehole)     (EDTC-B)     (ASLT-B) 
#                                      (RT)                           
#                        (1in)        (6in)        (6in)        (6in) 
~ASCII
# ...
       1788.26160   2340.00032      8.50000    148.46910     97.16795
       1788.41400   2379.00017      8.50000    156.70040     95.38085
       1788.56640   2374.00042      8.50000    158.65190     94.88281
       1788.71880   2373.00002      8.50000    160.01550     95.00976
       1788.87120   2317.00012      8.50000    152.97960     95.04883
       1789.02360   2318.00052      8.50000    146.29090     94.10154
       1789.17600   2342.00112      8.50000    139.37860     91.20116
       1789.32840   2336.00097      8.50000    139.00420     87.82227
       1789.48080   2319.49999      8.50000    145.54970     86.72852
       1789.63320   2381.99913      8.50000    155.33910     88.45701
       1789.78560   2300.49914      8.50000    161.31990     89.57030
       1789.93800   2336.99912      8.50000    155.48440     88.26173
       1790.09040   2356.49905      8.50000    147.02150     84.47267
       1790.24280   2326.99962      8.50000    136.12310     78.53516
       1790.39520   2348.50035      8.50000    135.54540     75.17578
       1790.54760   2325.00107      8.50000    127.24160     75.48829
       1790.70000   2293.99991      8.50000    112.55710     73.91601
       1790.85240   2330.99897      8.50000     92.76344     66.90430
       1791.00480   2325.00107      8.50000     73.10279     59.60937
       1791.15720   2354.99957      8.50000     66.24432     58.64258
       1791.30960   2392.00088      8.50000     65.97775     62.60741
       1791.46200   2303.50034      8.50000     68.44728     67.38281
       1791.61440   2278.00026      8.50000     68.52291     74.24803
       1791.76680   2286.50029      8.50000     67.45414     79.95117
       1791.91920   2419.00043      8.50000     66.22697     81.04492
       1792.07160   2536.00000      8.50000     67.22054     81.48438
       1792.22400   2357.00037      8.50000     70.72916     80.77148
       1792.37640   2368.00027      8.50000     73.26656     78.33985
       1792.52880   2366.50080      8.50000     74.33035     76.31835
       1792.68120   2308.00101      8.50000     75.67031     75.52734
       1792.83360   2316.50104      8.50000     72.05492     75.28319
       1792.98600   2319.00092      8.50000     72.42902     74.95117
       1793.13840   2319.99907      8.50000     69.33337     74.07225
       1793.29080   2357.00037      8.50000     73.03707     73.59375
       1793.44320   2347.00087      8.50000     73.33411     75.04883
       1793.59560   2347.99902      8.50000     71.00424     76.68945
       1793.74800   2349.99982      8.50000     76.93339     77.05079
       1793.90040   2355.99997      8.50000     91.83783     77.46093
       1794.05280   2390.00008      8.50000    116.54190     79.19923
       1794.20520   2390.49915      8.50000    140.75840     81.84569
       1794.35760   2358.00077      8.50000    157.87930     83.58399
       1794.51000   2366.99987      8.50000    166.59640     83.98438
       1794.66240   2375.49990      8.50000    173.18320     83.62304
       1794.81480   2297.99926      8.50000    167.53950     83.27148
       1794.96720   2336.99912      8.50000    162.30880     83.75002
       1795.11960   2342.99927      8.50000    151.09710     84.36523
       1795.27200   2320.00132      8.50000    152.28880     83.99413
       1795.42440   2318.49959      8.50000    156.73480     83.60353
       1795.57680   2317.00012      8.50000    158.09820     83.95509
       1795.72920   2399.99958      8.50000    161.99260     84.25781
       1795.88160   2455.50041      8.50000    158.58580     83.99413
       1796.03400   2343.99967      8.50000    151.88250     83.80860
       1796.18640   2394.99983      8.50000    146.38600     84.35547
       1796.33880   2381.99913      8.50000    156.58190     85.25390
       1796.49120   2380.00057      8.50000    169.74260     86.02538
       1796.64360   2373.00002      8.50000    178.13270     86.29882
       1796.79600   2316.49879      8.50000    169.36150     86.03516
       1796.94840   2321.99987      8.50000    158.95850     85.93751
       1797.10080   2359.50025      8.50000    153.97150     86.46484
       1797.25320   2324.49974      8.50000    151.63800     87.20703
       1797.40560   2345.00007      8.50000    157.18560     87.50976
       1797.55800   2344.50099      8.50000    161.95990     87.10937
       1797.71040   2344.50099      8.50000    170.26610     86.80664
       1797.86280   2359.99932      8.50000    167.21470     86.85547
       1798.01520   2362.00012      8.50000    162.73280     87.06054
       1798.16760   2326.99962      8.50000    153.93510     88.32031
       1798.32000   2353.99917      8.50000    150.79760     89.60937
       1798.47240   2342.00112      8.50000    148.46070     89.25781
       1798.62480   2366.99987      8.50000    147.77320     89.20899
       1798.77720   2391.49955      8.50000    152.93750     88.71094
       1798.92960   2362.00012      8.50000    152.24460     87.18749
       1799.08200   2361.49880      8.50000    160.05500     86.79689
       1799.23440   2375.00082      8.50000    167.40300     86.88476
       1799.38680   2341.49979      8.50000    173.57890     86.94338
       1799.53920   2381.99913      8.50000    177.37980     87.13866
       1799.69160   2331.99937      8.50000    171.91470     87.61720
       1799.84400   2332.50069      8.50000    168.28430     88.09570
       1799.99640   2354.50050      8.50000    164.84470     87.90039
       1800.14880   2325.50014      8.50000    171.09540     87.42188
       1800.30120   2341.00072      8.50000    174.42320     87.23632
       1800.45360   2363.49960      8.50000    176.23500     87.66603
       1800.60600   2336.50004      8.50000    177.39140     88.76953
       1800.75840   2373.00002      8.50000    180.34980     90.76173
       1800.91080   2387.00113      8.50000    176.39930     93.94530
       1801.06320   2357.00037      8.50000    171.17450     96.73828
       1801.21560   2345.00007      8.50000    163.49360     97.95900
       1801.36800   2343.99967      8.50000    164.26750     98.81835
       1801.52040   2393.99943      8.50000    160.79190     99.31640
       1801.67280   2341.00072      8.50000    155.93440     99.24803
       1801.82520   2330.49989      8.50000    148.31020     99.64845
       1801.97760   2364.99907      8.50000    148.25690    100.17578
       1802.13000   2400.99998      8.50000    151.66160    102.13866
       1802.28240   2370.00107      8.50000    147.06180    102.50976
       1802.43480   2370.99922      8.50000    123.66420     90.66407
       1802.58720   2387.99928      8.50000     98.86160     75.45897
       1802.73960   2364.99907      8.50000     86.01186     68.73048
       1802.89200   2393.50035      8.50000     88.76227     69.08204
       1803.04440   2370.99922      8.50000     88.71999     72.16795
       1803.19680   2336.50004      8.50000     82.92052     72.50976
       1803.34920   2398.00103      8.50000     79.55796     72.39259
       1803.50160   2359.00117      8.50000     79.66490     72.50976
       1803.65400   2356.49905      8.50000     84.03849     72.10937
       1803.80640   2353.00102      8.50000     83.25214     72.94922
       1803.95880   2302.99902      8.50000     80.19572     72.47071
       1804.11120   2364.00092      8.50000     75.28841     69.43359
       1804.26360   2396.00023      8.50000     69.23405     67.31444
       1804.41600   2410.99948      8.50000     81.25144     66.75781
       1804.56840   2402.00038      8.50000     98.59969     75.41014
       1804.72080   2363.00052      8.50000    115.67590     88.20312
       1804.87320   2370.00107      8.50000    109.78920     86.66991
       1805.02560   2360.99972      8.50000     96.60239     73.95509
       1805.17800   2332.99977      8.50000     83.86227     66.73828
       1805.33040   2374.49950      8.50000     88.96236     70.29298
       1805.48280   2379.00017      8.50000     94.67235     77.82227
       1805.63520   2352.00062      8.50000    104.89760     84.93164
