~VERSION INFORMATION 
VERS  .    2.0                                     :CWLS Log ASCII Standard - VERSION 2.0
WRAP  .    NO                                      :One Line per Depth step
PROD  .    Schlumberger Technology Corp.           :LAS Producer
PROG  .    Horizon LASWriter 13.0.221437.3100      :LAS Program name and version
SOURCE.    S1R1-Log[3]/Up                          :Run&Pass Information
CREA  .    05/17/2024                              :LAS Creation date {MM/DD/YYYY}
#--------------------------------------------------
~WELL INFORMATION 
#MNEM           .UNIT                      DATA            :DESCRIPTION
#----            ------          --------------            -----------------------------
STRT            .m                   1744.98000            :START DEPTH
STOP            .m                   2740.91400            :STOP DEPTH
STEP            .m                       0.1524            :STEP
NULL            .                       -999.25            :NULL VALUE
COMP            .                PT Pertamina EP           :COMPANY
WELL            .                BNG-056 (BNG-B3)          :WELL NAME
FLD             .                    Prabumulih            :FIELD NAME
RIGN            .                                          :Rig Name
RIGTYP          .                          Land            :Rig Type
SON             .                A.1009322.16.02           :Service Order Number
SRVC            .                  Schlumberger            :SERVICE COMPANY
DATE            .                    05/17/2024            :LOG DATE(Composite Date for Composite LAP) (MM/DD/YYYY)
CLAB            .                     Rig Name:            :County Label
CNTY            .                PDSI#39.3/D1500-E         :COUNTY
SLAB            .                     Province:            :State/Province Label
STAT            .                 South Sumatra            :STATE or PROVINCE
PROV            .                 South Sumatra            :STATE or PROVINCE
CTRY            .                     Indonesia            :COUNTRY
CONT_REGION     .                          Asia            :Continent Region
SECT            .                                          :Section
TOWN            .                                          :Township
RANG            .                                          :Range
API             .                                          :API NUMBER
UWI             .                                          :UNIQUE WELL ID
LUL             .                ING/IDPRA-WLES            :Logging Unit Location
LUN             .                  OSLC-AA 2175            :Logging Unit Number
LOC             .                         Adera            :FIELD LOCATION
FL1             .                 X: 389146.04             :Field Location Line 1
FL2             .                Y: 9628977.87             :Field Location Line 2
LATI            .deg             3° 21' 22.33" S           :LATITUDE
LONG            .deg             104° 0' 7.68" E           :LONGITUDE
PDAT            .                           MSL            :Local Permanent Datum
LMF             .                            DF            :Logging Measured From
APD             .m                        34.37            :Elevation of Depth Reference (LMF) Above Permanent Datum
EPD             .m                         0.00            :Elevation of Permanent Datum (PDAT) above Mean Sea Level
EKB             .m                        34.37            :Elevation of Kelly Bushing Above Permanent Datum
EDF             .m                        34.37            :Elevation of Drill Floor Above Permanent Datum
EGL             .m                        25.23            :Elevation of Ground Level Above Permanent Datum
ECF             .m                      -999.25            :Elevation of Casing Flange above Permanent Datum
#--------------------------------------------------
~CURVE INFORMATION
#MNEM           .UNIT                  API CODE            :DESCRIPTION
#----            ------          --------------            -----------------------------
DEPT            .m                                         :                                                        Depth Index
GR_CAL          .gAPI                                      :        (EDTC-B)                (6in)                   Calibrated Gamma Ray
TENS            .lbf                                       :        (WLWorkflow)            (6in)                   Cable Tension
DT              .us/ft                                     :        (DSLT-H)                (6in)                   Delta-T (also called Slowness or Interval Transit Time)
#-------------------------------------------------------------
#            DEPT       GR_CAL         TENS           DT 
#                     (EDTC-B)  (WLWorkflo)     (DSLT-H) 
#                                                        
#                        (6in)        (6in)        (6in) 
~ASCII
       1744.98000      -999.25   2931.08373     73.34698
       1745.13240     63.75797   2942.09037     73.50993
       1745.28480     63.08944   2924.45411     72.95562
       1745.43720     61.92735   2940.33237     73.10153
       1745.58960     67.49381   2922.72758     73.94073
       1745.74200     66.03088   2912.18179     73.31586
       1745.89440     64.78983   2912.41784     73.31242
       1746.04680     62.24305   2904.81930     73.20659
       1746.19920     64.04034   2913.18219     73.39413
       1746.35160     68.36533   2920.41654     73.35594
       1746.50400     68.51025   2920.63686     74.04174
       1746.65640     66.21087   2932.99910     73.87422
       1746.80880     66.43262   2916.74991     75.38396
       1746.96120     62.65756   2906.81785     74.27808
       1747.11360     66.35379   2914.90873     75.05212
       1747.26600     63.98851   2899.33396     74.43301
       1747.41840     66.96469   2921.09097     72.82087
       1747.57080     63.76796   2940.09182     71.89635
       1747.72320     71.00417   2939.75011     70.89547
       1747.87560     71.11168   2941.36424     72.87786
       1748.02800     74.23515   2921.54509     73.10009
       1748.18040     69.03736   2898.81915     74.76016
       1748.33280     71.68992   2914.18259     74.84111
       1748.48520     72.09126   2914.45461     73.85347
       1748.63760     74.02020   2917.33441     73.69991
       1748.79000     70.96404   2949.99915     72.87780
       1748.94240     76.99347   2935.63611     79.90756
       1749.09480     75.39233   2938.00110     74.50300
       1749.24720     68.01921   2949.09093     68.24634
       1749.39960     65.29543   2936.36449     68.81116
       1749.55200     66.56666   2953.54664     68.12701
       1749.70440     69.61691   2948.27262     52.65740
       1749.85680     60.06651   2938.09102     63.32141
       1750.00920     60.64915   2939.18135     65.37195
       1750.16160     67.70036   2929.18185     58.21137
       1750.31400     72.20189   2921.99920     57.97461
       1750.46640     71.40272   2935.09207     71.29866
       1750.61880     67.77089   2939.18135     64.50229
       1750.77120     67.02608   2951.63576     56.68280
       1750.92360     71.09058   2946.18190     56.35676
       1751.07600     80.46790   2929.54604     56.88741
       1751.22840     85.78841   2950.54544     57.04362
       1751.38080     84.55462   2942.00045     57.11480
       1751.53320     73.39796   2933.45546     56.49252
       1751.68560     67.11140   2945.81771     56.72724
       1751.83800     63.14566   2928.99975     56.56353
       1751.99040     66.23718   2930.45426     56.06747
       1752.14280     69.00136   2940.09182     55.99456
       1752.29520     64.27817   2943.09077     56.23566
       1752.44760     65.66257   2971.27282     56.53894
       1752.60000     67.80255   2953.63656     56.77830
       1752.75240     69.65796   2936.45441     56.81051
       1752.90480     69.65654   2940.91013     65.69415
       1753.05720     64.72009   2931.45466     65.39990
       1753.20960     63.91275   2943.09077     67.62332
       1753.36200     63.36974   2947.27222     88.97624
       1753.51440     65.83855   2933.54539     88.86033
       1753.66680     67.44036   2934.18160     89.06722
       1753.81920     65.98278   2925.72653     80.67239
       1753.97160     63.07848   2928.27362     82.07036
       1754.12400     67.33131   2948.16696     98.58716
       1754.27640     69.96620   2938.54514    100.84095
       1754.42880     69.53394   2928.09152     85.00028
       1754.58120     66.58516   2941.00005     86.00926
       1754.73360     68.49966   2925.36459     85.85997
       1754.88600     71.08190   2921.72718     71.86364
       1755.03840     72.20360   2924.00000     71.97361
       1755.19080     72.82101   2921.63726     70.88520
       1755.34320     75.43366   2940.91687     70.49673
       1755.49560     67.33530   2934.36369     71.39888
       1755.64800     57.73420   2926.27282     67.32337
       1755.80040     52.06783   2933.25089     66.12724
       1755.95280     57.47843   2945.72778     57.46349
       1756.10520     62.75444   2930.41605     57.27783
       1756.25760     66.82715   2936.27232     57.15140
       1756.41000     66.93846   2928.54564     57.20279
       1756.56240     67.03048   2936.00030     57.43785
       1756.71480     65.61404   2919.36444     70.30922
       1756.86720     68.59184   2915.81920     85.01168
       1757.01960     66.56831   2912.50102     85.17093
       1757.17200     61.62421   2913.72848     96.82414
       1757.32440     49.45590   2917.81775     88.54202
       1757.47680     41.60617   2928.58385     92.88207
       1757.62920     42.84327   2935.81821     89.72577
       1757.78160     48.45634   2953.54439     91.48849
       1757.93400     56.48961   2948.08378     92.48458
       1758.08640     55.17966   2927.27322    103.08248
       1758.23880     55.84999   2946.18190     99.33932
       1758.39120     59.66520   2959.63671     96.71164
       1758.54360     63.62307   2943.72698     93.64309
       1758.69600     63.04198   2944.72738     85.20839
       1758.84840     61.80652   2934.54579     89.72873
       1759.00080     57.19793   2940.81796     87.82474
       1759.15320     54.00193   2957.63591     84.89896
       1759.30560     44.66078   2932.72708     83.22378
       1759.45800     40.69543   2943.54489     74.92411
       1759.61040     44.25713   2926.72693     72.28292
       1759.76280     49.92804   2921.25059     72.11297
       1759.91520     59.70398   2937.18280     71.22332
       1760.06760     61.95461   2936.00030     70.82500
       1760.22000     57.31210   2921.00105     71.00243
       1760.37240     52.22240   2959.00050     71.51297
       1760.52480     48.08345   2955.72729     72.15390
       1760.67720     51.12801   2955.72729     70.04609
       1760.82960     51.99849   2934.27377     72.98875
       1760.98200     51.78125   2942.72658     64.02638
       1761.13440     48.32812   2963.27187     64.21877
       1761.28680     50.01218   2958.72848     72.04491
       1761.43920     50.95870   2942.00045     62.07667
       1761.59160     52.23132   2949.09093     74.28576
       1761.74400     47.17038   2943.27287     74.82584
       1761.89640     47.49392   2948.63681     70.39871
       1762.04880     46.87420   2961.99945     74.73477
       1762.20120     54.68844   2960.81921     82.37888
       1762.35360     65.58833   2964.08343     82.91002
       1762.50600     78.67840   2974.09193     91.54857
       1762.65840     87.79626   2966.45517     91.68210
       1762.81080     88.03521   2977.00096     78.21259
       1762.96320     88.22287   2976.54459     67.79246
       1763.11560     81.49960   2967.27347     65.01323
       1763.26800     78.24135   2998.09028     65.59567
       1763.42040     77.86897   2989.09118     70.29389
       1763.57280     82.77109   2996.36375     71.44079
       1763.72520     84.05876   3019.18186     72.29249
       1763.87760     79.65899   2991.90804     70.20242
       1764.03000     75.30331   3019.18186     67.99131
       1764.18240     75.35664   3009.45437     67.27183
       1764.33480     75.35876   2992.33293     67.95382
       1764.48720     77.46729   2988.81916     70.43602
       1764.63960     74.23455   3006.18116     75.47735
       1764.79200     75.38956   3014.63622     78.88477
       1764.94440     75.93837   3029.09144     80.24957
       1765.09680     79.97537   3008.72824     84.75019
       1765.24920     82.41669   3002.54600     81.34761
       1765.40160     72.64178   3011.99921     75.61850
       1765.55400     64.35930   2980.90814     73.20318
       1765.70640     62.56465   3004.36470     69.77680
       1765.85880     69.68998   2992.83425     66.61197
       1766.01120     77.17421   2991.18190     66.61703
       1766.16360     74.74089   3041.63577     65.68940
       1766.31600     72.09335   3024.99991     66.13236
