~Version Information
 VERS.                  2.0:   CWLS log ASCII Standard -VERSION 2.0
 WRAP.                   NO:   One line per depth step
~Well Information Block
#MNEM.UNIT     VALUE/NAME     DESCRIPTION
#---------     -----------    ---------------------------
 STRT.M              1700.1000: START DEPTH
 STOP.M              2733.9000: STOP DEPTH
 STEP.M                 0.1500: STEP DEPTH
 NULL.               -999.2500: NULL VALUE
 CNTY.         Tanjung Benuang:  COUNTY NAME
 CTRY.               Indonesia:  COUNTRY NAME
 PROV.          South Sumatera:  PROVINCE
 STAT.          South Sumatera:  STATE NAME
 FLD .                 Benuang:  FIELD NAME
 DATE.      15.00.00 14-May-24:  END TIME
 WELL.                  BNG-B3:  WELL NAME
 COMP.     PHR Region 1 Zona 4:  COMPANY
 API .                        :  API NUMBER
 SRVC.             Halliburton:  SERVICE COMPANY
 UWI .                        :  UNIQUE WELL IDENTIFIER
 LOC .                        :  LOCATION
~Parameter Information Block
#MNEM.UNIT       Value        Description
#---------     -----------    ---------------------------
 AV  .fpm             311.0000:  Ann Velocity 
 AVMX.fpm             315.0000:  Max Ann Veloc 
 AZIF.deg             294.2000:  Azm, Final 
 BHAT.        Rotary Steerable:  BHA Type 
 BROT.°/100'            0.2000:  Build Rotating 
 BS  .in                8.5000:  Bit Size 
 BSZ .in                8.5000:  Bit Size 
 BTPL.psig            496.0000:  Bit Press Loss 
 CABU.                      No:  Customer Abuse 
 CGEO.           Achmad Gazali:  Customer Geo 
 COMM.                     üQb:  Run Comments 1 
 TCS .hr               88.2729:  Time Ciculation Ended 
 CV  .fpm             378.0000:  Crit Velocity 
 CVMX.fpm             380.0000:  Max Crit Veloc 
 DD1 .          Yudi Kurniawan:  Direct Drillr 1 
 DD2 .               Aminuddin:  Direct Drillr 2 
 DDSV.               Geo-Pilot:  DD Service 
 DEFF.%               100.0000:  % Det Eff 
 DLRX.°/100'            0.5000:  Dogleg Rot Max 
 DLSO.°/100'            1.1000:  Dogleg Oriented 
 DLSX.°/100'            2.1900:  Dogleg Str Max 
 DRET.      10.25.00 13-May-24:  Drill End Time 
 DRST.      23.00.00 09-May-24:  Drill Start Tim 
 DTIM.hr               52.9642:  Time Drilling 
 EDEP.m              2734.0000:  End Depth 
 ENG1.      Andika BP Pulungan:  Engineer 1 
 ENG2.         Edward Joshua M:  Engineer 2 
 ENG3.       Pandamama Siahaan:  Engineer 3 
 ENG4.        Siti Nurfitriani:  Engineer 4 
 ETIM.      18.45.00 14-May-24:  End Time 
 FLOI.gpm             550.0000:  Flow In 
 FLON.gpm             400.0000:  Flow In Min 
 FLOS.mptm              4.2000:  Fluid Loss 
 FLOX.gpm             600.0000:  Flow In Max 
 DFT .                 Polymer:  Mud Type 
 HPRE.                      No:  High Pressure 
 HTEM.                      No:  High Temp 
 HYDO.m                 0.0000:  Hydro Offset 
 IFIN.deg              25.6000:  Inc, Final 
 IMAX.deg              26.9023:  Inc Max 
 IMIN.deg              20.4496:  Inc Min 
 IMND.m              2580.0901:  Inc Min Depth 
 IMXD.m              2034.3999:  Inc Max Depth 
 JARR.                      No:  Jarring 
 LETM.      10.25.00 13-May-24:  Log End Time 
 LOST.hr                     0:  Lost Rig Time 
 LSTM.      23.00.00 09-May-24:  Log Start Time 
 MDCL.ppm           42000.0000:  Mud Chlorides 
 MDES.             Fresh Water:  Mud Desc 
 DFD .SG                1.3000:  Mud Density 
 MDMN.SG                1.2500:  Dens Mud Min 
 MDMX.SG                1.3000:  Dens Mud Max 
 PH  .pH               10.0000:  Mud pH 
 MOIL.                       0:  Run Mud Oil % 
 MOWR.                   0 100:  Run Mud OWR 
 MSND.                     0.2:  Run Mud Sand % 
 MSOL.                     8.9:  Run Mud Solids% 
 DFV .spqt             80.0000:  Mud Viscosity 
 MWOD.in                6.7500:  MWD Tool OD 
 MWSI.                      No:  Serv Intrp, MWD 
 OTIM.hr              124.1140:  Time Operating 
 PMAX.psig           3200.0000:  Press Op, Max 
 PV  .cP               24.0000:  Mud PV 
 RMS .ohmm              0.0800:  Mud Resistivity 
 RMCS.ohmm              0.1050:  Mud Cake Resistivity 
 MCST.degF             81.0000:  Mud Cake Sample Temperature 
 RMFS.ohmm              0.0500:  Mud Filtrate Resistivity 
 RMFT.degF             81.0000:  Mud Filtrate Sample Temperature 
 RMMT.ohmm              0.0525:  Rm @ Max Temp 
 MST .degF             82.0000:  Mud Sample Temperature 
 RUN .                     500:  Run Number 
 ROPA.m/hr             30.0000:  ROP Avg 
 ROPN.m/hr              5.0000:  ROP Min 
 ROPX.m/hr             40.0000:  ROP Max 
 RPMA.rpm             120.0000:  RPM Surface Avg 
 RPMN.rpm              80.0000:  RPM Surface Min 
 RPMX.rpm             130.0000:  RPM Surface Max 
 RRUN.                     500:  Rig Run Number 
 RTIM.hr               10.0000:  Time Reaming 
 SAZI.deg             296.4800:  Azm, Start 
 SDEP.m              1782.9999:  Start Depth 
 SIDD.                      No:  Serv Intrp, DD 
 SINC.deg              23.5300:  Inc, Start 
 SPPA.psig           3000.0000:  SPP Avg 
 SPPN.psig           2000.0000:  SPP Min 
 SPPX.psig           3100.0000:  SPP Max 
 STIM.      10.00.00 09-May-24:  Start Time 
 SVCS.                 DD, MWD:  Services 
 SVER.                  9.2000:  Sperry Version 
 TDAT.m               951.0001:  Tot Depth Attmp 
 TDDF.                      No:  Trip for DD 
 TDLG.m               951.0001:  Tot Depth Loggd 
 TFF .                      No:  Trip for Fail 
 TQAA.f-p           15000.0000:  Torque Abs Avg 
 TQAN.f-p            7000.0000:  Torque Abs Min 
 TQAX.f-p           18000.0000:  Torque Abs Max 
 TRRT.°/100'            0.2000:  Turn Rotating 
 MRT .                  EWR-P4:  Maximum Recorded Temperature 
 TTMX.degC            101.9000:  Max Tool Temp 
 VS01.        JK90757141L2N1-6:  Virtual Str1 SN 
 VS02.     DR90758460H1WGV2R-6:  Virtual Str2 SN 
 WBMN.klb               5.0000:  WOB Min 
 WITN.            Eko Agustian:  Customer Rep 2 
 WITN.            Bagus Ardika:  Customer Rep 
 WOBA.klb              20.0000:  WOB Avg 
 WOBX.klb              30.0000:  WOB Max 
 YP  .lhf2             30.0000:  Yield Point 
~Curve Information Block
#MNEM.UNIT                 API CODE     Curve Description
#---------               -----------    ---------------------------
 DEPT.M                 00 000 000 000:  Depth
 TVD .m                 00 000 000 000:  True Vertical Depth
 ROPA.m/hr              00 000 000 000:  Avg Rate of Penetration
 DGRCC.api              00 000 000 000:  DGR Comb Gamma Ray BCorr
 DGDD.ptpm              00 000 000 000:  DGR Data Density
 R09PC.ohmm             00 000 000 000:  9in Phase Resistivity BC
 R15PC.ohmm             00 000 000 000:  15in Phase Resistivity BC
 R27PC.ohmm             00 000 000 000:  27in Phase Resistivity BC
 R39PC.ohmm             00 000 000 000:  39in Phase Resistivity BC
 EWDD.ptpm              00 000 000 000:  EWR Data Density
 EWXT.hr                00 000 000 000:  EWR Formation Exp Time
 EWTEMP.degC            00 000 000 000:  EWR Temperature
 ALCDLC.g/cc            00 000 000 000:  ALD LCRB Comp Density
 ALDD.ptpm              00 000 000 000:  ALD Data Density
 TNPL.v/v               00 000 000 000:  CTN Porosity Limestone
 TNPS.v/v               00 000 000 000:  CTN Porosity Sandstone
 TNDD.ptpm              00 000 000 000:  CTN Data Density
#Other Information
#Environmental Parameters (and sensors to which they are applied)
#Hole Size 		: 8.5" (all sensors)
#Tool Size 			: 6.75"
#Mud Type 		: WBM (Gamma Ray)
#Mud Weight 		: 1.25 - 1.30 SG (Gamma Ray)
#KCl Concentration by Weight 	: 4.21 - 5.05 pbw (Gamma Ray)
#Mud Resistivity at BHT 	: 0.07  ohmm @101.9 degC (Resistivity)
#Fluid Density 		: 1.00 g/cc (Density)
#Neutron Tool Lithology	: Limestone (Porosity)
#Whole Mud Chlorides 	: 28800 - 33426 ppm (Porosity)
#Formation Water Salinity 	: 20000 ppm Cl- (Porosity)
#Pressure and Temperature 	: from PWD and EWR (Density, Porosity)
#
#Comments:
#1) All depth are calibrated to the drillers pipe tally and are measured from drill floor.
#2) No depth correction have been made for pipe stretch or compression.
#3) LWD Resistivity Tool utilized in this run is EWRP4, with spacing configuration as below:
#    - Deep Resistivity = 39in Spacing / 1 Mhz Frequency
#    - Medium Resistivity = 27in Spacing / 2 MHz Frequency
#    - Shallow Resistivity = 15in Spacing / 2 MHz Frequency
#    - XShallow Resistivity = 9in Spacing /2 MHz Frequency
#4) CTN Alloy type used for CTN data processing is Mid Nickle.
#5) Density reading might be affected by detector standoff to borehole wall while sliding.
#6) All data presented is Memory data unless otherwise stated.
#WARRANTY: Halliburton will use its best efforts to furnish customers with 
#accurate information and interpretations that are part of, and incident to, the services 
#provided.  However, Halliburton cannot and does not warrant the accuracy 
#or correctness of such information and interpretations.  Under no circumstances should any 
#such information or interpretation be relied upon as the sole basis for any drilling, 
#completion, production, or financial decision or any procedure involving any risk to the 
#safety of any drilling venture, drilling rig or its crew or any other third party.  The 
#Customer has full responsibility for all drilling, completion and production operation.  
#Halliburton makes no representations or warranties, either expressed or 
#implied, including, but not limited to, the implied warranties of merchantability or fitness 
#for a particular purpose, with respect to the services rendered.  In no event will 
#Halliburton be liable for failure to obtain any particular results or for 
#any damages, including, but not limited to, indirect, special or consequential damages, 
#resulting from the use of any information or interpretation provided by Halliburton.
#
~A   DEPT       TVD      ROPA      DGRCC     DGDD      R09PC     R15PC     R27PC     R39PC     EWDD      EWXT     EWTEMP    ALCDLC      ALDD      TNPL      TNPS       TNDD    
# ...
   2445.3000 2271.5173   14.1306  146.6584   14.0921   17.2309   18.3667   17.9035   20.2920   22.0987    0.8591   97.0459    2.6452    11.4213    0.1743    0.2174    14.7743
   2445.4500 2271.5818    7.6110  142.7889   13.0824   20.8022   20.4908   19.2960   21.1040   67.9562    0.6311   97.0459    2.6324    11.3307    0.1739    0.2170    12.1013
   2445.6000 2271.7871   13.7919  147.3246   14.8324   16.3284   17.0990   16.6325   18.6404  134.4547    0.6258   97.0859    2.6101    11.8820    0.1775    0.2206    13.2400
   2445.7500 2271.9282   32.8693  149.6226   17.0402   14.4004   15.3376   15.1545   17.2563   42.1095    0.6359   97.3301    2.6165    11.4954    0.1803    0.2233    13.5545
   2445.9000 2272.0620   29.0479  157.8649   14.8851   13.7988   14.4519   14.3906   16.3414   23.3026    0.6400   97.6303    2.6332    10.8281    0.1760    0.2191    11.8005
   2446.0500 2272.1973   24.7426  146.9385   13.2785   13.3405   14.0131   13.8971   15.6803   23.8042    0.6432   97.6563    2.6502    11.2497    0.1785    0.2215    12.4979
   2446.2000 2272.3347   22.5360  148.2745   12.6017   12.8347   13.4783   13.1075   14.6691   21.2605    0.6444   97.6563    2.6465    12.1736    0.1815    0.2245    12.4281
   2446.3500 2272.4653   21.3792  145.8864   13.3967   12.7404   12.8877   12.5231   13.8803   18.3490    0.6453   97.6563    2.6553    12.8309    0.1819    0.2249    10.3022
   2446.5000 2272.6074   21.9539  157.4592   16.8933   11.3414   11.5936   11.2936   12.4992   17.9371    0.6462   97.6563    2.6555    11.2320    0.1798    0.2228     9.8914
   2446.6500 2272.7419   23.3425  159.8560   15.7283   10.0203   10.2820   10.0805   11.3443   20.1507    0.6479   97.6563    2.6479    11.8821    0.1852    0.2281    10.9658
   2446.8000 2272.8789   24.2372  151.9316   14.5669    8.9193    9.2838    9.1939   10.5654   15.2643    0.6490   97.6563    2.6507    13.0728    0.1965    0.2391    13.0433
   2446.9500 2273.0190   25.2087  157.0545   14.4900    8.2275    8.5541    8.6891    9.8722   15.2792    0.6493   97.6563    2.6584    12.7555    0.1937    0.2363    13.8019
   2447.1000 2273.1504   25.1272  161.9940   15.2545    7.7789    8.1242    8.1864    9.4170   18.8145    0.6505   97.6563    2.6739    11.2809    0.2051    0.2476    12.3970
   2447.2500 2273.2915   25.9248  163.7486   16.0136    7.3718    7.6569    7.7366    8.9014   18.1273    0.6526   97.6563    2.6812    12.1435    0.2142    0.2564    12.2306
   2447.4000 2273.4253   26.5393  159.5195   15.6883    7.3473    7.5047    7.5826    8.7304   16.2320    0.6537   97.6563    2.6766    10.5789    0.2121    0.2544    12.6606
   2447.5500 2273.5652   26.3381  162.9712   20.5679    7.1972    7.2882    7.2006    8.1950   15.4896    0.6544   97.6563    2.6549    12.0545    0.2110    0.2533    11.0514
   2447.7000 2273.7000   26.0982  171.7710   16.2291    6.8014    6.8721    6.7268    7.7474   15.8802    0.6550   97.6563    2.6567    12.5742    0.2103    0.2526    10.8717
   2447.8500 2273.8350   25.8005  178.6991   17.2966    6.5950    6.7000    6.5549    7.4789   16.5759    0.6558   97.6563    2.6533     9.9303    0.2062    0.2486    11.5319
   2448.0000 2273.9771   27.0294  170.9565   15.2371    6.5434    6.6421    6.4899    7.2932   19.2635    0.6581   97.6563    2.6458    10.5911    0.2187    0.2609    12.0199
   2448.1500 2274.1089   27.3683  175.3646   14.3078    6.3649    6.4295    6.3138    7.0787   21.0759    0.6624   97.6563    2.6670    13.8161    0.2286    0.2707    12.3898
   2448.3000 2274.2483   27.3129  163.4822   11.5011    6.3409    6.3701    6.2305    6.9246   19.0656    0.6665   97.6563    2.6719    14.2804    0.2157    0.2579    11.4007
   2448.4500 2274.3857   28.5710  181.1723   52.3142    6.2568    6.2431    6.0919    6.7254   15.3852    0.6689   97.6563    2.6952    31.1905    0.2149    0.2571    12.3760
   2448.6000 2274.5227   29.0306  181.8362   94.5865    6.0647    6.0606    5.9098    6.5863   17.7873    0.6710   97.6563    2.6919    21.1037    0.2235    0.2656    13.4713
   2448.7500 2274.6609   28.6574  177.6198  179.1295    6.0234    6.0364    5.8856    6.5423   16.9147    0.6729   97.6563    2.6879     9.9815    0.2347    0.2767    12.2412
   2448.9000 2274.7954   27.9926  172.1656   97.6168    5.8698    5.9212    5.7883    6.4061   14.0348    0.6735   97.6563    2.6965     9.9427    0.2273    0.2694    10.8211
   2449.0500 2274.9314   28.0927  172.8403   14.2584    5.9064    6.0186    5.8544    6.5493   14.9769    0.6744   97.6563    2.6977     9.9338    0.2255    0.2676    11.4020
   2449.2000 2275.0737   28.9120  162.4770   10.4549    5.8875    5.8645    5.7534    6.5355   13.4166    0.6748   97.6563    2.7016    10.1426    0.2288    0.2708    11.5155
   2449.3500 2275.2036   28.4871  167.1791   12.3350    5.8842    5.9083    5.8370    6.6896   13.9546    0.6753   97.6563    2.6988     9.9216    0.2298    0.2718    11.5675
   2449.5000 2275.3474   28.8001  173.0855   23.4904    6.0678    6.2450    6.1748    7.1215   16.1226    0.6764   97.6563    2.6899    10.1298    0.2416    0.2836    11.7356
   2449.6500 2275.4800   29.0748  175.5665   17.5744    6.5405    6.6973    6.7704    7.5808   16.7136    0.6780   97.6563    2.6700     9.5073    0.2366    0.2786    11.6902
   2449.8000 2275.6245   27.9590  164.0535   11.6126    7.7846    7.9323    7.8931    8.5277   13.2938    0.6780   97.6563    2.6395     9.2162    0.2298    0.2719    11.0158
   2449.9500 2275.7500   25.9498  158.7987   13.4829    8.7843    8.7518    8.2943    8.9459   12.8242    0.6765   97.6563    2.6432     9.2136    0.2347    0.2767    11.1986
   2450.1000 2275.9331   22.6918  159.6144   14.0868    9.6576    9.2588    8.3958    9.1257   13.0609    0.6684   97.6563    2.6145     9.2636    0.2191    0.2614    12.5602
   2450.2500 2276.0413   16.2662  172.3543   11.7952    9.4976    9.0559    8.2927    8.9622   15.7600    0.6584   97.6563    2.5982     9.4780    0.1987    0.2414    12.9701
   2450.4000 2276.1116   12.3701  165.9699   12.3849    8.7736    9.0601    8.4752    9.0616   16.3044    0.6572   97.6563    2.6326     9.2762    0.1947    0.2375    11.1947
   2450.5500 2276.3066   18.2821  168.3474   12.6116    8.6023    9.0898    8.7368    9.5712   15.4960    0.6592   97.6563    2.6622     9.3293    0.1872    0.2300    11.9655
   2450.7000 2276.4478   32.5422  157.0310   10.4933    8.4224    8.6707    8.6780    9.9855   14.0701    0.6603   97.6563    2.6805     9.4529    0.1844    0.2274    13.1009
   2450.8500 2276.5718   29.0880  164.8009    9.9476    8.3068    8.9508    9.4379   11.2042   14.3520    0.6609   97.6563    2.6766     9.4887    0.1802    0.2232    12.6411
   2451.0000 2276.7219   28.1284  167.9875   10.7015    9.2112   10.3909   11.3644   13.9507   16.7721    0.6622   97.6563    2.6591     9.9574    0.1865    0.2294    11.2618
   2451.1500 2276.8591   27.7769  179.7142   12.3457   10.9929   12.3148   13.7536   17.0309   14.9258    0.6631   97.6563    2.6365     9.8815    0.1784    0.2214    12.4441
   2451.3000 2276.9958   22.6039  156.8904   14.4754   20.7079   21.2637   20.2030   22.0366   18.1363    0.6629   97.6563    2.5283    10.2066    0.1909    0.2337    10.5109
   2451.4500 2277.1057   18.7948  136.4910   12.7837   29.6133   29.6736   23.1049   23.9926   18.8133    0.6629   97.6563    2.4951    10.1341    0.1792    0.2222    11.9943
   2451.6000 2277.2646   22.7115  127.2791   12.0042   28.3338   29.9568   23.4689   24.4836   15.2871    0.6630   97.6563    2.5026    10.5554    0.1844    0.2273    11.8529
   2451.7500 2277.4004   32.0133  150.1436   12.7982   29.4511   31.3150   25.8409   25.7840   16.3161    0.6649   97.7017    2.5173     9.9511    0.2106    0.2530     9.9765
   2451.9000 2277.5393   32.9626  154.1507   11.6317   30.2453   33.0716   29.1069   27.9075   14.6339    0.6666   98.1739    2.5296     9.0917    0.2112    0.2536    10.7800
   2452.0500 2277.6780   32.6766  167.0690   10.6908   30.7088   35.3849   31.4521   30.7461   13.3496    0.6676   98.2666    2.5295     9.2115    0.2082    0.2506    13.3606
