~VERSION INFORMATION 
VERS  .    2.0                                     :CWLS Log ASCII Standard - VERSION 2.0
WRAP  .    NO                                      :One Line per Depth step
PROD  .    Schlumberger Technology Corp.           :LAS Producer
PROG  .    Horizon LASWriter 13.0.221437.3100      :LAS Program name and version
SOURCE.    S1R1-Log[3]/Up                          :Run&Pass Information
CREA  .    07/04/2024                              :LAS Creation date {MM/DD/YYYY}
#--------------------------------------------------
~WELL INFORMATION 
#MNEM           .UNIT                      DATA            :DESCRIPTION
#----            ------          --------------            -----------------------------
STRT            .m                   1718.15760            :START DEPTH
STOP            .m                   2673.85800            :STOP DEPTH
STEP            .m                       0.1524            :STEP
NULL            .                       -999.25            :NULL VALUE
COMP            .                PT Pertamina EP           :COMPANY
WELL            .                BNG-A4(BNG-058)           :WELL NAME
FLD             .                       Benuang            :FIELD NAME
RIGN            .                       Tiger-7            :Rig Name
RIGTYP          .                      Land Rig            :Rig Type
SON             .                A.1059389.01.02           :Service Order Number
SRVC            .                  Schlumberger            :SERVICE COMPANY
DATE            .                    07/04/2024            :LOG DATE(Composite Date for Composite LAP) (MM/DD/YYYY)
CLAB            .                     Rig Name:            :County Label
CNTY            .                       TIGER-7            :COUNTY
SLAB            .                     Province:            :State/Province Label
STAT            .                 South Sumatra            :STATE or PROVINCE
PROV            .                 South Sumatra            :STATE or PROVINCE
CTRY            .                     Indonesia            :COUNTRY
CONT_REGION     .                          Asia            :Continent Region
SECT            .                                          :Section
TOWN            .                                          :Township
RANG            .                                          :Range
API             .                                          :API NUMBER
UWI             .                                          :UNIQUE WELL ID
LUL             .                         IDPRA            :Logging Unit Location
LUN             .                   OSLC-A 2155            :Logging Unit Number
LOC             .                         Adera            :FIELD LOCATION
FL1             .                X: 387.623,270 mE         :Field Location Line 1
FL2             .                Y: 9.630.308,141 mN       :Field Location Line 2
LATI            .deg             3° 20' 38.96" S           :LATITUDE
LONG            .deg             103° 59' 18.38" E         :LONGITUDE
PDAT            .                           MSL            :Local Permanent Datum
LMF             .                            DF            :Logging Measured From
APD             .m                        44.63            :Elevation of Depth Reference (LMF) Above Permanent Datum
EPD             .m                         0.00            :Elevation of Permanent Datum (PDAT) above Mean Sea Level
EKB             .m                        44.63            :Elevation of Kelly Bushing Above Permanent Datum
EDF             .m                        44.63            :Elevation of Drill Floor Above Permanent Datum
EGL             .m                        34.03            :Elevation of Ground Level Above Permanent Datum
ECF             .m                      -999.25            :Elevation of Casing Flange above Permanent Datum
#--------------------------------------------------
~CURVE INFORMATION
#MNEM           .UNIT                  API CODE            :DESCRIPTION
#----            ------          --------------            -----------------------------
DEPT            .m                                         :                                                        Depth Index
TENS            .lbf                                       :        (WLWorkflow)            (1in)                   Cable Tension
BS              .in                                        :(RT)    (Borehole)              (6in)                   Bit Size
GR_CAL          .gAPI                                      :        (EDTC-B)                (6in)                   Calibrated Gamma Ray
DT              .us/ft                                     :        (ASLT-B)                (6in)                   Delta-T (also called Slowness or Interval Transit Time)
#-------------------------------------------------------------
#            DEPT         TENS           BS       GR_CAL           DT 
#                  (WLWorkflo)   (Borehole)     (EDTC-B)     (ASLT-B) 
#                                      (RT)                           
#                        (1in)        (6in)        (6in)        (6in) 
~ASCII
# ...
       2103.72960   2729.49980      8.50000    168.41120     71.82618
       2103.88200   2714.99962      8.50000    178.36370     72.52929
       2104.03440   2741.99918      8.50000    183.22120     73.15429
       2104.18680   2682.50124      8.50000    176.39810     72.91993
       2104.33920   2678.00057      8.50000    158.72020     73.35939
       2104.49160   2713.00107      8.50000    148.06860     73.47655
       2104.64400   2701.49984      8.50000    141.70550     71.84569
       2104.79640   2687.50099      8.50000    138.22990     71.08399
       2104.94880   2660.00011      8.50000    139.31230     70.41017
       2105.10120   2696.00102      8.50000    143.50420     68.96484
       2105.25360   2662.00091      8.50000    153.18650     69.38476
       2105.40600   2662.49999      8.50000    151.46190     71.11328
       2105.55840   2677.49924      8.50000    154.37100     71.06446
       2105.71080   2669.99961      8.50000    152.00810     70.46875
       2105.86320   2688.00007      8.50000    156.67610     70.82031
       2106.01560   2651.50009      8.50000    165.09250     71.72852
       2106.16800   2648.50114      8.50000    181.80020     72.76368
       2106.32040   2690.00087      8.50000    186.90470     74.13087
       2106.47280   2685.99927      8.50000    188.21390     75.37110
       2106.62520   2709.50079      8.50000    176.77580     75.35156
       2106.77760   2754.99988      8.50000    183.37790     75.06837
       2106.93000   2713.99922      8.50000    181.27740     75.40039
       2107.08240   2701.99892      8.50000    189.87760     76.07421
       2107.23480   2707.99907      8.50000    186.78230     76.76757
       2107.38720   2722.00017      8.50000    190.04430     77.31444
       2107.53960   2734.00047      8.50000    186.08090     78.13478
       2107.69200   2701.49984      8.50000    193.36450     78.92577
       2107.84440   2718.49990      8.50000    199.38260     79.43359
       2107.99680   2706.00052      8.50000    204.12520     79.77540
       2108.14920   2698.50089      8.50000    195.60350     79.34572
       2108.30160   2697.99957      8.50000    193.05330     78.59375
       2108.45400   2735.99902      8.50000    192.49990     78.55467
       2108.60640   2718.00082      8.50000    191.23260     78.87697
       2108.75880   2728.00032      8.50000    184.17490     79.15037
       2108.91120   2688.00007      8.50000    172.44290     79.28711
       2109.06360   2701.49984      8.50000    172.62490     79.38476
       2109.21600   2692.99982      8.50000    173.85320     79.46288
       2109.36840   2668.99922      8.50000    186.26010     79.67774
       2109.52080   2692.99982      8.50000    181.66670     87.89063
       2109.67320   2688.49914      8.50000    165.85590    110.13671
       2109.82560   2668.00106      8.50000    142.83080    125.54688
       2109.97800   2693.50114      8.50000    136.69900    121.56250
       2110.13040   2680.99952      8.50000    143.02150    119.16016
       2110.28280   2676.50109      8.50000    149.59910    123.04688
       2110.43520   2735.00087      8.50000    148.28830    122.06054
       2110.58760   2712.00067      8.50000    157.40040    116.50392
       2110.74000   2689.49954      8.50000    166.90570    104.15037
       2110.89240   2693.50114      8.50000    173.59810     86.66991
       2111.04480   2649.00021      8.50000    176.66130     81.26953
       2111.19720   2692.99982      8.50000    174.51780     85.41014
       2111.34960   2718.00082      8.50000    170.81870     84.00392
       2111.50200   2695.00062      8.50000    154.41690     78.21290
       2111.65440   2716.00002      8.50000    150.26590     72.04100
       2111.80680   2703.50064      8.50000    151.49850     69.13087
       2111.95920   2691.99942      8.50000    159.61080     69.62891
       2112.11160   2734.49955      8.50000    160.62260     71.36718
       2112.26400   2731.99967      8.50000    164.43370     72.57812
       2112.41640   2695.00062      8.50000    159.16140     72.41210
       2112.56880   2742.99957      8.50000    157.41340     71.71874
       2112.72120   2700.00037      8.50000    151.77060     71.13282
       2112.87360   2716.00002      8.50000    156.66890     71.73828
       2113.02600   2737.99982      8.50000    171.22480     72.96875
       2113.17840   2713.99922      8.50000    191.10180     81.57225
       2113.33080   2742.99957      8.50000    207.92440    102.37305
       2113.48320   2731.99967      8.50000    200.61220    122.98829
       2113.63560   2714.99962      8.50000    187.64870    119.71678
       2113.78800   2730.00112      8.50000    174.86400     95.27344
       2113.94040   2694.00022      8.50000    177.36070     80.85939
       2114.09280   2743.99997      8.50000    188.44570     82.44142
       2114.24520   2780.99903      8.50000    193.94510     88.21290
       2114.39760   2716.00002      8.50000    203.85360     94.58008
       2114.55000   2718.00082      8.50000    190.00520    107.25586
       2114.70240   2718.99897      8.50000    175.45790    117.63671
       2114.85480   2716.00002      8.50000    157.11570    102.18749
       2115.00720   2767.00018      8.50000    148.73700     78.28124
       2115.15960   2748.50065      8.50000    147.87980     70.66407
       2115.31200   2757.00068      8.50000    142.89900     70.86914
       2115.46440   2786.50011      8.50000    140.29250     70.95704
       2115.61680   2717.00042      8.50000    133.90160     70.62499
       2115.76920   2748.99973      8.50000    129.75760     70.83985
       2115.92160   2785.49971      8.50000    134.38540     71.36718
       2116.07400   2733.00007      8.50000    149.31760     72.43164
       2116.22640   2714.99962      8.50000    166.54250     73.01758
       2116.37880   2689.00047      8.50000    163.63400     79.06250
       2116.53120   2774.49980      8.50000    134.31450    102.14845
       2116.68360   2773.49940      8.50000     94.06783    127.53905
       2116.83600   2649.00021      8.50000     67.86713    136.21094
       2116.98840   2713.00107      8.50000     55.34758    135.90822
       2117.14080   2711.00027      8.50000     50.42167    136.13282
       2117.29320   2695.00062      8.50000     44.59079    136.66991
       2117.44560   2737.99982      8.50000     54.86830    130.75195
       2117.59800   2696.00102      8.50000     70.22076    104.90235
       2117.75040   2795.00013      8.50000    102.81200     76.84572
       2117.90280   2748.50065      8.50000    133.05980     69.17969
       2118.05520   2707.00092      8.50000    165.45680     72.91014
       2118.20760   2739.00022      8.50000    196.30740     84.76561
       2118.36000   2733.00007      8.50000    212.17850     98.58399
       2118.51240   2767.00018      8.50000    218.42330    101.31835
       2118.66480   2724.50005      8.50000    211.48320     92.26561
       2118.81720   2746.99893      8.50000    204.17070     83.30077
       2118.96960   2723.00057      8.50000    192.57880     79.71681
       2119.12200   2751.00053      8.50000    178.68270     78.03712
       2119.27440   2724.99912      8.50000    180.01200     76.98242
       2119.42680   2709.99987      8.50000    180.72990     76.67969
       2119.57920   2750.49920      8.50000    185.50920     76.97267
       2119.73160   2707.99907      8.50000    187.23010     77.08008
       2119.88400   2714.50055      8.50000    191.05630     76.48438
       2120.03640   2743.99997      8.50000    189.74930     75.51758
       2120.18880   2673.99897      8.50000    185.29990     74.53125
       2120.34120   2759.99963      8.50000    176.38990     73.87694
       2120.49360   2729.00072      8.50000    174.55960     73.64258
       2120.64600   2726.99992      8.50000    174.63840     73.62304
       2120.79840   2740.49970      8.50000    176.20400     73.98438
       2120.95080   2726.99992      8.50000    175.37920     73.93555
       2121.10320   2751.00053      8.50000    170.93210     73.64258
