~VERSION INFORMATION 
VERS  .    2.0                                     :CWLS Log ASCII Standard - VERSION 2.0
WRAP  .    NO                                      :One Line per Depth step
PROD  .    Schlumberger Technology Corp.           :LAS Producer
PROG  .    Horizon LASWriter 13.0.221437.3100      :LAS Program name and version
SOURCE.    S1R1-Log[3]/Up                          :Run&Pass Information
CREA  .    05/17/2024                              :LAS Creation date {MM/DD/YYYY}
#--------------------------------------------------
~WELL INFORMATION 
#MNEM           .UNIT                      DATA            :DESCRIPTION
#----            ------          --------------            -----------------------------
STRT            .m                   1744.98000            :START DEPTH
STOP            .m                   2740.91400            :STOP DEPTH
STEP            .m                       0.1524            :STEP
NULL            .                       -999.25            :NULL VALUE
COMP            .                PT Pertamina EP           :COMPANY
WELL            .                BNG-056 (BNG-B3)          :WELL NAME
FLD             .                    Prabumulih            :FIELD NAME
RIGN            .                                          :Rig Name
RIGTYP          .                          Land            :Rig Type
SON             .                A.1009322.16.02           :Service Order Number
SRVC            .                  Schlumberger            :SERVICE COMPANY
DATE            .                    05/17/2024            :LOG DATE(Composite Date for Composite LAP) (MM/DD/YYYY)
CLAB            .                     Rig Name:            :County Label
CNTY            .                PDSI#39.3/D1500-E         :COUNTY
SLAB            .                     Province:            :State/Province Label
STAT            .                 South Sumatra            :STATE or PROVINCE
PROV            .                 South Sumatra            :STATE or PROVINCE
CTRY            .                     Indonesia            :COUNTRY
CONT_REGION     .                          Asia            :Continent Region
SECT            .                                          :Section
TOWN            .                                          :Township
RANG            .                                          :Range
API             .                                          :API NUMBER
UWI             .                                          :UNIQUE WELL ID
LUL             .                ING/IDPRA-WLES            :Logging Unit Location
LUN             .                  OSLC-AA 2175            :Logging Unit Number
LOC             .                         Adera            :FIELD LOCATION
FL1             .                 X: 389146.04             :Field Location Line 1
FL2             .                Y: 9628977.87             :Field Location Line 2
LATI            .deg             3° 21' 22.33" S           :LATITUDE
LONG            .deg             104° 0' 7.68" E           :LONGITUDE
PDAT            .                           MSL            :Local Permanent Datum
LMF             .                            DF            :Logging Measured From
APD             .m                        34.37            :Elevation of Depth Reference (LMF) Above Permanent Datum
EPD             .m                         0.00            :Elevation of Permanent Datum (PDAT) above Mean Sea Level
EKB             .m                        34.37            :Elevation of Kelly Bushing Above Permanent Datum
EDF             .m                        34.37            :Elevation of Drill Floor Above Permanent Datum
EGL             .m                        25.23            :Elevation of Ground Level Above Permanent Datum
ECF             .m                      -999.25            :Elevation of Casing Flange above Permanent Datum
#--------------------------------------------------
~CURVE INFORMATION
#MNEM           .UNIT                  API CODE            :DESCRIPTION
#----            ------          --------------            -----------------------------
DEPT            .m                                         :                                                        Depth Index
GR_CAL          .gAPI                                      :        (EDTC-B)                (6in)                   Calibrated Gamma Ray
TENS            .lbf                                       :        (WLWorkflow)            (6in)                   Cable Tension
DT              .us/ft                                     :        (DSLT-H)                (6in)                   Delta-T (also called Slowness or Interval Transit Time)
#-------------------------------------------------------------
#            DEPT       GR_CAL         TENS           DT 
#                     (EDTC-B)  (WLWorkflo)     (DSLT-H) 
#                                                        
#                        (6in)        (6in)        (6in) 
~ASCII
# ...
       2325.16680    119.40880   3722.54609     74.60206
       2325.31920    119.51830   3716.09183     74.42305
       2325.47160    126.09310   3716.63587     75.61228
       2325.62400    139.05990   3712.09023     75.08260
       2325.77640    147.52990   3688.54599     72.35409
       2325.92880    157.54960   3710.99991     70.46357
       2326.08120    159.92160   3722.63602     68.99752
       2326.23360    166.31850   3714.45522     70.06032
       2326.38600    167.63080   3754.09129     71.10649
       2326.53840    173.34160   3770.90924     71.30004
       2326.69080    177.44100   3735.45462     71.67037
       2326.84320    178.02000   3751.81847     70.42697
       2326.99560    180.96440   3729.09028     71.85767
       2327.14800    179.11350   3758.63692     75.02984
       2327.30040    162.22220   3758.63692     76.36145
       2327.45280    128.63870   3754.74998     73.42086
       2327.60520    102.28500   3784.27189     71.90348
       2327.75760     97.88845   3776.63737     72.29829
       2327.91000    116.78430   3775.18286     72.37116
       2328.06240    144.41330   3780.54680     71.92003
       2328.21480    165.26040   3757.27233     72.33486
       2328.36720    168.82970   3747.72694     69.98028
       2328.51960    166.09640   3770.81932     70.26432
       2328.67200    161.02100   3755.27378     68.95762
       2328.82440    156.98710   3756.90814     69.39049
       2328.97680    150.73640   3766.16577     71.98282
       2329.12920    151.13410   3768.18231     72.85269
       2329.28160    158.54800   3766.81772     74.67710
       2329.43400    158.80860   3734.00011     73.22381
       2329.58640    168.18300   3739.81817     74.09999
       2329.73880    168.87910   3769.00061     72.19228
       2329.89120    180.18950   3759.09104     71.82502
       2330.04360    172.77230   3764.36281     72.50272
       2330.19600    173.56970   3765.45538     71.83615
       2330.34840    171.82230   3765.09119     71.74440
       2330.50080    173.92720   3767.27183     72.39268
       2330.65320    177.71330   3773.33268     72.16244
       2330.80560    173.56540   3737.09123     71.87797
       2330.95800    179.06580   3734.72624     70.95720
       2331.11040    175.51310   3709.33407     70.78194
       2331.26280    180.46050   3718.54450     71.25776
       2331.41520    178.35820   3733.91693     71.57457
       2331.56760    183.27620   3729.90859     71.75571
       2331.72000    178.91400   3765.81732     72.02296
       2331.87240    174.32700   3764.74948     71.90994
       2332.02480    167.43280   3838.45534     73.10622
       2332.17720    171.09630   3909.81869     74.47206
       2332.32960    178.52640   3941.08287     76.79671
       2332.48200    170.64960   3859.18272     76.92219
       2332.63440    156.40820   3778.27174     74.89975
       2332.78680    135.50800   3749.75022     74.35407
       2332.93920    122.87510   3784.81817     68.66800
       2333.09160    124.24420   3795.63598     70.51332
       2333.24400    146.59860   3782.83311     71.38748
       2333.39640    172.81050   3767.81812     71.93987
       2333.54880    187.21620   3755.36370     73.88943
       2333.70120    179.26010   3751.00016     72.96241
       2333.85360    175.48390   3771.18126     72.63097
       2334.00600    168.75940   3766.36361     72.35589
       2334.15840    161.70440   3749.81767     72.66728
       2334.31080    152.69620   3734.90834     73.08686
       2334.46320    144.66000   3732.18141     73.36579
       2334.61560    143.09160   3762.72844     73.00978
       2334.76800    158.38900   3767.66750     73.32482
       2334.92040    168.53450   3712.09023     72.88183
       2335.07280    172.23800   3733.45382     71.65766
       2335.22520    164.57650   3741.72679     70.89279
       2335.37760    165.95430   3756.54620     71.89747
       2335.53000    173.42590   3811.63563     73.82613
       2335.68240    168.78270   3819.54666     76.13093
       2335.83480    152.79000   3840.09195     77.14921
       2335.98720    115.01610   3809.49995     75.71976
       2336.13960     82.06415   3735.90874     71.79713
       2336.29200     55.27229   3727.91004     68.11119
       2336.44440     49.38256   3724.00061     65.55385
       2336.59680     44.80240   3742.99921     63.37347
       2336.74920     43.09195   3774.72650     62.54377
       2336.90160     40.51596   3780.72665     63.08022
       2337.05400     42.66063   3824.00012     64.71907
       2337.20640     52.46069   3847.36452     66.59627
       2337.35880     70.04158   3826.00092     67.28628
       2337.51120     93.36117   3820.99892     68.18806
       2337.66360    116.92600   3819.08355     68.36408
       2337.81600    139.42110   3818.08990     68.98179
       2337.96840    160.71420   3823.18182     70.31419
       2338.12080    175.97400   3826.90915     70.82397
       2338.27320    184.85540   3806.09184     71.79634
       2338.42560    186.29660   3820.54481     72.57059
       2338.57800    187.92250   3804.72725     73.06653
       2338.73040    184.24600   3814.00062     73.74380
       2338.88280    181.39690   3803.18281     74.24209
       2339.03520    182.89330   3789.63583     74.86906
       2339.18760    186.97500   3797.18266     75.35061
       2339.34000    185.17700   3810.27329     75.81714
       2339.49240    180.52770   3769.25015     75.34882
       2339.64480    182.94420   3754.63757     74.56076
       2339.79720    183.72180   3755.54580     73.68351
       2339.94960    188.05350   3780.81882     73.17507
       2340.10200    188.44130   3794.81767     73.32260
       2340.25440    188.01270   3782.54535     74.18122
       2340.40680    183.70090   3813.90845     75.18441
       2340.55920    185.71950   3818.41587     75.65944
       2340.71160    187.20180   3810.09119     76.14620
       2340.86400    188.46710   3838.58348     76.69823
       2341.01640    184.25520   3813.00022     77.50122
       2341.16880    184.66180   3815.36296     78.04508
       2341.32120    187.44130   3809.74948     77.59815
       2341.47360    186.73010   3805.36346     77.82873
       2341.62600    183.51500   3848.54476     79.53168
       2341.77840    173.83100   3831.74929     79.25574
       2341.93080    162.34150   3840.63598     80.69187
       2342.08320    146.25460   3855.54531     79.78524
       2342.23560    126.62300   3832.83287     77.97049
       2342.38800    111.58510   3840.72816     77.73915
       2342.54040    108.17040   3827.54536     76.95371
       2342.69280    113.65360   3763.91768     77.22151
       2342.84520    122.81770   3799.72750     75.23839
       2342.99760    137.01160   3844.91635     73.97837
       2343.15000    154.17460   3855.18112     71.90528
       2343.30240    164.10680   3865.09070     71.31662
       2343.45480    167.00610   3853.83452     70.66882
       2343.60720    172.66820   3817.72795     70.90931
       2343.75960    173.98150   3826.27294     71.74596
       2343.91200    174.06160   3796.36436     72.60979
       2344.06440    173.34560   3802.63653     73.50798
       2344.21680    180.26530   3783.54575     74.01224
       2344.36920    190.57630   3753.36290     74.04409
       2344.52160    192.20650   3759.00111     73.88044
       2344.67400    189.00920   3771.63538     73.78842
       2344.82640    185.85840   3743.90969     73.84490
       2344.97880    182.49130   3769.90884     73.61862
       2345.13120    187.50800   3770.09094     73.39639
       2345.28360    191.29280   3770.90924     73.14706
       2345.43600    188.81970   3783.45358     73.24024
       2345.58840    188.16470   3760.72765     73.98941
       2345.74080    192.82800   3811.54571     76.01230
       2345.89320    204.90860   3851.72806     78.70393
       2346.04560    214.71840   3848.72686     81.02325
       2346.19800    218.02020   3856.63564     81.20689
       2346.35040    208.39750   3840.27179     80.02753
       2346.50280    185.67630   3823.54601     77.54929
