~Version Information
 VERS.                  2.0:   CWLS log ASCII Standard -VERSION 2.0
 WRAP.                   NO:   One line per depth step
~Well Information Block
#MNEM.UNIT     VALUE/NAME     DESCRIPTION
#---------     -----------    ---------------------------
 STRT.M              1700.1000: START DEPTH
 STOP.M              2733.9000: STOP DEPTH
 STEP.M                 0.1500: STEP DEPTH
 NULL.               -999.2500: NULL VALUE
 CNTY.         Tanjung Benuang:  COUNTY NAME
 CTRY.               Indonesia:  COUNTRY NAME
 PROV.          South Sumatera:  PROVINCE
 STAT.          South Sumatera:  STATE NAME
 FLD .                 Benuang:  FIELD NAME
 DATE.      15.00.00 14-May-24:  END TIME
 WELL.                  BNG-B3:  WELL NAME
 COMP.     PHR Region 1 Zona 4:  COMPANY
 API .                        :  API NUMBER
 SRVC.             Halliburton:  SERVICE COMPANY
 UWI .                        :  UNIQUE WELL IDENTIFIER
 LOC .                        :  LOCATION
~Parameter Information Block
#MNEM.UNIT       Value        Description
#---------     -----------    ---------------------------
 AV  .fpm             311.0000:  Ann Velocity 
 AVMX.fpm             315.0000:  Max Ann Veloc 
 AZIF.deg             294.2000:  Azm, Final 
 BHAT.        Rotary Steerable:  BHA Type 
 BROT.°/100'            0.2000:  Build Rotating 
 BS  .in                8.5000:  Bit Size 
 BSZ .in                8.5000:  Bit Size 
 BTPL.psig            496.0000:  Bit Press Loss 
 CABU.                      No:  Customer Abuse 
 CGEO.           Achmad Gazali:  Customer Geo 
 COMM.                     üQb:  Run Comments 1 
 TCS .hr               88.2729:  Time Ciculation Ended 
 CV  .fpm             378.0000:  Crit Velocity 
 CVMX.fpm             380.0000:  Max Crit Veloc 
 DD1 .          Yudi Kurniawan:  Direct Drillr 1 
 DD2 .               Aminuddin:  Direct Drillr 2 
 DDSV.               Geo-Pilot:  DD Service 
 DEFF.%               100.0000:  % Det Eff 
 DLRX.°/100'            0.5000:  Dogleg Rot Max 
 DLSO.°/100'            1.1000:  Dogleg Oriented 
 DLSX.°/100'            2.1900:  Dogleg Str Max 
 DRET.      10.25.00 13-May-24:  Drill End Time 
 DRST.      23.00.00 09-May-24:  Drill Start Tim 
 DTIM.hr               52.9642:  Time Drilling 
 EDEP.m              2734.0000:  End Depth 
 ENG1.      Andika BP Pulungan:  Engineer 1 
 ENG2.         Edward Joshua M:  Engineer 2 
 ENG3.       Pandamama Siahaan:  Engineer 3 
 ENG4.        Siti Nurfitriani:  Engineer 4 
 ETIM.      18.45.00 14-May-24:  End Time 
 FLOI.gpm             550.0000:  Flow In 
 FLON.gpm             400.0000:  Flow In Min 
 FLOS.mptm              4.2000:  Fluid Loss 
 FLOX.gpm             600.0000:  Flow In Max 
 DFT .                 Polymer:  Mud Type 
 HPRE.                      No:  High Pressure 
 HTEM.                      No:  High Temp 
 HYDO.m                 0.0000:  Hydro Offset 
 IFIN.deg              25.6000:  Inc, Final 
 IMAX.deg              26.9023:  Inc Max 
 IMIN.deg              20.4496:  Inc Min 
 IMND.m              2580.0901:  Inc Min Depth 
 IMXD.m              2034.3999:  Inc Max Depth 
 JARR.                      No:  Jarring 
 LETM.      10.25.00 13-May-24:  Log End Time 
 LOST.hr                     0:  Lost Rig Time 
 LSTM.      23.00.00 09-May-24:  Log Start Time 
 MDCL.ppm           42000.0000:  Mud Chlorides 
 MDES.             Fresh Water:  Mud Desc 
 DFD .SG                1.3000:  Mud Density 
 MDMN.SG                1.2500:  Dens Mud Min 
 MDMX.SG                1.3000:  Dens Mud Max 
 PH  .pH               10.0000:  Mud pH 
 MOIL.                       0:  Run Mud Oil % 
 MOWR.                   0 100:  Run Mud OWR 
 MSND.                     0.2:  Run Mud Sand % 
 MSOL.                     8.9:  Run Mud Solids% 
 DFV .spqt             80.0000:  Mud Viscosity 
 MWOD.in                6.7500:  MWD Tool OD 
 MWSI.                      No:  Serv Intrp, MWD 
 OTIM.hr              124.1140:  Time Operating 
 PMAX.psig           3200.0000:  Press Op, Max 
 PV  .cP               24.0000:  Mud PV 
 RMS .ohmm              0.0800:  Mud Resistivity 
 RMCS.ohmm              0.1050:  Mud Cake Resistivity 
 MCST.degF             81.0000:  Mud Cake Sample Temperature 
 RMFS.ohmm              0.0500:  Mud Filtrate Resistivity 
 RMFT.degF             81.0000:  Mud Filtrate Sample Temperature 
 RMMT.ohmm              0.0525:  Rm @ Max Temp 
 MST .degF             82.0000:  Mud Sample Temperature 
 RUN .                     500:  Run Number 
 ROPA.m/hr             30.0000:  ROP Avg 
 ROPN.m/hr              5.0000:  ROP Min 
 ROPX.m/hr             40.0000:  ROP Max 
 RPMA.rpm             120.0000:  RPM Surface Avg 
 RPMN.rpm              80.0000:  RPM Surface Min 
 RPMX.rpm             130.0000:  RPM Surface Max 
 RRUN.                     500:  Rig Run Number 
 RTIM.hr               10.0000:  Time Reaming 
 SAZI.deg             296.4800:  Azm, Start 
 SDEP.m              1782.9999:  Start Depth 
 SIDD.                      No:  Serv Intrp, DD 
 SINC.deg              23.5300:  Inc, Start 
 SPPA.psig           3000.0000:  SPP Avg 
 SPPN.psig           2000.0000:  SPP Min 
 SPPX.psig           3100.0000:  SPP Max 
 STIM.      10.00.00 09-May-24:  Start Time 
 SVCS.                 DD, MWD:  Services 
 SVER.                  9.2000:  Sperry Version 
 TDAT.m               951.0001:  Tot Depth Attmp 
 TDDF.                      No:  Trip for DD 
 TDLG.m               951.0001:  Tot Depth Loggd 
 TFF .                      No:  Trip for Fail 
 TQAA.f-p           15000.0000:  Torque Abs Avg 
 TQAN.f-p            7000.0000:  Torque Abs Min 
 TQAX.f-p           18000.0000:  Torque Abs Max 
 TRRT.°/100'            0.2000:  Turn Rotating 
 MRT .                  EWR-P4:  Maximum Recorded Temperature 
 TTMX.degC            101.9000:  Max Tool Temp 
 VS01.        JK90757141L2N1-6:  Virtual Str1 SN 
 VS02.     DR90758460H1WGV2R-6:  Virtual Str2 SN 
 WBMN.klb               5.0000:  WOB Min 
 WITN.            Eko Agustian:  Customer Rep 2 
 WITN.            Bagus Ardika:  Customer Rep 
 WOBA.klb              20.0000:  WOB Avg 
 WOBX.klb              30.0000:  WOB Max 
 YP  .lhf2             30.0000:  Yield Point 
~Curve Information Block
#MNEM.UNIT                 API CODE     Curve Description
#---------               -----------    ---------------------------
 DEPT.M                 00 000 000 000:  Depth
 TVD .m                 00 000 000 000:  True Vertical Depth
 ROPA.m/hr              00 000 000 000:  Avg Rate of Penetration
 DGRCC.api              00 000 000 000:  DGR Comb Gamma Ray BCorr
 DGDD.ptpm              00 000 000 000:  DGR Data Density
 R09PC.ohmm             00 000 000 000:  9in Phase Resistivity BC
 R15PC.ohmm             00 000 000 000:  15in Phase Resistivity BC
 R27PC.ohmm             00 000 000 000:  27in Phase Resistivity BC
 R39PC.ohmm             00 000 000 000:  39in Phase Resistivity BC
 EWDD.ptpm              00 000 000 000:  EWR Data Density
 EWXT.hr                00 000 000 000:  EWR Formation Exp Time
 EWTEMP.degC            00 000 000 000:  EWR Temperature
 ALCDLC.g/cc            00 000 000 000:  ALD LCRB Comp Density
 ALDD.ptpm              00 000 000 000:  ALD Data Density
 TNPL.v/v               00 000 000 000:  CTN Porosity Limestone
 TNPS.v/v               00 000 000 000:  CTN Porosity Sandstone
 TNDD.ptpm              00 000 000 000:  CTN Data Density
#Other Information
#Environmental Parameters (and sensors to which they are applied)
#Hole Size 		: 8.5" (all sensors)
#Tool Size 			: 6.75"
#Mud Type 		: WBM (Gamma Ray)
#Mud Weight 		: 1.25 - 1.30 SG (Gamma Ray)
#KCl Concentration by Weight 	: 4.21 - 5.05 pbw (Gamma Ray)
#Mud Resistivity at BHT 	: 0.07  ohmm @101.9 degC (Resistivity)
#Fluid Density 		: 1.00 g/cc (Density)
#Neutron Tool Lithology	: Limestone (Porosity)
#Whole Mud Chlorides 	: 28800 - 33426 ppm (Porosity)
#Formation Water Salinity 	: 20000 ppm Cl- (Porosity)
#Pressure and Temperature 	: from PWD and EWR (Density, Porosity)
#
#Comments:
#1) All depth are calibrated to the drillers pipe tally and are measured from drill floor.
#2) No depth correction have been made for pipe stretch or compression.
#3) LWD Resistivity Tool utilized in this run is EWRP4, with spacing configuration as below:
#    - Deep Resistivity = 39in Spacing / 1 Mhz Frequency
#    - Medium Resistivity = 27in Spacing / 2 MHz Frequency
#    - Shallow Resistivity = 15in Spacing / 2 MHz Frequency
#    - XShallow Resistivity = 9in Spacing /2 MHz Frequency
#4) CTN Alloy type used for CTN data processing is Mid Nickle.
#5) Density reading might be affected by detector standoff to borehole wall while sliding.
#6) All data presented is Memory data unless otherwise stated.
#WARRANTY: Halliburton will use its best efforts to furnish customers with 
#accurate information and interpretations that are part of, and incident to, the services 
#provided.  However, Halliburton cannot and does not warrant the accuracy 
#or correctness of such information and interpretations.  Under no circumstances should any 
#such information or interpretation be relied upon as the sole basis for any drilling, 
#completion, production, or financial decision or any procedure involving any risk to the 
#safety of any drilling venture, drilling rig or its crew or any other third party.  The 
#Customer has full responsibility for all drilling, completion and production operation.  
#Halliburton makes no representations or warranties, either expressed or 
#implied, including, but not limited to, the implied warranties of merchantability or fitness 
#for a particular purpose, with respect to the services rendered.  In no event will 
#Halliburton be liable for failure to obtain any particular results or for 
#any damages, including, but not limited to, indirect, special or consequential damages, 
#resulting from the use of any information or interpretation provided by Halliburton.
#
~A   DEPT       TVD      ROPA      DGRCC     DGDD      R09PC     R15PC     R27PC     R39PC     EWDD      EWXT     EWTEMP    ALCDLC      ALDD      TNPL      TNPS       TNDD    
# ...
   2245.2000 2089.4631   30.7833   67.4979   13.9613    3.7421    4.1991    4.2582    4.3958    9.8803    0.5672   93.3838    2.3725    10.0483    0.1497    0.1929    18.0570
   2245.3500 2089.6086   30.4912   69.8078   14.0400    3.5498    3.8610    3.9011    4.0946   10.0113    0.5656   93.3838    2.4080    11.0236    0.1437    0.1870    13.9005
   2245.5000 2089.7329   25.5645   72.6604   13.1832    3.6999    4.0009    4.0657    4.2544    9.9263    0.5637   93.3838    2.3865    10.4856    0.1348    0.1783    12.8432
   2245.6500 2089.8711   21.9162   63.0460   13.7911    3.7773    4.2118    4.3298    4.4814    9.6830    0.5607   93.3838    2.3639     9.7155    0.1298    0.1732    12.3280
   2245.8000 2090.0076   21.6334   63.2092   14.7188    4.0093    4.4769    4.6531    4.7116    9.9256    0.5578   93.3838    2.3619     9.9902    0.1268    0.1702    12.2012
   2245.9500 2090.1450   21.3590   58.2239   14.4579    4.1723    4.6145    4.7786    4.7683    9.9683    0.5546   93.3838    2.3786    10.4941    0.1274    0.1709    11.3329
   2246.1000 2090.2778   20.4078   53.0509   13.7848    4.1667    4.4733    4.5604    4.6337   11.3101    0.5517   93.3838    2.4208    10.0879    0.1251    0.1685    12.4838
   2246.2500 2090.4106   20.0705   51.9307   13.2539    4.1749    4.4705    4.4969    4.6010   19.7266    0.5512   93.3838    2.4332     9.9690    0.1249    0.1683    13.8778
   2246.4000 2090.5542   21.6457   49.6775   13.7320    4.0384    4.4051    4.4064    4.5664   22.8384    0.5533   93.3838    2.4034    10.5414    0.1252    0.1687    14.9918
   2246.5500 2090.6824   22.1654   51.3348   17.1041    3.9139    4.3717    4.3955    4.6061   21.4158    0.5559   93.3838    2.3700    14.4578    0.1258    0.1692    15.4836
   2246.7000 2090.8240   22.7169   48.7126   26.3512    4.0504    4.5838    4.6673    4.8216   23.6990    0.5588   93.3838    2.3705    14.3137    0.1283    0.1718    12.9347
   2246.8500 2090.9602   23.7651   46.5009   19.0219    4.0829    4.6357    4.7312    4.8635   21.4368    0.5610   93.3838    2.3753    45.7215    0.1251    0.1686    12.7854
   2247.0000 2091.0916   23.0774   42.8800   12.8624    4.0206    4.4285    4.6048    4.7654   17.4744    0.5620   93.3838    2.3816   168.1309    0.1214    0.1648    12.7286
   2247.1500 2091.2346   23.1924   48.5875   13.7693    3.9506    4.3483    4.4803    4.6957   15.7022    0.5623   93.3838    2.3836    43.8250    0.1244    0.1679    13.5267
   2247.3000 2091.3662   22.8220   41.9516   16.6479    3.8485    4.2794    4.4108    4.6788   13.0139    0.5612   93.3838    2.3844    11.7817    0.1240    0.1674    13.1690
   2247.4500 2091.5032   21.5167   43.6498   16.6469    3.8484    4.3470    4.4861    4.7191   10.9071    0.5588   93.3838    2.3770    11.0951    0.1233    0.1668    13.0016
   2247.6000 2091.6370   21.1506   51.0476   14.5690    3.9402    4.4486    4.5980    4.7482   11.8515    0.5564   93.3838    2.3712    12.8525    0.1241    0.1676    13.6698
   2247.7500 2091.7747   21.6549   62.8622   13.7430    3.9741    4.3968    4.5029    4.6141   14.4930    0.5554   93.3838    2.3748    13.9540    0.1278    0.1712    14.2261
   2247.9000 2091.9104   22.3275   79.3705   15.7678    3.8897    4.2588    4.3218    4.4800   14.4263    0.5549   93.3838    2.3790    20.1801    0.1272    0.1706    12.8069
   2248.0500 2092.0459   22.5001   97.3655   17.1666    3.7814    4.1170    4.1592    4.3096   13.8390    0.5541   93.3838    2.3766    19.9817    0.1243    0.1677    11.7845
   2248.2000 2092.1836   22.6908  102.9103   17.7957    3.6935    4.0306    4.0398    4.2029   14.1651    0.5533   93.3838    2.3615    13.7613    0.1246    0.1681    11.3650
   2248.3500 2092.3186   22.4816   91.8487   18.1101    3.5539    3.9301    3.9594    4.0934   14.2705    0.5525   93.3838    2.3680    11.9140    0.1238    0.1672    10.7064
   2248.5000 2092.4546   22.0669   82.7216   18.5088    3.5972    3.9468    3.9672    4.0578   14.9300    0.5519   93.3838    2.3940    11.0908    0.1297    0.1732    10.0873
   2248.6500 2092.5872   21.9178   73.0860   17.2829    3.5450    3.9035    3.9543    4.0298   14.4327    0.5513   93.3838    2.4156    13.6109    0.1347    0.1781    10.1604
   2248.8000 2092.7219   23.1208   63.6046   18.6677    3.4232    3.8195    3.8943    3.9694   13.6103    0.5506   93.3838    2.4584    15.0682    0.1358    0.1792    10.1213
   2248.9500 2092.8638   25.9867   54.4684   20.3436    3.3626    3.7343    3.8530    3.8651   13.8682    0.5507   93.3838    2.4806    13.5380    0.1448    0.1881     9.7298
   2249.1000 2092.9951   27.4841   55.8302   19.0506    3.3328    3.7555    3.9111    3.8025   14.1742    0.5513   93.3838    2.4231    15.8066    0.1558    0.1990     9.9952
   2249.2500 2093.1345   28.6542   48.8132   16.8536    3.5401    3.9477    4.0043    3.7974   13.1408    0.5517   93.3838    2.4378    16.7213    0.1518    0.1951    10.8275
   2249.4000 2093.2764   29.1671   53.0054   15.8331    3.3369    3.6322    3.5853    3.4394   13.9664    0.5520   93.3838    2.4342    11.0966    0.1467    0.1900    10.5765
   2249.5500 2093.4043   26.0008   53.9276   17.0346    3.0708    3.2448    3.1503    3.1096   13.9218    0.5516   93.3838    2.4410    10.2265    0.1414    0.1848    10.4483
   2249.7000 2093.5381   24.1338   55.9428   15.2507    2.9863    3.1610    3.0994    3.1262   14.2588    0.5513   93.3838    2.4247     9.8293    0.1388    0.1822    10.0460
   2249.8500 2093.6780   25.8259   55.8914   12.6845    3.1450    3.4223    3.3816    3.4765   14.7345    0.5515   93.3838    2.3872    10.5567    0.1368    0.1802    10.4046
   2250.0000 2093.8081   27.0870   54.6398   12.4507    3.4493    3.7305    3.7386    3.9372   13.1623    0.5518   93.3838    2.3858    12.6416    0.1330    0.1764    10.0099
   2250.1500 2093.9497   28.9438   50.5176   12.2297    4.0059    4.3559    4.3879    4.5215   13.1439    0.5524   93.3838    2.4079    13.4579    0.1333    0.1767    10.0724
   2250.3000 2094.0852   31.3006   56.1423   11.9687    4.7576    5.1641    5.0511    5.0689   15.1874    0.5539   93.3838    2.4118    12.5287    0.1327    0.1761    10.5277
   2250.4500 2094.2246   31.2031   65.1710   12.0444    5.6172    6.1403    5.8866    5.6631   22.1660    0.5567   93.3838    2.4216    13.1459    0.1445    0.1879   442.7430
   2250.6000 2094.3523   29.0297   85.0834   13.7293    6.3032    6.7467    6.4248    5.9985   22.7858    0.5606   93.3838    2.4307    17.6361    0.1534    0.1967  3485.5696
   2250.7500 2094.4939   29.0707  104.9242   14.0861    6.2872    6.6431    6.4350    6.1725   14.3110    0.5622   93.3838    2.4690    17.3319    0.1608    0.2040   536.2797
   2250.9000 2094.6375   29.5696  126.8709   16.7647    6.6155    6.9424    6.8554    6.7599   12.7180    0.5621   93.4209    2.4899    15.3875    0.1665    0.2095   184.9215
   2251.0500 2094.7571   25.2526  122.5858   13.2610    6.7071    7.2197    7.2394    7.4921   15.5566    0.5626   93.8672    2.5322    15.4062    0.1666    0.2096    49.2046
   2251.2000 2094.8953   24.2384  135.7216   12.9526    6.8256    7.6509    8.0808    8.5825   17.3912    0.5637   93.9941    2.6266    14.6805    0.1816    0.2240    11.9393
   2251.3500 2095.0420   28.6675  163.7911   12.8107    7.8407    8.5957    9.4455   10.2403   15.1720    0.5645   93.9941    2.6560    16.3760    0.1715    0.2142    11.0967
   2251.5000 2095.1760   27.6133  154.1716   13.2432    9.2893    9.7168   10.4893   11.4420   13.1061    0.5644   93.9941    2.6400    12.8810    0.1386    0.1818    12.9598
   2251.6500 2095.3081   23.2637  144.8543   13.0404   11.2880   11.2640   11.3902   12.4878   15.6226    0.5638   93.9941    2.6399    12.3449    0.1083    0.1513    13.8470
   2251.8000 2095.4443   20.8561  131.3001   12.8382   12.8569   12.7242   12.1592   13.2974   16.1390    0.5629   93.9941    2.6301    12.0404    0.0877    0.1300    19.9481
   2251.9500 2095.5781   20.1122  118.9218   13.7394   13.5131   14.0009   12.9628   13.7700   17.5812    0.5626   93.9941    2.6323    11.7323    0.0823    0.1243    20.1970
