~VERSION INFORMATION 
VERS  .    2.0                                     :CWLS Log ASCII Standard - VERSION 2.0
WRAP  .    NO                                      :One Line per Depth step
PROD  .    Schlumberger Technology Corp.           :LAS Producer
PROG  .    Horizon LASWriter 13.0.221437.3100      :LAS Program name and version
SOURCE.    S1R1-Log[3]/Up                          :Run&Pass Information
CREA  .    07/04/2024                              :LAS Creation date {MM/DD/YYYY}
#--------------------------------------------------
~WELL INFORMATION 
#MNEM           .UNIT                      DATA            :DESCRIPTION
#----            ------          --------------            -----------------------------
STRT            .m                   1718.15760            :START DEPTH
STOP            .m                   2673.85800            :STOP DEPTH
STEP            .m                       0.1524            :STEP
NULL            .                       -999.25            :NULL VALUE
COMP            .                PT Pertamina EP           :COMPANY
WELL            .                BNG-A4(BNG-058)           :WELL NAME
FLD             .                       Benuang            :FIELD NAME
RIGN            .                       Tiger-7            :Rig Name
RIGTYP          .                      Land Rig            :Rig Type
SON             .                A.1059389.01.02           :Service Order Number
SRVC            .                  Schlumberger            :SERVICE COMPANY
DATE            .                    07/04/2024            :LOG DATE(Composite Date for Composite LAP) (MM/DD/YYYY)
CLAB            .                     Rig Name:            :County Label
CNTY            .                       TIGER-7            :COUNTY
SLAB            .                     Province:            :State/Province Label
STAT            .                 South Sumatra            :STATE or PROVINCE
PROV            .                 South Sumatra            :STATE or PROVINCE
CTRY            .                     Indonesia            :COUNTRY
CONT_REGION     .                          Asia            :Continent Region
SECT            .                                          :Section
TOWN            .                                          :Township
RANG            .                                          :Range
API             .                                          :API NUMBER
UWI             .                                          :UNIQUE WELL ID
LUL             .                         IDPRA            :Logging Unit Location
LUN             .                   OSLC-A 2155            :Logging Unit Number
LOC             .                         Adera            :FIELD LOCATION
FL1             .                X: 387.623,270 mE         :Field Location Line 1
FL2             .                Y: 9.630.308,141 mN       :Field Location Line 2
LATI            .deg             3° 20' 38.96" S           :LATITUDE
LONG            .deg             103° 59' 18.38" E         :LONGITUDE
PDAT            .                           MSL            :Local Permanent Datum
LMF             .                            DF            :Logging Measured From
APD             .m                        44.63            :Elevation of Depth Reference (LMF) Above Permanent Datum
EPD             .m                         0.00            :Elevation of Permanent Datum (PDAT) above Mean Sea Level
EKB             .m                        44.63            :Elevation of Kelly Bushing Above Permanent Datum
EDF             .m                        44.63            :Elevation of Drill Floor Above Permanent Datum
EGL             .m                        34.03            :Elevation of Ground Level Above Permanent Datum
ECF             .m                      -999.25            :Elevation of Casing Flange above Permanent Datum
#--------------------------------------------------
~CURVE INFORMATION
#MNEM           .UNIT                  API CODE            :DESCRIPTION
#----            ------          --------------            -----------------------------
DEPT            .m                                         :                                                        Depth Index
TENS            .lbf                                       :        (WLWorkflow)            (1in)                   Cable Tension
BS              .in                                        :(RT)    (Borehole)              (6in)                   Bit Size
GR_CAL          .gAPI                                      :        (EDTC-B)                (6in)                   Calibrated Gamma Ray
DT              .us/ft                                     :        (ASLT-B)                (6in)                   Delta-T (also called Slowness or Interval Transit Time)
#-------------------------------------------------------------
#            DEPT         TENS           BS       GR_CAL           DT 
#                  (WLWorkflo)   (Borehole)     (EDTC-B)     (ASLT-B) 
#                                      (RT)                           
#                        (1in)        (6in)        (6in)        (6in) 
~ASCII
# ...
       2156.30760   2754.50080      8.50000    178.29510     69.58983
       2156.46000   2789.49906      8.50000    189.99120     69.18945
       2156.61240   2769.00098      8.50000    193.24510     67.74415
       2156.76480   2788.50091      8.50000    190.93070     66.98242
       2156.91720   2776.99968      8.50000    180.34250     66.71874
       2157.06960   2754.50080      8.50000    181.69650     68.30077
       2157.22200   2742.99957      8.50000    184.53610     74.06250
       2157.37440   2758.50015      8.50000    198.22950     79.37501
       2157.52680   2742.99957      8.50000    198.87340     81.75781
       2157.67920   2795.00013      8.50000    199.57200     82.51954
       2157.83160   2769.00098      8.50000    196.45710     82.08983
       2157.98400   2772.50125      8.50000    195.24670     84.42381
       2158.13640   2739.49930      8.50000    193.94930     84.37501
       2158.28880   2756.00028      8.50000    185.29020     80.76173
       2158.44120   2775.99928      8.50000    170.06610     77.67578
       2158.59360   2773.00033      8.50000    155.83050     73.83789
       2158.74600   2770.99953      8.50000    150.63590     72.00196
       2158.89840   2756.00028      8.50000    151.75470     71.85547
       2159.05080   2751.00053      8.50000    162.22160     71.66016
       2159.20320   2749.49880      8.50000    169.73030     79.62891
       2159.35560   2775.50020      8.50000    174.34620     96.93359
       2159.50800   2743.99997      8.50000    150.22520    116.21094
       2159.66040   2746.00077      8.50000    135.53210    127.34376
       2159.81280   2770.99953      8.50000    147.00470    111.73828
       2159.96520   2735.99902      8.50000    181.69430     94.49218
       2160.11760   2735.99902      8.50000    201.69590    100.25390
       2160.27000   2751.00053      8.50000    191.52390    106.85547
       2160.42240   2722.00017      8.50000    175.90430     95.62500
       2160.57480   2725.99952      8.50000    168.39150     74.29686
       2160.72720   2735.00087      8.50000    175.98140     64.92188
       2160.87960   2781.99943      8.50000    180.71320     69.17969
       2161.03200   2788.99998      8.50000    181.71760     77.75390
       2161.18440   2709.99987      8.50000    182.72900     82.97851
       2161.33680   2717.49950      8.50000    185.19640     83.12500
       2161.48920   2785.00063      8.50000    178.61970     82.37305
       2161.64160   2801.00028      8.50000    151.78640     80.41014
       2161.79400   2769.99913      8.50000    117.19350     77.28515
       2161.94640   2781.99943      8.50000     87.84904     78.65233
       2162.09880   2762.00043      8.50000     74.35857     83.28127
       2162.25120   2801.49936      8.50000     71.51957     85.09766
       2162.40360   2752.99908      8.50000     72.65047     84.86330
       2162.55600   2733.49915      8.50000     76.42638     82.53908
       2162.70840   2795.00013      8.50000     75.37931     78.85743
       2162.86080   2752.99908      8.50000     74.71194     77.67578
       2163.01320   2790.49946      8.50000     74.19120     77.97851
       2163.16560   2831.00104      8.50000     98.07217     78.48634
       2163.31800   2820.99929      8.50000    122.50780     78.54492
       2163.47040   2806.49911      8.50000    152.32480     75.19532
       2163.62280   2739.00022      8.50000    165.54780     71.33789
       2163.77520   2729.00072      8.50000    169.92340     70.39063
       2163.92760   2742.99957      8.50000    167.98160     72.08983
       2164.08000   2737.99982      8.50000    161.74700     72.94922
       2164.23240   2779.00048      8.50000    165.28820     72.08008
       2164.38480   2791.00078      8.50000    165.95920     72.09962
       2164.53720   2752.99908      8.50000    173.64270     73.36914
       2164.68960   2758.00108      8.50000    175.92500     74.83398
       2164.84200   2752.99908      8.50000    177.15790     74.87305
       2164.99440   2718.99897      8.50000    176.31470     74.93164
       2165.14680   2739.00022      8.50000    176.42420     75.54687
       2165.29920   2725.50045      8.50000    176.27760     74.64845
       2165.45160   2709.50079      8.50000    169.99790     73.62304
       2165.60400   2743.99997      8.50000    175.15760     74.18945
       2165.75640   2748.99973      8.50000    180.50120     76.01563
       2165.90880   2743.99997      8.50000    189.69670     77.73436
       2166.06120   2750.00013      8.50000    189.73940     78.67187
       2166.21360   2714.99962      8.50000    189.77690     79.08204
       2166.36600   2756.00028      8.50000    186.05060     78.77928
       2166.51840   2759.99963      8.50000    183.47380     78.85743
       2166.67080   2786.50011      8.50000    175.66910     79.34572
       2166.82320   2803.00108      8.50000    181.07410     79.57033
       2166.97560   2793.50066      8.50000    183.36710     78.96484
       2167.12800   2792.99933      8.50000    191.50760     78.06641
       2167.28040   2807.00043      8.50000    183.80830     78.64258
       2167.43280   2756.00028      8.50000    179.82740     80.31251
       2167.58520   2762.00043      8.50000    181.23900     80.98634
       2167.73760   2795.00013      8.50000    186.83680     81.14258
       2167.89000   2750.00013      8.50000    184.63050     81.34765
       2168.04240   2797.00093      8.50000    189.64060     80.97655
       2168.19480   2820.00113      8.50000    186.73970     80.67382
       2168.34720   2769.99913      8.50000    196.83160     80.57617
       2168.49960   2782.99983      8.50000    194.36980     79.74610
       2168.65200   2746.49985      8.50000    202.41030     78.28124
       2168.80440   2748.50065      8.50000    198.37010     77.56837
       2168.95680   2776.99968      8.50000    198.74890     77.50000
       2169.10920   2728.00032      8.50000    197.39870     77.49022
       2169.26160   2735.99902      8.50000    194.85320     78.21290
       2169.41400   2742.50050      8.50000    195.66800     79.26757
       2169.56640   2718.00082      8.50000    198.08850     80.13671
       2169.71880   2768.00058      8.50000    199.90040     80.41014
       2169.87120   2775.99928      8.50000    192.61430     79.58008
       2170.02360   2804.99963      8.50000    187.83580     78.77928
       2170.17600   2807.00043      8.50000    190.07150     78.89647
       2170.32840   2770.50045      8.50000    197.07740     79.33593
       2170.48080   2751.00053      8.50000    199.65880     79.32618
       2170.63320   2784.00023      8.50000    200.00460     79.00392
       2170.78560   2767.00018      8.50000    198.65830     78.89647
       2170.93800   2809.99938      8.50000    197.30910     79.01367
       2171.09040   2782.99983      8.50000    193.00350     79.34572
       2171.24280   2741.99918      8.50000    192.08480     79.28711
       2171.39520   2806.00003      8.50000    194.14050     78.78906
       2171.54760   2824.00049      8.50000    199.21610     78.84765
       2171.70000   2832.50051      8.50000    201.68440     79.86327
       2171.85240   2849.99964      8.50000    193.72310     80.72265
       2172.00480   2797.00093      8.50000    190.58460     80.82031
       2172.15720   2820.50021      8.50000    185.87490     81.28906
       2172.30960   2774.49980      8.50000    190.80830     81.86523
       2172.46200   2748.99973      8.50000    190.21240     81.97264
       2172.61440   2793.99973      8.50000    181.65640     81.82618
       2172.76680   2807.00043      8.50000    172.31640     81.70899
       2172.91920   2825.00089      8.50000    164.65460     82.18749
       2173.07160   2824.49956      8.50000    163.57530     80.50780
       2173.22400   2790.49946      8.50000    162.63830     75.58595
       2173.37640   2803.99923      8.50000    170.57900     72.26561
       2173.52880   2860.99954      8.50000    168.56480     71.91405
       2173.68120   2810.99978      8.50000    164.45300     72.07033
