~Version Information
 VERS.                  2.0:   CWLS log ASCII Standard -VERSION 2.0
 WRAP.                   NO:   One line per depth step
~Well Information Block
#MNEM.UNIT     VALUE/NAME     DESCRIPTION
#---------     -----------    ---------------------------
 STRT.M              1700.1000: START DEPTH
 STOP.M              2733.9000: STOP DEPTH
 STEP.M                 0.1500: STEP DEPTH
 NULL.               -999.2500: NULL VALUE
 CNTY.         Tanjung Benuang:  COUNTY NAME
 CTRY.               Indonesia:  COUNTRY NAME
 PROV.          South Sumatera:  PROVINCE
 STAT.          South Sumatera:  STATE NAME
 FLD .                 Benuang:  FIELD NAME
 DATE.      15.00.00 14-May-24:  END TIME
 WELL.                  BNG-B3:  WELL NAME
 COMP.     PHR Region 1 Zona 4:  COMPANY
 API .                        :  API NUMBER
 SRVC.             Halliburton:  SERVICE COMPANY
 UWI .                        :  UNIQUE WELL IDENTIFIER
 LOC .                        :  LOCATION
~Parameter Information Block
#MNEM.UNIT       Value        Description
#---------     -----------    ---------------------------
 AV  .fpm             311.0000:  Ann Velocity 
 AVMX.fpm             315.0000:  Max Ann Veloc 
 AZIF.deg             294.2000:  Azm, Final 
 BHAT.        Rotary Steerable:  BHA Type 
 BROT.°/100'            0.2000:  Build Rotating 
 BS  .in                8.5000:  Bit Size 
 BSZ .in                8.5000:  Bit Size 
 BTPL.psig            496.0000:  Bit Press Loss 
 CABU.                      No:  Customer Abuse 
 CGEO.           Achmad Gazali:  Customer Geo 
 COMM.                     üQb:  Run Comments 1 
 TCS .hr               88.2729:  Time Ciculation Ended 
 CV  .fpm             378.0000:  Crit Velocity 
 CVMX.fpm             380.0000:  Max Crit Veloc 
 DD1 .          Yudi Kurniawan:  Direct Drillr 1 
 DD2 .               Aminuddin:  Direct Drillr 2 
 DDSV.               Geo-Pilot:  DD Service 
 DEFF.%               100.0000:  % Det Eff 
 DLRX.°/100'            0.5000:  Dogleg Rot Max 
 DLSO.°/100'            1.1000:  Dogleg Oriented 
 DLSX.°/100'            2.1900:  Dogleg Str Max 
 DRET.      10.25.00 13-May-24:  Drill End Time 
 DRST.      23.00.00 09-May-24:  Drill Start Tim 
 DTIM.hr               52.9642:  Time Drilling 
 EDEP.m              2734.0000:  End Depth 
 ENG1.      Andika BP Pulungan:  Engineer 1 
 ENG2.         Edward Joshua M:  Engineer 2 
 ENG3.       Pandamama Siahaan:  Engineer 3 
 ENG4.        Siti Nurfitriani:  Engineer 4 
 ETIM.      18.45.00 14-May-24:  End Time 
 FLOI.gpm             550.0000:  Flow In 
 FLON.gpm             400.0000:  Flow In Min 
 FLOS.mptm              4.2000:  Fluid Loss 
 FLOX.gpm             600.0000:  Flow In Max 
 DFT .                 Polymer:  Mud Type 
 HPRE.                      No:  High Pressure 
 HTEM.                      No:  High Temp 
 HYDO.m                 0.0000:  Hydro Offset 
 IFIN.deg              25.6000:  Inc, Final 
 IMAX.deg              26.9023:  Inc Max 
 IMIN.deg              20.4496:  Inc Min 
 IMND.m              2580.0901:  Inc Min Depth 
 IMXD.m              2034.3999:  Inc Max Depth 
 JARR.                      No:  Jarring 
 LETM.      10.25.00 13-May-24:  Log End Time 
 LOST.hr                     0:  Lost Rig Time 
 LSTM.      23.00.00 09-May-24:  Log Start Time 
 MDCL.ppm           42000.0000:  Mud Chlorides 
 MDES.             Fresh Water:  Mud Desc 
 DFD .SG                1.3000:  Mud Density 
 MDMN.SG                1.2500:  Dens Mud Min 
 MDMX.SG                1.3000:  Dens Mud Max 
 PH  .pH               10.0000:  Mud pH 
 MOIL.                       0:  Run Mud Oil % 
 MOWR.                   0 100:  Run Mud OWR 
 MSND.                     0.2:  Run Mud Sand % 
 MSOL.                     8.9:  Run Mud Solids% 
 DFV .spqt             80.0000:  Mud Viscosity 
 MWOD.in                6.7500:  MWD Tool OD 
 MWSI.                      No:  Serv Intrp, MWD 
 OTIM.hr              124.1140:  Time Operating 
 PMAX.psig           3200.0000:  Press Op, Max 
 PV  .cP               24.0000:  Mud PV 
 RMS .ohmm              0.0800:  Mud Resistivity 
 RMCS.ohmm              0.1050:  Mud Cake Resistivity 
 MCST.degF             81.0000:  Mud Cake Sample Temperature 
 RMFS.ohmm              0.0500:  Mud Filtrate Resistivity 
 RMFT.degF             81.0000:  Mud Filtrate Sample Temperature 
 RMMT.ohmm              0.0525:  Rm @ Max Temp 
 MST .degF             82.0000:  Mud Sample Temperature 
 RUN .                     500:  Run Number 
 ROPA.m/hr             30.0000:  ROP Avg 
 ROPN.m/hr              5.0000:  ROP Min 
 ROPX.m/hr             40.0000:  ROP Max 
 RPMA.rpm             120.0000:  RPM Surface Avg 
 RPMN.rpm              80.0000:  RPM Surface Min 
 RPMX.rpm             130.0000:  RPM Surface Max 
 RRUN.                     500:  Rig Run Number 
 RTIM.hr               10.0000:  Time Reaming 
 SAZI.deg             296.4800:  Azm, Start 
 SDEP.m              1782.9999:  Start Depth 
 SIDD.                      No:  Serv Intrp, DD 
 SINC.deg              23.5300:  Inc, Start 
 SPPA.psig           3000.0000:  SPP Avg 
 SPPN.psig           2000.0000:  SPP Min 
 SPPX.psig           3100.0000:  SPP Max 
 STIM.      10.00.00 09-May-24:  Start Time 
 SVCS.                 DD, MWD:  Services 
 SVER.                  9.2000:  Sperry Version 
 TDAT.m               951.0001:  Tot Depth Attmp 
 TDDF.                      No:  Trip for DD 
 TDLG.m               951.0001:  Tot Depth Loggd 
 TFF .                      No:  Trip for Fail 
 TQAA.f-p           15000.0000:  Torque Abs Avg 
 TQAN.f-p            7000.0000:  Torque Abs Min 
 TQAX.f-p           18000.0000:  Torque Abs Max 
 TRRT.°/100'            0.2000:  Turn Rotating 
 MRT .                  EWR-P4:  Maximum Recorded Temperature 
 TTMX.degC            101.9000:  Max Tool Temp 
 VS01.        JK90757141L2N1-6:  Virtual Str1 SN 
 VS02.     DR90758460H1WGV2R-6:  Virtual Str2 SN 
 WBMN.klb               5.0000:  WOB Min 
 WITN.            Eko Agustian:  Customer Rep 2 
 WITN.            Bagus Ardika:  Customer Rep 
 WOBA.klb              20.0000:  WOB Avg 
 WOBX.klb              30.0000:  WOB Max 
 YP  .lhf2             30.0000:  Yield Point 
~Curve Information Block
#MNEM.UNIT                 API CODE     Curve Description
#---------               -----------    ---------------------------
 DEPT.M                 00 000 000 000:  Depth
 TVD .m                 00 000 000 000:  True Vertical Depth
 ROPA.m/hr              00 000 000 000:  Avg Rate of Penetration
 DGRCC.api              00 000 000 000:  DGR Comb Gamma Ray BCorr
 DGDD.ptpm              00 000 000 000:  DGR Data Density
 R09PC.ohmm             00 000 000 000:  9in Phase Resistivity BC
 R15PC.ohmm             00 000 000 000:  15in Phase Resistivity BC
 R27PC.ohmm             00 000 000 000:  27in Phase Resistivity BC
 R39PC.ohmm             00 000 000 000:  39in Phase Resistivity BC
 EWDD.ptpm              00 000 000 000:  EWR Data Density
 EWXT.hr                00 000 000 000:  EWR Formation Exp Time
 EWTEMP.degC            00 000 000 000:  EWR Temperature
 ALCDLC.g/cc            00 000 000 000:  ALD LCRB Comp Density
 ALDD.ptpm              00 000 000 000:  ALD Data Density
 TNPL.v/v               00 000 000 000:  CTN Porosity Limestone
 TNPS.v/v               00 000 000 000:  CTN Porosity Sandstone
 TNDD.ptpm              00 000 000 000:  CTN Data Density
#Other Information
#Environmental Parameters (and sensors to which they are applied)
#Hole Size 		: 8.5" (all sensors)
#Tool Size 			: 6.75"
#Mud Type 		: WBM (Gamma Ray)
#Mud Weight 		: 1.25 - 1.30 SG (Gamma Ray)
#KCl Concentration by Weight 	: 4.21 - 5.05 pbw (Gamma Ray)
#Mud Resistivity at BHT 	: 0.07  ohmm @101.9 degC (Resistivity)
#Fluid Density 		: 1.00 g/cc (Density)
#Neutron Tool Lithology	: Limestone (Porosity)
#Whole Mud Chlorides 	: 28800 - 33426 ppm (Porosity)
#Formation Water Salinity 	: 20000 ppm Cl- (Porosity)
#Pressure and Temperature 	: from PWD and EWR (Density, Porosity)
#
#Comments:
#1) All depth are calibrated to the drillers pipe tally and are measured from drill floor.
#2) No depth correction have been made for pipe stretch or compression.
#3) LWD Resistivity Tool utilized in this run is EWRP4, with spacing configuration as below:
#    - Deep Resistivity = 39in Spacing / 1 Mhz Frequency
#    - Medium Resistivity = 27in Spacing / 2 MHz Frequency
#    - Shallow Resistivity = 15in Spacing / 2 MHz Frequency
#    - XShallow Resistivity = 9in Spacing /2 MHz Frequency
#4) CTN Alloy type used for CTN data processing is Mid Nickle.
#5) Density reading might be affected by detector standoff to borehole wall while sliding.
#6) All data presented is Memory data unless otherwise stated.
#WARRANTY: Halliburton will use its best efforts to furnish customers with 
#accurate information and interpretations that are part of, and incident to, the services 
#provided.  However, Halliburton cannot and does not warrant the accuracy 
#or correctness of such information and interpretations.  Under no circumstances should any 
#such information or interpretation be relied upon as the sole basis for any drilling, 
#completion, production, or financial decision or any procedure involving any risk to the 
#safety of any drilling venture, drilling rig or its crew or any other third party.  The 
#Customer has full responsibility for all drilling, completion and production operation.  
#Halliburton makes no representations or warranties, either expressed or 
#implied, including, but not limited to, the implied warranties of merchantability or fitness 
#for a particular purpose, with respect to the services rendered.  In no event will 
#Halliburton be liable for failure to obtain any particular results or for 
#any damages, including, but not limited to, indirect, special or consequential damages, 
#resulting from the use of any information or interpretation provided by Halliburton.
#
~A   DEPT       TVD      ROPA      DGRCC     DGDD      R09PC     R15PC     R27PC     R39PC     EWDD      EWXT     EWTEMP    ALCDLC      ALDD      TNPL      TNPS       TNDD    
# ...
   1914.0000 1789.1667   24.4832  131.6383  223.3235    3.7779    3.7854    3.7375    4.1156   13.4221    0.5965   84.2285    2.6371    15.0755    0.1799    0.2217    15.8092
   1914.1500 1789.3011   24.3946  132.8622  466.9074    3.6163    3.6655    3.6527    3.9895   13.3118    0.5958   84.2285    2.5990    14.7371    0.1895    0.2311    15.1258
   1914.3000 1789.4365   24.3023  132.3024  153.3973    3.5737    3.6000    3.6181    3.9560   12.9979    0.5952   84.2285    2.5835    13.8971    0.1959    0.2374    15.4215
   1914.4500 1789.5739   24.4875  135.4518   33.2126    3.6085    3.6349    3.6648    3.9452   13.3521    0.5945   84.2285    2.5995    15.6975    0.1998    0.2412    15.6139
   1914.6000 1789.7083   24.3852  133.8963   33.1776    3.7195    3.7279    3.6868    3.9405   24.6050    0.6239   84.2285    2.6154    15.4432    0.1960    0.2375    15.6648
   1914.7500 1789.8438   24.3153  139.8832   23.6329    3.7330    3.6943    3.6201    3.8376   71.4282    0.7100   84.2285    2.6360    14.6905    0.1935    0.2350    15.0596
   1914.9000 1789.9807   24.5038  138.9140   19.2906    3.7226    3.6710    3.5626    3.7458   26.1713    1.2543   84.2285    2.6510    18.3466    0.1935    0.2350    15.4217
   1915.0500 1790.1149   24.3908  140.1791   21.2369    3.6453    3.6003    3.4992    3.6818   16.5600    1.5169   84.2285    2.6142    22.5298    0.1907    0.2322    15.4463
   1915.2000 1790.2511   24.3258  142.1410   24.9241    3.6017    3.5860    3.5244    3.7229   13.9715    1.5169   84.2285    2.5918   108.1933    0.1954    0.2369    15.9421
   1915.3500 1790.3878   24.5142  144.2361   32.4056    3.6106    3.6355    3.5989    3.7981   15.9590    1.5170   84.2285    2.5968    81.2721    0.1984    0.2398    15.1425
   1915.5000 1790.5221   24.3820  142.5143   24.0698    3.7122    3.6763    3.6760    3.8617   15.8123    1.5174   84.2285    2.6038    66.2097    0.1940    0.2355    14.4393
   1915.6500 1790.6575   24.3318  141.7739   31.0353    3.7196    3.6877    3.6628    3.8597   14.2317    1.5172   84.1248    2.6136    21.0000    0.1962    0.2376    14.9566
   1915.8000 1790.7955   24.5149  139.1772   35.5853    3.7263    3.7168    3.6645    3.8413   14.1712    1.5170   83.4067    2.6129    12.3551    0.1928    0.2343    14.9083
   1915.9500 1790.9297   24.3527  137.1652   18.4247    3.8154    3.7739    3.6972    3.8272   15.0739    1.5172   79.9561    2.6171    13.0273    0.1960    0.2375    13.6478
   1916.1000 1791.0647   24.3595  145.2411   19.0974    3.8025    3.7832    3.6782    3.8214   16.2180    1.5177   79.9561    2.6552    13.8913    0.2088    0.2500    14.4766
   1916.2500 1791.2780   13.4897  135.5464   24.8545    3.6950    3.6744    3.5632    3.7283   15.6038    1.5133   79.9561    2.6828    13.3659    0.2024    0.2437    15.8453
   1916.4000 1791.3230    8.7179  121.9321   16.4252    3.4891    3.5025    3.4248    3.6093   17.6377    1.4874   79.9561    2.6678    13.3363    0.1936    0.2352    17.9308
   1916.5500 1791.4200   12.6666  133.3999   15.5233    3.4335    3.4971    3.4866    3.6574   16.5197    1.4518   79.9561    2.6425    15.4767    0.2003    0.2417    15.0160
   1916.7000 1791.5988    5.1416  142.0543   14.4746    3.4854    3.5632    3.5755    3.6815   15.6011    1.4416   79.9561    2.6332    14.6080    0.1971    0.2386    13.2464
   1916.8500 1791.7422   11.7369  135.0072   15.6796    3.5181    3.5657    3.5537    3.6553   16.2234    1.4422   79.9561    2.6310    15.2465    0.1888    0.2304    13.9526
   1917.0000 1791.8804   26.2565  138.2799   15.3960    3.4010    3.4041    3.3393    3.4738   14.2277    1.4427   79.9561    2.6687    14.6198    0.1860    0.2277    15.2964
   1917.1500 1792.0156   27.2865  126.2168    9.7127    3.1698    3.1950    3.1130    3.2508   12.2536    1.4435   79.9561    2.6557    12.8361    0.1910    0.2326    14.9689
   1917.3000 1792.1509   27.1897  150.0175   14.7888    2.9127    2.9804    2.9127    3.0682   15.9396    1.4454   79.9561    2.6394    12.9002    0.1987    0.2402    14.7607
   1917.4500 1792.2864   27.3007  149.7278   19.1724    2.8073    2.8496    2.8443    3.0094   19.4963    1.4478   79.9561    2.6216    14.3901    0.2041    0.2454    13.9349
   1917.6000 1792.4243   27.4841  149.0998   16.2301    2.7009    2.7663    2.7763    2.9514   42.2420    1.4546   79.9561    2.5902    16.5977    0.2036    0.2450    15.6444
   1917.7500 1792.5566   27.3157  158.2567   14.5040    2.7005    2.7586    2.7763    2.9625  161.7728    1.4803   79.9895    2.6096    15.2519    0.2102    0.2514    15.8041
   1917.9000 1792.6954   27.3968  149.6456   13.7940    2.7226    2.7692    2.7803    2.9662  388.6971    1.4944   80.4180    2.6205    12.6051    0.2155    0.2567    15.1441
   1918.0500 1792.8296   27.5540  147.5504   15.1964    2.7486    2.7770    2.7596    2.9345  284.2667    1.5291   80.5664    2.6486    11.7379    0.2094    0.2506    14.7195
   1918.2000 1792.9647   27.3095  141.5810   15.2465    2.7413    2.7561    2.7062    2.8699   47.5411    1.5518   80.5664    2.6591    12.7501    0.2160    0.2571    14.2726
   1918.3500 1793.1019   27.3746  141.1587   16.1574    2.7450    2.7894    2.7409    2.8617   29.4709    1.5584   80.5664    2.6232    13.0249    0.2101    0.2513    15.8682
   1918.5000 1793.2383   27.5378  149.7534   14.9223    2.7340    2.7688    2.7447    2.8594   27.4425    1.5641   80.5664    2.6219    14.5743    0.2020    0.2434    15.2362
   1918.6500 1793.3708   27.2603  150.1366   15.1300    2.7350    2.7643    2.7657    2.8722   22.3800    1.5684   80.5664    2.6184    12.9391    0.2070    0.2483    14.4710
   1918.8000 1793.5099   27.3460  145.8122   15.6183    2.7682    2.8014    2.7876    2.8958   18.5172    1.5710   80.5772    2.6101    11.5873    0.2128    0.2540    18.6256
   1918.9500 1793.6442   27.5018  148.2200   15.5785    2.7754    2.8126    2.7762    2.8885   24.5013    1.5743   80.6821    2.6121    11.4657    0.2189    0.2600    14.0998
   1919.1000 1793.7793   27.2288  148.7447   15.5505    2.7668    2.7694    2.7321    2.8449   30.3729    1.5796   81.1087    2.6338    11.8013    0.2156    0.2567    34.0290
   1919.2500 1793.9148   27.3439  140.1221   15.2698    2.7434    2.7385    2.7022    2.8244   25.9883    1.5852   81.1768    2.6112    12.8479    0.2168    0.2579   384.8118
   1919.4000 1794.0521   27.4595  150.3053   15.1649    2.7202    2.7256    2.6893    2.8077   27.3699    1.5907   81.1768    2.6096    11.8701    0.2144    0.2556  2800.7107
   1919.5500 1794.1853   27.2792  148.2133   16.4998    2.7192    2.7197    2.6779    2.7929   40.5652    1.5975   81.1768    2.6183    12.6472    0.2169    0.2580  1105.3569
   1919.7000 1794.3247   27.4421  150.9317   14.6820    2.7296    2.7086    2.6613    2.8002   24.3804    1.6031   81.1768    2.6406    11.8298    0.2279    0.2689    12.3757
   1919.8500 1794.4581   27.4972  146.9951   14.8698    2.7589    2.7264    2.6814    2.8360   16.9647    1.6051   81.1768    2.6376    12.2352    0.2244    0.2654    13.0617
   1920.0000 1794.5940   27.1994  150.0584   14.8315    2.8094    2.7770    2.7339    2.8738   25.9929    1.6079   81.1768    2.6427    12.0713    0.2244    0.2654    13.6911
   1920.1500 1794.7301   27.2716  151.0581   14.4881    2.8478    2.8022    2.7493    2.9046   19.0101    1.6109   81.1768    2.6403    11.6322    0.2239    0.2650    13.4993
   1920.3000 1794.8671   27.2836  152.5401   14.5117    2.8918    2.8432    2.7933    3.0024   14.7734    1.6119   81.1768    2.6460    11.3050    0.2173    0.2584    13.5557
   1920.4500 1794.9999   27.1023  145.7990   13.7880    2.9970    2.9790    2.9197    3.1565   14.8970    1.6128   81.1768    2.6748    11.6278    0.2192    0.2603    15.6532
   1920.6000 1795.1384   27.3462  139.3125   15.3501    3.2838    3.2882    3.2633    3.4948   14.6915    1.6136   81.1768    2.6467    11.4827    0.2107    0.2519    14.4337
   1920.7500 1795.2740   27.3728  146.5742   17.2056    3.6656    3.6397    3.6139    3.8295   16.0579    1.6144   81.1768    2.6496    11.3648    0.1956    0.2371    15.0902
