~VERSION INFORMATION 
VERS  .    2.0                                     :CWLS Log ASCII Standard - VERSION 2.0
WRAP  .    NO                                      :One Line per Depth step
PROD  .    Schlumberger Technology Corp.           :LAS Producer
PROG  .    Horizon LASWriter 13.0.221437.3100      :LAS Program name and version
SOURCE.    S1R1-Log[3]/Up                          :Run&Pass Information
CREA  .    05/17/2024                              :LAS Creation date {MM/DD/YYYY}
#--------------------------------------------------
~WELL INFORMATION 
#MNEM           .UNIT                      DATA            :DESCRIPTION
#----            ------          --------------            -----------------------------
STRT            .m                   1744.98000            :START DEPTH
STOP            .m                   2740.91400            :STOP DEPTH
STEP            .m                       0.1524            :STEP
NULL            .                       -999.25            :NULL VALUE
COMP            .                PT Pertamina EP           :COMPANY
WELL            .                BNG-056 (BNG-B3)          :WELL NAME
FLD             .                    Prabumulih            :FIELD NAME
RIGN            .                                          :Rig Name
RIGTYP          .                          Land            :Rig Type
SON             .                A.1009322.16.02           :Service Order Number
SRVC            .                  Schlumberger            :SERVICE COMPANY
DATE            .                    05/17/2024            :LOG DATE(Composite Date for Composite LAP) (MM/DD/YYYY)
CLAB            .                     Rig Name:            :County Label
CNTY            .                PDSI#39.3/D1500-E         :COUNTY
SLAB            .                     Province:            :State/Province Label
STAT            .                 South Sumatra            :STATE or PROVINCE
PROV            .                 South Sumatra            :STATE or PROVINCE
CTRY            .                     Indonesia            :COUNTRY
CONT_REGION     .                          Asia            :Continent Region
SECT            .                                          :Section
TOWN            .                                          :Township
RANG            .                                          :Range
API             .                                          :API NUMBER
UWI             .                                          :UNIQUE WELL ID
LUL             .                ING/IDPRA-WLES            :Logging Unit Location
LUN             .                  OSLC-AA 2175            :Logging Unit Number
LOC             .                         Adera            :FIELD LOCATION
FL1             .                 X: 389146.04             :Field Location Line 1
FL2             .                Y: 9628977.87             :Field Location Line 2
LATI            .deg             3° 21' 22.33" S           :LATITUDE
LONG            .deg             104° 0' 7.68" E           :LONGITUDE
PDAT            .                           MSL            :Local Permanent Datum
LMF             .                            DF            :Logging Measured From
APD             .m                        34.37            :Elevation of Depth Reference (LMF) Above Permanent Datum
EPD             .m                         0.00            :Elevation of Permanent Datum (PDAT) above Mean Sea Level
EKB             .m                        34.37            :Elevation of Kelly Bushing Above Permanent Datum
EDF             .m                        34.37            :Elevation of Drill Floor Above Permanent Datum
EGL             .m                        25.23            :Elevation of Ground Level Above Permanent Datum
ECF             .m                      -999.25            :Elevation of Casing Flange above Permanent Datum
#--------------------------------------------------
~CURVE INFORMATION
#MNEM           .UNIT                  API CODE            :DESCRIPTION
#----            ------          --------------            -----------------------------
DEPT            .m                                         :                                                        Depth Index
GR_CAL          .gAPI                                      :        (EDTC-B)                (6in)                   Calibrated Gamma Ray
TENS            .lbf                                       :        (WLWorkflow)            (6in)                   Cable Tension
DT              .us/ft                                     :        (DSLT-H)                (6in)                   Delta-T (also called Slowness or Interval Transit Time)
#-------------------------------------------------------------
#            DEPT       GR_CAL         TENS           DT 
#                     (EDTC-B)  (WLWorkflo)     (DSLT-H) 
#                                                        
#                        (6in)        (6in)        (6in) 
~ASCII
# ...
       2002.84080     97.01604   3243.27366     77.85153
       2002.99320    112.27590   3242.63745     75.66776
       2003.14560    130.52410   3260.91667     75.38186
       2003.29800    141.19880   3260.79977     74.89454
       2003.45040    151.55700   3263.27266     73.90827
       2003.60280    149.23800   3245.63640     75.41328
       2003.75520    163.52300   3235.45481     77.23754
       2003.90760    173.36200   3257.54453     80.39009
       2004.06000    187.55520   3238.72802     81.62318
       2004.21240    187.47030   3231.45545     82.82230
       2004.36480    183.08620   3253.81945     82.42432
       2004.51720    170.84730   3253.09107     80.08766
       2004.66960    162.88450   3239.36423     77.77554
       2004.82200    157.10950   3219.99919     75.73536
       2004.97440    156.39000   3233.19997     85.79645
       2005.12680    140.00720   3282.27352     99.61672
       2005.27920    132.22780   3257.81880    107.53280
       2005.43160    134.76970   3230.79901    106.49822
       2005.58400    150.54370   3242.27326     99.66491
       2005.73640    170.80350   3235.09061     84.60477
       2005.88880    175.33480   3283.18174     69.43737
       2006.04120    174.37080   3330.80077     70.58985
       2006.19360    162.87770   3319.63676     74.02739
       2006.34600    159.42780   3309.18090     75.47512
       2006.49840    160.90460   3270.50027     76.31131
       2006.65080    163.56980   3268.90862     73.55876
       2006.80320    163.02130   3275.45506     75.66596
       2006.95560    164.41980   3256.80041     76.39568
       2007.10800    171.21660   3238.36383     76.54634
       2007.26040    179.38740   3246.63680     76.53988
       2007.41280    189.24860   3242.27326     74.55009
       2007.56520    184.05090   3266.30084     72.80950
       2007.71760    183.36500   3262.00025     73.36591
       2007.87000    178.26390   3247.99914     74.35669
       2008.02240    173.10890   3243.99979     74.10438
       2008.17480    169.14780   3243.45351     72.34007
       2008.32720    162.66970   3266.09177     69.54667
       2008.47960    156.37500   3319.40071     66.97111
       2008.63200    137.94070   3317.54604     66.35813
       2008.78440    118.73570   3297.00075     67.19423
       2008.93680    100.63590   3277.70090     69.03635
       2009.08920     94.17135   3251.81865     71.84593
       2009.24160     97.60909   3230.90917     72.04039
       2009.39400    106.51280   3267.60024     72.42091
       2009.54640    104.63470   3251.27236     72.81706
       2009.69880     94.93298   3279.18239     72.34830
       2009.85120     90.82430   3257.29949     73.46299
       2010.00360     92.06351   3246.90882     74.33859
       2010.15600     93.88171   3252.27276     74.66555
       2010.30840     93.11076   3234.36448     76.10509
       2010.46080     87.79935   3233.89913     78.41254
       2010.61320     75.70441   3250.72832     78.97411
       2010.76560     62.25852   3217.40040     79.93892
       2010.91800     51.85400   3223.63660     80.30788
       2011.07040     46.98241   3228.63635     79.97909
       2011.22280     43.31304   3254.90977     80.03902
       2011.37520     42.25953   3313.27242     80.78395
       2011.52760     42.65712   3321.39926     80.66636
       2011.68000     40.50261   3318.27217     79.93557
       2011.83240     42.46622   3307.18235     79.59751
       2011.98480     42.86941   3275.36289     78.95874
       2012.13720     43.64191   3250.09212     79.21127
       2012.28960     43.42203   3262.36444     79.66908
       2012.44200     42.69394   3257.63670     80.14524
       2012.59440     47.71046   3266.45371     80.79398
       2012.74680     44.87885   3248.99954     81.23328
       2012.89920     43.38817   3254.18139     81.93783
       2013.05160     38.62802   3259.36324     82.22748
       2013.20400     40.87949   3259.09122     80.55059
       2013.35640     43.89163   3259.63526     80.36893
       2013.50880     48.10610   3258.18299     80.48762
       2013.66120     51.26671   3245.45431     80.45403
       2013.81360     49.70826   3254.81760     80.39210
       2013.96600     43.89255   3270.36314     79.62391
       2014.11840     38.98698   3266.09177     79.69950
       2014.27080     42.10785   3268.63661     80.15009
       2014.42320     50.06911   3258.99905     79.55274
       2014.57560     58.27252   3254.99969     80.27082
       2014.72800     61.29830   3269.18064     80.21297
       2014.88040     59.00588   3261.54613     78.43114
       2015.03280     51.77382   3269.54483     78.07336
       2015.18520     48.24438   3267.72838     76.90025
       2015.33760     46.65547   3246.18269     76.52647
       2015.49000     46.99834   3247.90922     76.59130
       2015.64240     44.81961   3261.50117     77.20215
       2015.79480     40.90627   3262.45436     77.34132
       2015.94720     38.97678   3290.72633     77.34977
       2016.09960     39.48509   3276.30034     77.46443
       2016.25200     43.99987   3278.72828     76.87717
       2016.40440     47.78232   3319.00055     76.15114
       2016.55680     47.41670   3346.60035     75.53081
       2016.70920     45.97556   3356.27388     75.35217
       2016.86160     47.03226   3378.63562     75.33476
       2017.01400     47.00864   3361.54565     75.43733
       2017.16640     45.76127   3362.81806     75.40697
       2017.31880     37.29467   3305.10062     75.78953
       2017.47120     32.30219   3263.90887     76.04221
       2017.62360     32.95247   3267.63621     76.07482
       2017.77600     39.56711   3264.00104     76.03964
       2017.92840     43.72033   3324.18240     75.55245
       2018.08080     41.36598   3418.27169     75.29776
       2018.23320     40.89558   3355.59945     75.54758
       2018.38560     38.81070   3280.00070     76.42256
       2018.53800     38.22862   3264.18089     77.63881
       2018.69040     36.70934   3260.19953     78.47423
       2018.84280     40.55754   3283.91012     79.40177
       2018.99520     48.04156   3293.27342     80.00366
       2019.14760     64.03707   3288.90088     78.85670
       2019.30000     78.78549   3289.27182     90.58120
       2019.45240     95.64700   3274.54458    106.36798
       2019.60480    104.00210   3292.79907    106.85252
       2019.75720    111.29980   3277.99990    105.61122
       2019.90960    110.60940   3264.81935     88.20144
       2020.06200    103.10750   3310.99960     74.07762
       2020.21440     88.65086   3300.89894     73.72344
       2020.36680     80.73769   3261.90807     73.67616
       2020.51920     79.02837   3287.19908     74.47818
       2020.67160     84.47625   3276.90957     76.07790
       2020.82400     82.99840   3271.36354     77.17140
       2020.97640     82.85249   3265.81750     77.00580
       2021.12880     78.96557   3264.50012     76.90256
       2021.28120     82.51972   3259.27331     77.75457
       2021.43360     90.48396   3262.27226     79.87814
       2021.58600    106.57380   3260.72783     81.89561
       2021.73840    123.72870   3286.70000     83.90300
       2021.89080    131.88920   3286.54489     83.49911
       2022.04320    136.21800   3280.18279     82.08069
       2022.19560    136.25830   3284.36424     79.27659
       2022.34800    137.78960   3265.18129     76.46188
       2022.50040    140.68720   3278.63611     75.68254
       2022.65280    147.00780   3290.81850     74.88857
       2022.80520    165.43940   3260.54573     74.73797
       2022.95760    182.81180   3250.27196     77.95409
       2023.11000    193.97180   3270.27321     82.25415
       2023.26240    198.65460   3263.27266     84.43240
       2023.41480    199.92140   3279.72643     86.66668
       2023.56720    194.04600   3278.40006     87.20020
       2023.71960    173.25960   3250.27196     82.95678
       2023.87200    159.24210   3233.18199     81.23694
       2024.02440    159.05040   3233.63610     79.12303
       2024.17680    156.57570   3245.45431     88.40694
