~VERSION INFORMATION 
VERS  .    2.0                                     :CWLS Log ASCII Standard - VERSION 2.0
WRAP  .    NO                                      :One Line per Depth step
PROD  .    Schlumberger Technology Corp.           :LAS Producer
PROG  .    Horizon LASWriter 13.0.221437.3100      :LAS Program name and version
SOURCE.    S1R1-Log[3]/Up                          :Run&Pass Information
CREA  .    07/04/2024                              :LAS Creation date {MM/DD/YYYY}
#--------------------------------------------------
~WELL INFORMATION 
#MNEM           .UNIT                      DATA            :DESCRIPTION
#----            ------          --------------            -----------------------------
STRT            .m                   1718.15760            :START DEPTH
STOP            .m                   2673.85800            :STOP DEPTH
STEP            .m                       0.1524            :STEP
NULL            .                       -999.25            :NULL VALUE
COMP            .                PT Pertamina EP           :COMPANY
WELL            .                BNG-A4(BNG-058)           :WELL NAME
FLD             .                       Benuang            :FIELD NAME
RIGN            .                       Tiger-7            :Rig Name
RIGTYP          .                      Land Rig            :Rig Type
SON             .                A.1059389.01.02           :Service Order Number
SRVC            .                  Schlumberger            :SERVICE COMPANY
DATE            .                    07/04/2024            :LOG DATE(Composite Date for Composite LAP) (MM/DD/YYYY)
CLAB            .                     Rig Name:            :County Label
CNTY            .                       TIGER-7            :COUNTY
SLAB            .                     Province:            :State/Province Label
STAT            .                 South Sumatra            :STATE or PROVINCE
PROV            .                 South Sumatra            :STATE or PROVINCE
CTRY            .                     Indonesia            :COUNTRY
CONT_REGION     .                          Asia            :Continent Region
SECT            .                                          :Section
TOWN            .                                          :Township
RANG            .                                          :Range
API             .                                          :API NUMBER
UWI             .                                          :UNIQUE WELL ID
LUL             .                         IDPRA            :Logging Unit Location
LUN             .                   OSLC-A 2155            :Logging Unit Number
LOC             .                         Adera            :FIELD LOCATION
FL1             .                X: 387.623,270 mE         :Field Location Line 1
FL2             .                Y: 9.630.308,141 mN       :Field Location Line 2
LATI            .deg             3° 20' 38.96" S           :LATITUDE
LONG            .deg             103° 59' 18.38" E         :LONGITUDE
PDAT            .                           MSL            :Local Permanent Datum
LMF             .                            DF            :Logging Measured From
APD             .m                        44.63            :Elevation of Depth Reference (LMF) Above Permanent Datum
EPD             .m                         0.00            :Elevation of Permanent Datum (PDAT) above Mean Sea Level
EKB             .m                        44.63            :Elevation of Kelly Bushing Above Permanent Datum
EDF             .m                        44.63            :Elevation of Drill Floor Above Permanent Datum
EGL             .m                        34.03            :Elevation of Ground Level Above Permanent Datum
ECF             .m                      -999.25            :Elevation of Casing Flange above Permanent Datum
#--------------------------------------------------
~CURVE INFORMATION
#MNEM           .UNIT                  API CODE            :DESCRIPTION
#----            ------          --------------            -----------------------------
DEPT            .m                                         :                                                        Depth Index
TENS            .lbf                                       :        (WLWorkflow)            (1in)                   Cable Tension
BS              .in                                        :(RT)    (Borehole)              (6in)                   Bit Size
GR_CAL          .gAPI                                      :        (EDTC-B)                (6in)                   Calibrated Gamma Ray
DT              .us/ft                                     :        (ASLT-B)                (6in)                   Delta-T (also called Slowness or Interval Transit Time)
#-------------------------------------------------------------
#            DEPT         TENS           BS       GR_CAL           DT 
#                  (WLWorkflo)   (Borehole)     (EDTC-B)     (ASLT-B) 
#                                      (RT)                           
#                        (1in)        (6in)        (6in)        (6in) 
~ASCII
# ...
       2349.09360   2954.00075      8.50000    136.26230     76.98242
       2349.24600   2926.49987      8.50000    135.47920     72.34376
       2349.39840   2898.49992      8.50000    141.48990     68.31056
       2349.55080   2919.00025      8.50000    144.99960     68.85743
       2349.70320   2885.00014      8.50000    149.89480     68.69140
       2349.85560   2933.99950      8.50000    147.66280     67.19727
       2350.00800   2929.50107      8.50000    148.37070     68.62304
       2350.16040   2933.99950      8.50000    157.26600     70.87889
       2350.31280   2944.99940      8.50000    161.70770     71.28906
       2350.46520   2898.00085      8.50000    170.93800     71.69923
       2350.61760   2889.99989      8.50000    176.69120     72.16795
       2350.77000   2927.99935      8.50000    177.77440     72.01171
       2350.92240   2900.50072      8.50000    178.77390     71.92384
       2351.07480   2926.49987      8.50000    175.48480     71.97267
       2351.22720   2927.00120      8.50000    179.59660     72.24610
       2351.37960   2896.00005      8.50000    179.07130     72.98829
       2351.53200   2951.50088      8.50000    177.87350     73.56446
       2351.68440   2955.00115      8.50000    174.28700     73.70116
       2351.83680   2921.50012      8.50000    171.11470     73.38868
       2351.98920   2921.00105      8.50000    177.21610     72.81251
       2352.14160   2887.00094      8.50000    175.34790     72.50976
       2352.29400   2934.99990      8.50000    176.55200     72.08983
       2352.44640   2970.00041      8.50000    169.42050     71.37697
       2352.59880   2914.00050      8.50000    178.13110     71.24023
       2352.75120   2951.99995      8.50000    196.02990     71.42577
       2352.90360   2922.99960      8.50000    207.22990     72.13866
       2353.05600   2923.50092      8.50000    216.29590     75.13674
       2353.20840   2945.50073      8.50000    218.23540     78.29102
       2353.36080   2949.00100      8.50000    210.39200     78.72070
       2353.51320   2968.50093      8.50000    190.17510     77.23632
       2353.66560   2953.00035      8.50000    151.19790     70.93751
       2353.81800   2887.99910      8.50000    115.05060     65.83009
       2353.97040   2920.00065      8.50000     87.55329     67.41210
       2354.12280   2919.00025      8.50000     65.20753     68.91601
       2354.27520   2889.99989      8.50000     63.97711     69.07228
       2354.42760   2977.00096      8.50000     62.67241     69.60937
       2354.58000   2941.00005      8.50000     68.50315     69.88281
       2354.73240   2943.00085      8.50000     65.66653     70.13671
       2354.88480   2958.49918      8.50000     59.50032     71.64062
       2355.03720   2928.50067      8.50000     55.09000     72.13866
       2355.18960   2951.99995      8.50000     54.19085     72.03125
       2355.34200   2955.00115      8.50000     63.56667     72.61720
       2355.49440   2925.00040      8.50000     70.59095     72.32422
       2355.64680   2941.00005      8.50000     73.73020     71.40626
       2355.79920   2917.99985      8.50000     69.92066     70.01954
       2355.95160   2902.00020      8.50000     65.02557     69.34569
       2356.10400   2965.00065      8.50000     65.51064     70.71290
       2356.25640   2933.99950      8.50000     66.59505     71.96288
       2356.40880   2966.99921      8.50000     68.61357     72.14845
       2356.56120   2987.00046      8.50000     71.08193     72.33398
       2356.71360   2872.99984      8.50000     71.67924     71.38672
       2356.86600   2851.00004      8.50000     69.51369     70.29298
       2357.01840   2936.49938      8.50000     65.85139     70.70311
       2357.17080   3247.99914      8.50000     64.15655     72.09962
       2357.32320   3219.00104      8.50000     67.10699     72.64649
       2357.47560   3131.50090      8.50000     68.78749     71.29882
       2357.62800   3037.49929      8.50000     68.53804     70.48829
       2357.78040   2986.00006      8.50000     69.50646     70.62499
       2357.93280   2904.00100      8.50000     73.84200     70.75194
       2358.08520   2949.00100      8.50000     77.48920     72.53905
       2358.23760   2960.00090      8.50000     83.73174     73.50584
       2358.39000   2960.99906      8.50000     74.65037     71.40626
       2358.54240   3005.00091      8.50000     67.90240     70.02929
       2358.69480   2972.00120      8.50000     60.09525     70.41017
       2358.84720   2958.00010      8.50000     68.99266     70.73244
       2358.99960   2995.50048      8.50000     81.13934     71.98242
       2359.15200   2933.50043      8.50000     93.43164     73.61328
       2359.30440   2903.00060      8.50000    104.60160     74.84376
       2359.45680   2965.00065      8.50000    104.07790     77.04100
       2359.60920   2970.49948      8.50000     96.15573     77.92968
       2359.76160   3153.99978      8.50000     89.69646     77.06054
       2359.91400   3124.50035      8.50000     89.69634     77.95900
       2360.06640   2972.00120      8.50000     98.55189     79.09179
       2360.21880   3026.00031      8.50000    106.05630     78.97462
       2360.37120   2965.00065      8.50000    117.26930     80.46875
       2360.52360   2975.00016      8.50000    128.77500     83.43751
       2360.67600   2956.99970      8.50000    142.74860     81.96288
       2360.82840   2934.66718      8.50000    157.99530     75.48829
       2360.98080   2948.00060      8.50000    160.78590     71.38672
       2361.13320   2949.00100      8.50000    153.39590     70.81056
       2361.28560   2930.00015      8.50000    150.62970     69.73632
       2361.43800   2941.49913      8.50000    160.36020     69.45313
       2361.59040   2927.99935      8.50000    168.24200     72.14845
       2361.74280   2942.49953      8.50000    164.87680     74.39455
       2361.89520   2972.99936      8.50000    156.32320     72.86134
       2362.04760   2927.99935      8.50000    156.77560     69.87305
       2362.20000   2938.00110      8.50000    161.01260     69.85352
       2362.35240   2972.00120      8.50000    167.92360     71.90430
       2362.50480   2922.99960      8.50000    169.45030     72.31444
       2362.65720   2953.00035      8.50000    163.19050     71.11328
       2362.80960   2965.00065      8.50000    156.23970     69.32618
       2362.96200   2949.99915      8.50000    153.43640     68.07617
       2363.11440   2975.00016      8.50000    160.50110     68.51563
       2363.26680   2951.99995      8.50000    164.01730     73.31056
       2363.41920   2967.50053      8.50000    162.74840     77.11912
       2363.57160   3001.99971      8.50000    159.76260     73.66211
       2363.72400   2986.00006      8.50000    161.17930     70.37110
       2363.87640   3018.99976      8.50000    168.06080     72.12891
       2364.02880   2990.50073      8.50000    169.29600     71.81640
       2364.18120   2938.99925      8.50000    167.88110     69.54100
       2364.33360   2955.99930      8.50000    166.52800     70.05858
       2364.48600   2964.49933      8.50000    159.91730     70.34180
       2364.63840   2986.49913      8.50000    156.70030     69.06250
       2364.79080   3004.00051      8.50000    148.40610     68.31056
       2364.94320   2969.00001      8.50000    155.83930     68.74999
       2365.09560   2971.00081      8.50000    165.59480     69.34569
       2365.24800   2999.00076      8.50000    176.24470     71.99218
       2365.40040   2964.00025      8.50000    179.69350     75.04883
       2365.55280   2986.00006      8.50000    172.66790     74.61912
       2365.70520   2997.49904      8.50000    168.25460     73.96484
       2365.85760   2935.49898      8.50000    160.01900     75.03905
       2366.01000   2944.99940      8.50000    151.38340     76.60157
       2366.16240   2963.49893      8.50000    151.61580     76.20116
       2366.31480   2965.00065      8.50000    147.58110     73.43751
       2366.46720   2987.00046      8.50000    159.77450     72.08983
