~VERSION INFORMATION 
VERS  .    2.0                                     :CWLS Log ASCII Standard - VERSION 2.0
WRAP  .    NO                                      :One Line per Depth step
PROD  .    Schlumberger Technology Corp.           :LAS Producer
PROG  .    Horizon LASWriter 13.0.221437.3100      :LAS Program name and version
SOURCE.    S1R1-Log[3]/Up                          :Run&Pass Information
CREA  .    05/17/2024                              :LAS Creation date {MM/DD/YYYY}
#--------------------------------------------------
~WELL INFORMATION 
#MNEM           .UNIT                      DATA            :DESCRIPTION
#----            ------          --------------            -----------------------------
STRT            .m                   1744.98000            :START DEPTH
STOP            .m                   2740.91400            :STOP DEPTH
STEP            .m                       0.1524            :STEP
NULL            .                       -999.25            :NULL VALUE
COMP            .                PT Pertamina EP           :COMPANY
WELL            .                BNG-056 (BNG-B3)          :WELL NAME
FLD             .                    Prabumulih            :FIELD NAME
RIGN            .                                          :Rig Name
RIGTYP          .                          Land            :Rig Type
SON             .                A.1009322.16.02           :Service Order Number
SRVC            .                  Schlumberger            :SERVICE COMPANY
DATE            .                    05/17/2024            :LOG DATE(Composite Date for Composite LAP) (MM/DD/YYYY)
CLAB            .                     Rig Name:            :County Label
CNTY            .                PDSI#39.3/D1500-E         :COUNTY
SLAB            .                     Province:            :State/Province Label
STAT            .                 South Sumatra            :STATE or PROVINCE
PROV            .                 South Sumatra            :STATE or PROVINCE
CTRY            .                     Indonesia            :COUNTRY
CONT_REGION     .                          Asia            :Continent Region
SECT            .                                          :Section
TOWN            .                                          :Township
RANG            .                                          :Range
API             .                                          :API NUMBER
UWI             .                                          :UNIQUE WELL ID
LUL             .                ING/IDPRA-WLES            :Logging Unit Location
LUN             .                  OSLC-AA 2175            :Logging Unit Number
LOC             .                         Adera            :FIELD LOCATION
FL1             .                 X: 389146.04             :Field Location Line 1
FL2             .                Y: 9628977.87             :Field Location Line 2
LATI            .deg             3° 21' 22.33" S           :LATITUDE
LONG            .deg             104° 0' 7.68" E           :LONGITUDE
PDAT            .                           MSL            :Local Permanent Datum
LMF             .                            DF            :Logging Measured From
APD             .m                        34.37            :Elevation of Depth Reference (LMF) Above Permanent Datum
EPD             .m                         0.00            :Elevation of Permanent Datum (PDAT) above Mean Sea Level
EKB             .m                        34.37            :Elevation of Kelly Bushing Above Permanent Datum
EDF             .m                        34.37            :Elevation of Drill Floor Above Permanent Datum
EGL             .m                        25.23            :Elevation of Ground Level Above Permanent Datum
ECF             .m                      -999.25            :Elevation of Casing Flange above Permanent Datum
#--------------------------------------------------
~CURVE INFORMATION
#MNEM           .UNIT                  API CODE            :DESCRIPTION
#----            ------          --------------            -----------------------------
DEPT            .m                                         :                                                        Depth Index
GR_CAL          .gAPI                                      :        (EDTC-B)                (6in)                   Calibrated Gamma Ray
TENS            .lbf                                       :        (WLWorkflow)            (6in)                   Cable Tension
DT              .us/ft                                     :        (DSLT-H)                (6in)                   Delta-T (also called Slowness or Interval Transit Time)
#-------------------------------------------------------------
#            DEPT       GR_CAL         TENS           DT 
#                     (EDTC-B)  (WLWorkflo)     (DSLT-H) 
#                                                        
#                        (6in)        (6in)        (6in) 
~ASCII
# ...
       2518.56240    174.89850   4181.08215     70.01280
       2518.71480    176.26930   4168.83231     69.57526
       2518.86720    174.81070   4129.00066     69.29357
       2519.01960    166.54040   4145.58257     69.05226
       2519.17200    161.10530   4133.08319     69.07058
       2519.32440    160.03620   4147.18096     69.20332
       2519.47680    164.90470   4159.58367     69.58105
       2519.62920    168.94730   4133.00001     70.00674
       2519.78160    170.87250   4135.18291     69.97422
       2519.93400    166.98370   4142.16772     69.99412
       2520.08640    166.18490   4126.63567     69.77119
       2520.23880    173.96570   4158.83281     69.70657
       2520.39120    178.17190   4174.33339     69.55076
       2520.54360    178.18570   4178.54631     69.09359
       2520.69600    179.62270   4136.33393     68.95804
       2520.84840    182.85190   4119.90939     69.23227
       2521.00080    188.35440   4144.91714     69.54957
       2521.15320    185.54590   4182.91659     70.59741
       2521.30560    179.70330   4166.72810     70.90264
       2521.45800    175.98220   4169.00092     70.63268
       2521.61040    174.71750   4163.54481     70.30785
       2521.76280    177.07310   4146.58297     70.06261
       2521.91520    167.79520   4143.91674     70.04712
       2522.06760    166.26060   4154.41756     70.05947
       2522.22000    165.43460   4141.81702     70.27533
       2522.37240    176.59870   4129.83246     69.60510
       2522.52480    177.19470   4127.50119     69.55115
       2522.67720    176.47700   4177.36381     69.59751
       2522.82960    177.63880   4207.49945     69.42393
       2522.98200    172.19740   4172.81817     70.02954
       2523.13440    167.13400   4129.58292     70.56391
       2523.28680    155.59080   4163.16713     68.41599
       2523.43920    145.63830   4140.09049     70.55568
       2523.59160    149.10200   4167.41602     69.73638
       2523.74400    147.89290   4132.16597     68.68793
       2523.89640    153.56320   4124.54495     71.28464
       2524.04880    150.14010   4119.41706     69.70746
       2524.20120    159.39000   4085.99921     70.69537
       2524.35360    167.20970   4118.58302     71.79396
       2524.50600    164.69590   4146.08389     72.35720
       2524.65840    156.66880   4137.45348     73.09305
       2524.81080    143.30080   4144.16627     75.28200
       2524.96320    122.36280   4119.33388     75.18986
       2525.11560     94.32806   4114.41731     77.48107
       2525.26800     67.64043   4127.50119     80.44751
       2525.42040     62.02060   4113.99916     79.55237
       2525.57280     63.36853   4131.66690     79.17403
       2525.72520     75.15456   4128.49934     76.63205
       2525.87760     79.87868   4117.08354     73.41925
       2526.03000     78.20470   4127.75073     73.11725
       2526.18240     82.14423   4116.41586     72.57556
       2526.33480    102.69220   4102.66654     72.40234
       2526.48720    140.18520   4137.72775     72.93014
       2526.63960    166.50400   4128.75113     72.16408
       2526.79200    181.70840   4135.66625     72.77012
       2526.94440    178.39880   4127.75073     72.68950
       2527.09680    172.59430   4116.50129     71.72468
       2527.24920    170.26290   4150.24960     71.15757
       2527.40160    173.57660   4117.00036     70.95933
       2527.55400    176.89970   4094.66559     71.20375
       2527.70640    178.83130   4113.83280     71.78080
       2527.85880    184.18860   4090.72694     72.50686
       2528.01120    188.49220   4125.99946     72.57507
       2528.16360    184.12150   4135.16717     72.61683
       2528.31600    178.73960   4113.83280     72.55331
       2528.46840    178.63180   4104.81797     72.40167
       2528.62080    179.94490   4106.33318     72.34504
       2528.77320    179.95740   4089.49948     72.10449
       2528.92560    176.70750   4120.18141     71.80161
       2529.07800    179.33840   4105.58232     71.58377
       2529.23040    179.58140   4086.50053     71.15730
       2529.38280    177.86480   4125.27333     71.49044
       2529.53520    176.53180   4106.49954     71.21241
       2529.68760    177.58820   4137.09154     71.23719
       2529.84000    179.05610   4134.00041     71.23286
       2529.99240    176.94870   4135.74943     71.43134
       2530.14480    169.49040   4150.72845     71.28690
       2530.29720    173.11610   4139.91739     70.84399
       2530.44960    170.83870   4142.41726     70.78950
       2530.60200    175.06590   4156.36441     69.70596
       2530.75440    174.43050   4152.41676     69.75741
       2530.90680    177.41540   4152.83266     69.71639
       2531.05920    176.79800   4168.36246     69.68133
       2531.21160    177.11040   4133.49909     70.21074
       2531.36400    179.14490   4159.63538     70.10839
       2531.51640    174.41480   4174.33339     69.76823
       2531.66880    170.08450   4147.00112     69.55853
       2531.82120    165.13790   4161.54625     69.20069
       2531.97360    163.68670   4133.83406     68.85441
       2532.12600    159.56850   4126.24900     68.53379
       2532.27840    156.79090   4171.27374     68.17187
       2532.43080    159.26650   4132.91684     68.22713
       2532.58320    161.82930   4147.81717     68.31973
       2532.73560    159.47440   4169.74953     68.37255
       2532.88800    159.88870   4144.33263     68.46116
       2533.04040    159.90970   4160.27159     68.25057
       2533.19280    160.61530   4146.33343     68.15203
       2533.34520    160.31620   4127.24940     68.31952
       2533.49760    162.12750   4116.72834     68.32970
       2533.65000    161.87130   4092.50068     68.48890
       2533.80240    162.83920   4122.16647     68.54120
       2533.95480    161.99180   4159.72755     68.54751
       2534.10720    163.43740   4252.83217     68.63063
       2534.25960    159.95490   4283.58379     68.52294
       2534.41200    158.56210   4189.91714     68.66486
       2534.56440    162.00430   4086.91643     69.42963
       2534.71680    164.65650   4110.90804     69.74266
       2534.86920    166.99560   4168.74913     69.91362
       2535.02160    170.51180   4167.00012     69.53338
       2535.17400    180.82650   4166.75058     69.32767
       2535.32640    185.90710   4156.16658     69.29573
       2535.47880    188.86270   4163.66620     69.22483
       2535.63120    181.00300   4198.08445     68.74694
       2535.78360    173.74480   4190.24986     68.51438
       2535.93600    164.78940   4210.81763     68.65236
       2536.08840    165.14730   4186.33369     68.35152
       2536.24080    169.72190   4168.41642     68.51075
       2536.39320    173.42620   4176.08240     68.52407
       2536.54560    169.45230   4169.49999     67.87177
       2536.69800    158.95560   4139.18226     68.08945
       2536.85040    152.71880   4158.58327     68.06297
       2537.00280    150.90940   4119.66660     67.55791
       2537.15520    151.13420   4146.00072     67.03817
       2537.30760    156.18080   4156.63643     67.49040
       2537.46000    156.31690   4160.33453     67.23653
       2537.61240    157.34980   4181.58348     66.76037
       2537.76480    154.95850   4129.33338     67.44157
       2537.91720    155.90090   4131.45558     68.05111
       2538.06960    161.39890   4158.91599     67.81334
       2538.22200    165.03990   4161.75083     67.73247
       2538.37440    170.90390   4161.66765     66.50020
       2538.52680    169.67880   4148.18136     67.40618
       2538.67920    166.92940   4134.91763     68.18720
       2538.83160    161.25110   4171.50079     68.41388
       2538.98400    162.17070   4162.58262     67.34925
       2539.13640    154.11530   4198.25081     67.90874
       2539.28880    142.05910   4253.09070     68.32790
       2539.44120    133.07530   4279.33265     67.13592
       2539.59360    131.25000   4249.16779     67.11214
       2539.74600    129.68570   4215.50040     67.09047
       2539.89840    125.03700   4204.08460     67.05728
