~VERSION INFORMATION 
VERS  .    2.0                                     :CWLS Log ASCII Standard - VERSION 2.0
WRAP  .    NO                                      :One Line per Depth step
PROD  .    Schlumberger Technology Corp.           :LAS Producer
PROG  .    Horizon LASWriter 13.0.221437.3100      :LAS Program name and version
SOURCE.    S1R1-Log[4]/Up                          :Run&Pass Information
CREA  .    07/28/2024                              :LAS Creation date {MM/DD/YYYY}
#--------------------------------------------------
~WELL INFORMATION 
#MNEM           .UNIT                      DATA            :DESCRIPTION
#----            ------          --------------            -----------------------------
STRT            .m                   1495.04400            :START DEPTH
STOP            .m                   2360.37120            :STOP DEPTH
STEP            .m                       0.1524            :STEP
NULL            .                       -999.25            :NULL VALUE
COMP            .                PT Pertamina EP           :COMPANY
WELL            .                BNG-059 (BNG-H1)          :WELL NAME
FLD             .                         Adera            :FIELD NAME
RIGN            .                                          :Rig Name
RIGTYP          .                          Land            :Rig Type
SON             .                A.1009322.17.2            :Service Order Number
SRVC            .                  Schlumberger            :SERVICE COMPANY
DATE            .                    07/28/2024            :LOG DATE(Composite Date for Composite LAP) (MM/DD/YYYY)
CLAB            .                     Rig Name:            :County Label
CNTY            .                South Sumatera            :COUNTY
SLAB            .                     Province:            :State/Province Label
STAT            .                 South Sumatra            :STATE or PROVINCE
PROV            .                 South Sumatra            :STATE or PROVINCE
CTRY            .                     Indonesia            :COUNTRY
CONT_REGION     .                          Asia            :Continent Region
SECT            .                                          :Section
TOWN            .                                          :Township
RANG            .                                          :Range
API             .                                          :API NUMBER
UWI             .                                          :UNIQUE WELL ID
LUL             .                      ING/IDPR            :Logging Unit Location
LUN             .                   OSLC-E 2349            :Logging Unit Number
LOC             .                         Adera            :FIELD LOCATION
FL1             .                X: 397,029.172            :Field Location Line 1
FL2             .                Y: 9,625,078.797          :Field Location Line 2
LATI            .deg             3° 23' 29.559" S          :LATITUDE
LONG            .deg             104° 4' 22.998" E         :LONGITUDE
PDAT            .                           MSL            :Local Permanent Datum
LMF             .                            DF            :Logging Measured From
APD             .m                        25.78            :Elevation of Depth Reference (LMF) Above Permanent Datum
EPD             .m                         0.00            :Elevation of Permanent Datum (PDAT) above Mean Sea Level
EKB             .m                        25.78            :Elevation of Kelly Bushing Above Permanent Datum
EDF             .m                        25.78            :Elevation of Drill Floor Above Permanent Datum
EGL             .m                        16.64            :Elevation of Ground Level Above Permanent Datum
ECF             .m                      -999.25            :Elevation of Casing Flange above Permanent Datum
#--------------------------------------------------
~CURVE INFORMATION
#MNEM           .UNIT                  API CODE            :DESCRIPTION
#----            ------          --------------            -----------------------------
DEPT            .m                                         :                                                        Depth Index
HTEN            .lbf                                       :        (LEH-QT)                (6in)                   Head Tension
GR_CAL          .gAPI                                      :        (SGT-N)                 (6in)                   Calibrated Gamma Ray
DT_BHC          .us/ft                                     :        (MAST-B)                (6in)                   1.5 Feet Span Borehole Compensated Slowness from Near Spacing
BS              .in                                        :(RT)    (Borehole)              (6in)                   Bit Size
#-------------------------------------------------------------
#            DEPT         HTEN       GR_CAL       DT_BHC           BS 
#                     (LEH-QT)      (SGT-N)     (MAST-B)   (Borehole) 
#                                                                (RT) 
#                        (6in)        (6in)        (6in)        (6in) 
~ASCII
# ...
       2161.03200    558.19611    163.60820     80.50000      8.50000
       2161.18440    559.27519    153.81260     89.75001      8.50000
       2161.33680    558.82288    155.68840     98.74999      8.50000
       2161.48920    558.48184    160.27350    107.41783      8.50000
       2161.64160    563.90828    171.11130     95.74999      8.50000
       2161.79400    565.62200    173.19550     78.00000      8.50000
       2161.94640    561.11570    164.25430     73.24658      8.50000
       2162.09880    560.60786    160.08600     72.00062      8.50000
       2162.25120    559.33859    151.74930     74.00001      8.50000
       2162.40360    546.61305    150.68630     71.66893      8.50000
       2162.55600    551.18274    144.22540     69.25001      8.50000
       2162.70840    554.57848    148.39370     66.75001      8.50000
       2162.86080    556.29198    151.31160     67.41554      8.50000
       2163.01320    560.98869    158.18940     66.50001      8.50000
       2163.16560    557.43468    165.06720     68.49999      8.50000
       2163.31800    555.40353    171.94500     70.00000      8.50000
       2163.47040    553.25346    169.02710     71.58447      8.50000
       2163.62280    551.91270    161.94090     69.25035      8.50000
       2163.77520    555.78436    148.81050     78.74999      8.50000
       2163.92760    564.60654    150.47790     97.75000      8.50000
       2164.08000    564.98736    162.56610    103.24481      8.50000
       2164.23240    568.09715    181.78230    103.49999      8.50000
       2164.38480    567.27210    194.70420     95.74999      8.50000
       2164.53720    561.40121    189.28540    102.49939      8.50000
       2164.68960    559.05308    186.74260    109.25001      8.50000
       2164.84200    550.96873    185.70050    117.83681      8.50000
       2164.99440    544.01089    189.03520    119.00002      8.50000
       2165.14680    548.16806    177.69730    111.75001      8.50000
       2165.29920    545.56589    158.73130     86.75001      8.50000
       2165.45160    546.01012    144.55880     65.00000      8.50000
       2165.60400    552.92816    134.63810     64.91551      8.50000
       2165.75640    561.46483    126.92670     67.00001      8.50000
       2165.90880    564.22571    120.25730     66.00063      8.50000
       2166.06120    565.17778    123.80040     63.33107      8.50000
       2166.21360    564.03530    141.30750     65.00061      8.50000
       2166.36600    562.19456    142.34960     68.74999      8.50000
       2166.51840    560.98869    129.42770     69.16808      8.50000
       2166.67080    567.39911    121.17430     70.82735      8.50000
       2166.82320    563.90828    130.76150     71.75001      8.50000
       2166.97560    554.19766    153.27070     87.50000      8.50000
       2167.12800    546.89879    157.77250     89.49483      8.50000
       2167.28040    548.26338    153.60420     86.24999      8.50000
       2167.43280    564.38443    129.42770     75.99999      8.50000
       2167.58520    569.46196    110.67000     47.50488      8.50000
       2167.73760    571.23885     98.37336     96.25124      8.50000
       2167.89000    577.68098    108.16900     77.26464      8.50000
       2168.04240    576.37978    125.88450     68.32641      8.50000
       2168.19480    573.90463    146.28870     95.00000      8.50000
       2168.34720    566.57406    163.37900     66.66552      8.50000
       2168.49960    562.95621    168.58940     70.74999      8.50000
       2168.65200    562.60731    171.31970     74.00062      8.50000
       2168.80440    562.25009    165.48400     74.16723      8.50000
       2168.95680    562.38520    157.98100     70.99999      8.50000
       2169.10920    557.29485    138.80650     71.49998      8.50000
       2169.26160    553.62642    124.42560     70.74938      8.50000
       2169.41400    549.75476    116.29730     69.41808      8.50000
       2169.56640    553.88023    115.04680     69.17040      8.50000
       2169.71880    557.72019    109.00270     68.33168      8.50000
       2169.87120    558.79905    109.21110     70.91321      8.50000
       2170.02360    562.60731    104.95940     68.74999      8.50000
       2170.17600    562.06777    103.29200     73.08104      8.50000
       2170.32840    563.63536     88.70276     71.49998      8.50000
       2170.48080    566.51044     87.74404     70.16642      8.50000
       2170.63320    561.27442     86.70195     70.87499      8.50000
       2170.78560    558.95776     92.53766     74.50001      8.50000
       2170.93800    562.25818     87.74404     71.08448      8.50000
       2171.09040    562.03607     87.11878     71.24999      8.50000
       2171.24280    559.94153     87.05625     67.75000      8.50000
       2171.39520    556.22858     90.59937     73.51221      8.50000
       2171.54760    549.97687     92.47514     80.83741      8.50000
       2171.70000    552.26183     75.65578     75.83107      8.50000
       2171.85240    554.00724     58.14866     76.50001      8.50000
       2172.00480    550.96063     42.72572     77.50000      8.50000
       2172.15720    551.86841     42.10046     80.49756      8.50000
       2172.30960    547.97764     44.18464     80.00000      8.50000
       2172.46200    551.97632     43.55939     80.00000      8.50000
       2172.61440    555.59395     52.10453     95.48869      8.50000
       2172.76680    556.92684     53.79272     78.24999      8.50000
       2172.91920    557.78359     51.91695     77.16680      8.50000
       2173.07160    554.61018     46.28967     70.37265      8.50000
       2173.22400    552.03972     44.39306     79.25001      8.50000
       2173.37640    551.59549     46.68567     78.49999      8.50000
       2173.52880    550.49730     43.55939     79.08447      8.50000
       2173.68120    554.57848     41.05838     75.83384      8.50000
       2173.83360    558.16441     39.39103     77.50000      8.50000
       2173.98600    560.95699     43.35098     71.24959      8.50000
       2174.13840    561.78204     47.10250     58.81162      8.50000
       2174.29080    563.81319     50.85403     78.24999      8.50000
       2174.44320    559.37029     50.43718     77.08276      8.50000
       2174.59560    554.03894     52.10454     75.91553      8.50000
       2174.74800    556.38730     46.89408     72.58446      8.50000
       2174.90040    550.84014     42.93414     71.33448      8.50000
       2175.05280    550.10389     37.59863     71.75001      8.50000
       2175.20520    546.74007     38.43230     73.49999      8.50000
       2175.35760    550.80214     41.55858     73.49999      8.50000
       2175.51000    546.13713     42.72572     72.91724      8.50000
       2175.66240    550.04049     43.55939     72.50000      8.50000
       2175.81480    547.05750     43.14256     42.24882      8.50000
       2175.96720    552.67435     45.01832     74.00001      8.50000
       2176.11960    557.43446     45.01832     73.12499      8.50000
       2176.27200    542.23378     41.47521     74.58276      8.50000
       2176.42440    536.78823     37.93210     76.24999      8.50000
       2176.57680    539.50459     34.99340     77.00001      8.50000
       2176.72920    541.85295     40.62069     76.96864      8.50000
       2176.88160    542.58290     42.70488     73.95625      8.50000
       2177.03400    535.85527     44.80990     74.99939      8.50000
       2177.18640    545.31208     40.43312     74.00001      8.50000
       2177.33880    535.69656     41.26679     73.66553      8.50000
       2177.49120    534.87151     41.26679     72.50000      8.50000
       2177.64360    550.57981     39.59945     72.50000      8.50000
       2177.79600    556.89514     36.68159     74.16552      8.50000
       2177.94840    587.10609     36.26476     75.50000      8.50000
       2178.10080    551.72229     40.84995     74.25062      8.50000
       2178.25320    528.64835     46.97745     74.25032      8.50000
       2178.40560    531.44407     46.76904     39.17131      8.50000
