~Version Information
 VERS.                  2.0:   CWLS log ASCII Standard -VERSION 2.0
 WRAP.                   NO:   One line per depth step
~Well Information Block
#MNEM.UNIT     VALUE/NAME     DESCRIPTION
#---------     -----------    ---------------------------
 STRT.M              1700.1000: START DEPTH
 STOP.M              2733.9000: STOP DEPTH
 STEP.M                 0.1500: STEP DEPTH
 NULL.               -999.2500: NULL VALUE
 CNTY.         Tanjung Benuang:  COUNTY NAME
 CTRY.               Indonesia:  COUNTRY NAME
 PROV.          South Sumatera:  PROVINCE
 STAT.          South Sumatera:  STATE NAME
 FLD .                 Benuang:  FIELD NAME
 DATE.      15.00.00 14-May-24:  END TIME
 WELL.                  BNG-B3:  WELL NAME
 COMP.     PHR Region 1 Zona 4:  COMPANY
 API .                        :  API NUMBER
 SRVC.             Halliburton:  SERVICE COMPANY
 UWI .                        :  UNIQUE WELL IDENTIFIER
 LOC .                        :  LOCATION
~Parameter Information Block
#MNEM.UNIT       Value        Description
#---------     -----------    ---------------------------
 AV  .fpm             311.0000:  Ann Velocity 
 AVMX.fpm             315.0000:  Max Ann Veloc 
 AZIF.deg             294.2000:  Azm, Final 
 BHAT.        Rotary Steerable:  BHA Type 
 BROT.°/100'            0.2000:  Build Rotating 
 BS  .in                8.5000:  Bit Size 
 BSZ .in                8.5000:  Bit Size 
 BTPL.psig            496.0000:  Bit Press Loss 
 CABU.                      No:  Customer Abuse 
 CGEO.           Achmad Gazali:  Customer Geo 
 COMM.                     üQb:  Run Comments 1 
 TCS .hr               88.2729:  Time Ciculation Ended 
 CV  .fpm             378.0000:  Crit Velocity 
 CVMX.fpm             380.0000:  Max Crit Veloc 
 DD1 .          Yudi Kurniawan:  Direct Drillr 1 
 DD2 .               Aminuddin:  Direct Drillr 2 
 DDSV.               Geo-Pilot:  DD Service 
 DEFF.%               100.0000:  % Det Eff 
 DLRX.°/100'            0.5000:  Dogleg Rot Max 
 DLSO.°/100'            1.1000:  Dogleg Oriented 
 DLSX.°/100'            2.1900:  Dogleg Str Max 
 DRET.      10.25.00 13-May-24:  Drill End Time 
 DRST.      23.00.00 09-May-24:  Drill Start Tim 
 DTIM.hr               52.9642:  Time Drilling 
 EDEP.m              2734.0000:  End Depth 
 ENG1.      Andika BP Pulungan:  Engineer 1 
 ENG2.         Edward Joshua M:  Engineer 2 
 ENG3.       Pandamama Siahaan:  Engineer 3 
 ENG4.        Siti Nurfitriani:  Engineer 4 
 ETIM.      18.45.00 14-May-24:  End Time 
 FLOI.gpm             550.0000:  Flow In 
 FLON.gpm             400.0000:  Flow In Min 
 FLOS.mptm              4.2000:  Fluid Loss 
 FLOX.gpm             600.0000:  Flow In Max 
 DFT .                 Polymer:  Mud Type 
 HPRE.                      No:  High Pressure 
 HTEM.                      No:  High Temp 
 HYDO.m                 0.0000:  Hydro Offset 
 IFIN.deg              25.6000:  Inc, Final 
 IMAX.deg              26.9023:  Inc Max 
 IMIN.deg              20.4496:  Inc Min 
 IMND.m              2580.0901:  Inc Min Depth 
 IMXD.m              2034.3999:  Inc Max Depth 
 JARR.                      No:  Jarring 
 LETM.      10.25.00 13-May-24:  Log End Time 
 LOST.hr                     0:  Lost Rig Time 
 LSTM.      23.00.00 09-May-24:  Log Start Time 
 MDCL.ppm           42000.0000:  Mud Chlorides 
 MDES.             Fresh Water:  Mud Desc 
 DFD .SG                1.3000:  Mud Density 
 MDMN.SG                1.2500:  Dens Mud Min 
 MDMX.SG                1.3000:  Dens Mud Max 
 PH  .pH               10.0000:  Mud pH 
 MOIL.                       0:  Run Mud Oil % 
 MOWR.                   0 100:  Run Mud OWR 
 MSND.                     0.2:  Run Mud Sand % 
 MSOL.                     8.9:  Run Mud Solids% 
 DFV .spqt             80.0000:  Mud Viscosity 
 MWOD.in                6.7500:  MWD Tool OD 
 MWSI.                      No:  Serv Intrp, MWD 
 OTIM.hr              124.1140:  Time Operating 
 PMAX.psig           3200.0000:  Press Op, Max 
 PV  .cP               24.0000:  Mud PV 
 RMS .ohmm              0.0800:  Mud Resistivity 
 RMCS.ohmm              0.1050:  Mud Cake Resistivity 
 MCST.degF             81.0000:  Mud Cake Sample Temperature 
 RMFS.ohmm              0.0500:  Mud Filtrate Resistivity 
 RMFT.degF             81.0000:  Mud Filtrate Sample Temperature 
 RMMT.ohmm              0.0525:  Rm @ Max Temp 
 MST .degF             82.0000:  Mud Sample Temperature 
 RUN .                     500:  Run Number 
 ROPA.m/hr             30.0000:  ROP Avg 
 ROPN.m/hr              5.0000:  ROP Min 
 ROPX.m/hr             40.0000:  ROP Max 
 RPMA.rpm             120.0000:  RPM Surface Avg 
 RPMN.rpm              80.0000:  RPM Surface Min 
 RPMX.rpm             130.0000:  RPM Surface Max 
 RRUN.                     500:  Rig Run Number 
 RTIM.hr               10.0000:  Time Reaming 
 SAZI.deg             296.4800:  Azm, Start 
 SDEP.m              1782.9999:  Start Depth 
 SIDD.                      No:  Serv Intrp, DD 
 SINC.deg              23.5300:  Inc, Start 
 SPPA.psig           3000.0000:  SPP Avg 
 SPPN.psig           2000.0000:  SPP Min 
 SPPX.psig           3100.0000:  SPP Max 
 STIM.      10.00.00 09-May-24:  Start Time 
 SVCS.                 DD, MWD:  Services 
 SVER.                  9.2000:  Sperry Version 
 TDAT.m               951.0001:  Tot Depth Attmp 
 TDDF.                      No:  Trip for DD 
 TDLG.m               951.0001:  Tot Depth Loggd 
 TFF .                      No:  Trip for Fail 
 TQAA.f-p           15000.0000:  Torque Abs Avg 
 TQAN.f-p            7000.0000:  Torque Abs Min 
 TQAX.f-p           18000.0000:  Torque Abs Max 
 TRRT.°/100'            0.2000:  Turn Rotating 
 MRT .                  EWR-P4:  Maximum Recorded Temperature 
 TTMX.degC            101.9000:  Max Tool Temp 
 VS01.        JK90757141L2N1-6:  Virtual Str1 SN 
 VS02.     DR90758460H1WGV2R-6:  Virtual Str2 SN 
 WBMN.klb               5.0000:  WOB Min 
 WITN.            Eko Agustian:  Customer Rep 2 
 WITN.            Bagus Ardika:  Customer Rep 
 WOBA.klb              20.0000:  WOB Avg 
 WOBX.klb              30.0000:  WOB Max 
 YP  .lhf2             30.0000:  Yield Point 
~Curve Information Block
#MNEM.UNIT                 API CODE     Curve Description
#---------               -----------    ---------------------------
 DEPT.M                 00 000 000 000:  Depth
 TVD .m                 00 000 000 000:  True Vertical Depth
 ROPA.m/hr              00 000 000 000:  Avg Rate of Penetration
 DGRCC.api              00 000 000 000:  DGR Comb Gamma Ray BCorr
 DGDD.ptpm              00 000 000 000:  DGR Data Density
 R09PC.ohmm             00 000 000 000:  9in Phase Resistivity BC
 R15PC.ohmm             00 000 000 000:  15in Phase Resistivity BC
 R27PC.ohmm             00 000 000 000:  27in Phase Resistivity BC
 R39PC.ohmm             00 000 000 000:  39in Phase Resistivity BC
 EWDD.ptpm              00 000 000 000:  EWR Data Density
 EWXT.hr                00 000 000 000:  EWR Formation Exp Time
 EWTEMP.degC            00 000 000 000:  EWR Temperature
 ALCDLC.g/cc            00 000 000 000:  ALD LCRB Comp Density
 ALDD.ptpm              00 000 000 000:  ALD Data Density
 TNPL.v/v               00 000 000 000:  CTN Porosity Limestone
 TNPS.v/v               00 000 000 000:  CTN Porosity Sandstone
 TNDD.ptpm              00 000 000 000:  CTN Data Density
#Other Information
#Environmental Parameters (and sensors to which they are applied)
#Hole Size 		: 8.5" (all sensors)
#Tool Size 			: 6.75"
#Mud Type 		: WBM (Gamma Ray)
#Mud Weight 		: 1.25 - 1.30 SG (Gamma Ray)
#KCl Concentration by Weight 	: 4.21 - 5.05 pbw (Gamma Ray)
#Mud Resistivity at BHT 	: 0.07  ohmm @101.9 degC (Resistivity)
#Fluid Density 		: 1.00 g/cc (Density)
#Neutron Tool Lithology	: Limestone (Porosity)
#Whole Mud Chlorides 	: 28800 - 33426 ppm (Porosity)
#Formation Water Salinity 	: 20000 ppm Cl- (Porosity)
#Pressure and Temperature 	: from PWD and EWR (Density, Porosity)
#
#Comments:
#1) All depth are calibrated to the drillers pipe tally and are measured from drill floor.
#2) No depth correction have been made for pipe stretch or compression.
#3) LWD Resistivity Tool utilized in this run is EWRP4, with spacing configuration as below:
#    - Deep Resistivity = 39in Spacing / 1 Mhz Frequency
#    - Medium Resistivity = 27in Spacing / 2 MHz Frequency
#    - Shallow Resistivity = 15in Spacing / 2 MHz Frequency
#    - XShallow Resistivity = 9in Spacing /2 MHz Frequency
#4) CTN Alloy type used for CTN data processing is Mid Nickle.
#5) Density reading might be affected by detector standoff to borehole wall while sliding.
#6) All data presented is Memory data unless otherwise stated.
#WARRANTY: Halliburton will use its best efforts to furnish customers with 
#accurate information and interpretations that are part of, and incident to, the services 
#provided.  However, Halliburton cannot and does not warrant the accuracy 
#or correctness of such information and interpretations.  Under no circumstances should any 
#such information or interpretation be relied upon as the sole basis for any drilling, 
#completion, production, or financial decision or any procedure involving any risk to the 
#safety of any drilling venture, drilling rig or its crew or any other third party.  The 
#Customer has full responsibility for all drilling, completion and production operation.  
#Halliburton makes no representations or warranties, either expressed or 
#implied, including, but not limited to, the implied warranties of merchantability or fitness 
#for a particular purpose, with respect to the services rendered.  In no event will 
#Halliburton be liable for failure to obtain any particular results or for 
#any damages, including, but not limited to, indirect, special or consequential damages, 
#resulting from the use of any information or interpretation provided by Halliburton.
#
~A   DEPT       TVD      ROPA      DGRCC     DGDD      R09PC     R15PC     R27PC     R39PC     EWDD      EWXT     EWTEMP    ALCDLC      ALDD      TNPL      TNPS       TNDD    
# ...
   2714.4000 2519.1328   13.6397  120.7234   29.8815   20.5721   30.3625   30.4239   36.8035  134.1894    1.4792  101.7895 -999.2500  -999.2500 -999.2500 -999.2500  -999.2500
   2714.5500 2519.2854   10.9087  112.3744   38.6940   24.7896   37.4857   35.7898   41.1769  525.9785    1.4968  101.9287 -999.2500  -999.2500 -999.2500 -999.2500  -999.2500
   2714.7000 2519.4070    9.3365  117.4801   66.2406   21.2904   33.2714   34.2831   39.8542  195.2181    1.4880  101.9287 -999.2500  -999.2500 -999.2500 -999.2500  -999.2500
   2714.8500 2519.4741    7.3697  119.1369   45.4836   22.4195   35.6580   35.2679   40.8858   76.0987    1.4916  101.9287 -999.2500  -999.2500 -999.2500 -999.2500  -999.2500
   2715.0000 2519.6716   12.8451  123.5899   60.1983   36.5628   62.6513   47.5264   47.4942  280.8366    1.5036  101.9287 -999.2500  -999.2500 -999.2500 -999.2500  -999.2500
   2715.1500 2519.8162   25.1496  124.5399  124.0986   27.1867   41.7022   39.0276   42.6866  324.9274    1.5157  101.9287 -999.2500  -999.2500 -999.2500 -999.2500  -999.2500
   2715.3000 2519.9390   19.6597  128.1497  248.1254   34.9080   44.6970   42.4490   47.4800   88.5116    1.5249  101.9287 -999.2500  -999.2500 -999.2500 -999.2500  -999.2500
   2715.4500 2520.0701   16.0365  128.4297  191.0426   22.1568   30.0365   29.8176   35.8662  101.4365    1.5345  101.9287 -999.2500  -999.2500 -999.2500 -999.2500  -999.2500
   2715.6000 2520.2676    9.6519  111.8977  195.9442   24.2231   32.0878   32.4670   37.8090   84.8837    1.5445  101.9287 -999.2500  -999.2500 -999.2500 -999.2500  -999.2500
   2715.7500 2520.3010    8.8837  105.0517  117.2297   42.9093   57.2974   48.7965   51.7111   39.0293    1.5489  101.9287 -999.2500  -999.2500 -999.2500 -999.2500  -999.2500
   2715.9000 2520.4902    4.8756   99.4853   17.3330   22.5590   30.1036   30.5446   35.6463   33.4023    1.5280  101.9287 -999.2500  -999.2500 -999.2500 -999.2500  -999.2500
   2716.0500 2520.6162    4.7128  103.8118   46.5148   22.4406   28.8966   30.8938   36.8192   29.7046    1.4967  101.9287 -999.2500  -999.2500 -999.2500 -999.2500  -999.2500
   2716.2000 2520.7502   11.2475  105.3118   74.7361   25.1230   34.0315   34.0994   40.0573   33.1917    1.4899  101.9287 -999.2500  -999.2500 -999.2500 -999.2500  -999.2500
   2716.3500 2520.8774   11.7604  105.0443  103.3455   25.9240   35.0771   34.4886   39.2858   45.7874    1.4925  101.9943 -999.2500  -999.2500 -999.2500 -999.2500  -999.2500
   2716.5000 2521.0208   12.9936   99.4068   80.0794   19.7647   26.7990   28.5312   33.4994   55.9871    1.5031  102.4617 -999.2500  -999.2500 -999.2500 -999.2500  -999.2500
   2716.6500 2521.1541   14.0154   88.5510  119.7422   21.8239   31.6372   32.0121   37.4843   56.3993    1.5155  102.5391 -999.2500  -999.2500 -999.2500 -999.2500  -999.2500
   2716.8000 2521.2861   14.2811   80.1892  159.3013   26.1238   41.1530   38.6441   42.9295  100.5951    1.5270  102.5391 -999.2500  -999.2500 -999.2500 -999.2500  -999.2500
   2716.9500 2521.4270   15.2299   76.6203  165.0303   27.9948   40.6575   37.4908   41.5531  228.0394    1.5423  102.5391 -999.2500  -999.2500 -999.2500 -999.2500  -999.2500
   2717.1000 2521.5610   15.8416 -999.2500 -999.2500   20.5013   28.4160   29.7840   34.2017   71.9401    1.5561  102.5391 -999.2500  -999.2500 -999.2500 -999.2500  -999.2500
   2717.2500 2521.7134   14.1683 -999.2500 -999.2500   21.5253   28.6362   29.8829   34.9611   29.3308    1.5586  102.5391 -999.2500  -999.2500 -999.2500 -999.2500  -999.2500
   2717.4000 2521.8240   10.1521 -999.2500 -999.2500   47.7960   71.8565   54.9240   53.8131   25.8248    1.5543  102.5391 -999.2500  -999.2500 -999.2500 -999.2500  -999.2500
   2717.5500 2521.9695    7.9759 -999.2500 -999.2500   83.5329   83.4426   55.6192   53.5538   22.1214    1.5444  102.5391 -999.2500  -999.2500 -999.2500 -999.2500  -999.2500
   2717.7000 2522.0769    7.8307 -999.2500 -999.2500   28.3361   34.5136   31.8268   37.2090   68.4224    1.5411  102.5391 -999.2500  -999.2500 -999.2500 -999.2500  -999.2500
   2717.8500 2522.2515   10.8281 -999.2500 -999.2500   17.6327   21.4363   23.5433   29.5834   56.7011    1.5439  102.5391 -999.2500  -999.2500 -999.2500 -999.2500  -999.2500
   2718.0000 2522.3730   13.7688 -999.2500 -999.2500   17.5712   23.6899   25.6125   32.3193   42.8449    1.5467  102.5391 -999.2500  -999.2500 -999.2500 -999.2500  -999.2500
   2718.1500 2522.5144   11.3660 -999.2500 -999.2500   33.8680   48.5313   42.4300   48.6794   33.1600    1.5458  102.5391 -999.2500  -999.2500 -999.2500 -999.2500  -999.2500
   2718.3000 2522.6777    6.5558 -999.2500 -999.2500   25.7573   37.3710   34.9251   39.4115   29.8552    1.5198  102.5391 -999.2500  -999.2500 -999.2500 -999.2500  -999.2500
   2718.4500 2522.7188    5.3918 -999.2500 -999.2500   48.3815   66.3290   54.1757   55.1512   56.9332    1.4899  102.5391 -999.2500  -999.2500 -999.2500 -999.2500  -999.2500
   2718.6000 2522.9199    4.6734 -999.2500 -999.2500   60.2871   74.3790   53.9395   54.1200   51.4821    1.4852  102.5391 -999.2500  -999.2500 -999.2500 -999.2500  -999.2500
   2718.7500 2523.0586   15.5204 -999.2500 -999.2500   28.5417   41.2805   39.7790   43.2348   44.3350    1.4944  102.5391 -999.2500  -999.2500 -999.2500 -999.2500  -999.2500
   2718.9000 2523.1812   15.0043 -999.2500 -999.2500   23.0159   32.8950   35.2704   39.1657   76.4872    1.5047  102.5391 -999.2500  -999.2500 -999.2500 -999.2500  -999.2500
   2719.0500 2523.3162   12.4161 -999.2500 -999.2500   29.7965   46.1593   45.7195   47.7802  212.9216    1.5170  102.5391 -999.2500  -999.2500 -999.2500 -999.2500  -999.2500
   2719.2000 2523.4587   12.3736 -999.2500 -999.2500   29.0274   45.1806   44.9843   47.7693  232.7135    1.5359  102.5391 -999.2500  -999.2500 -999.2500 -999.2500  -999.2500
   2719.3500 2523.5881   11.2830 -999.2500 -999.2500   23.2928   34.9469   37.8239   41.5795  229.8113    1.5667  102.5491 -999.2500  -999.2500 -999.2500 -999.2500  -999.2500
   2719.5000 2523.7202   10.4147 -999.2500 -999.2500   21.3077   32.6010   36.2393   40.2281  179.4027    1.6514  102.8272 -999.2500  -999.2500 -999.2500 -999.2500  -999.2500
   2719.6500 2523.8572   10.8005 -999.2500 -999.2500   18.1799   29.3223   33.3000   37.9850   43.4659    2.1689  103.1323 -999.2500  -999.2500 -999.2500 -999.2500  -999.2500
   2719.8000 2523.9929   11.4315 -999.2500 -999.2500   16.4109   29.4662   33.8969   39.1973   31.0807    2.6310  103.1494 -999.2500  -999.2500 -999.2500 -999.2500  -999.2500
   2719.9500 2524.1299   11.8387 -999.2500 -999.2500   21.6951   41.5214   44.4666   48.2041   81.2019    2.6342  103.1494 -999.2500  -999.2500 -999.2500 -999.2500  -999.2500
   2720.1000 2524.2673   11.7037 -999.2500 -999.2500   18.4629   32.6557   35.6863   39.5081   79.8911    2.6454  103.1494 -999.2500  -999.2500 -999.2500 -999.2500  -999.2500
   2720.2500 2524.3899   11.1194 -999.2500 -999.2500   18.1997   32.7318   36.7271   40.6855   84.4842    2.6593  103.1494 -999.2500  -999.2500 -999.2500 -999.2500  -999.2500
   2720.4000 2524.5383   12.3524 -999.2500 -999.2500   15.4420   28.3216   32.6008   37.6680   89.2476    2.6764  103.1407 -999.2500  -999.2500 -999.2500 -999.2500  -999.2500
   2720.5500 2524.6687   13.5218 -999.2500 -999.2500   19.5512   38.4058   43.6777   47.8221  177.7933    2.6976  102.9954 -999.2500  -999.2500 -999.2500 -999.2500  -999.2500
   2720.7000 2524.7913   13.3049 -999.2500 -999.2500   26.8806   59.2103   59.8581   61.4126  167.1685    2.7148  101.9287 -999.2500  -999.2500 -999.2500 -999.2500  -999.2500
   2720.8500 2524.9487   15.9137 -999.2500 -999.2500 -999.2500 -999.2500 -999.2500 -999.2500 -999.2500 -999.2500  101.9287 -999.2500  -999.2500 -999.2500 -999.2500  -999.2500
   2721.0000 2525.0737   16.6220 -999.2500 -999.2500 -999.2500 -999.2500 -999.2500 -999.2500 -999.2500 -999.2500  101.9287 -999.2500  -999.2500 -999.2500 -999.2500  -999.2500
   2721.1500 2525.2129   14.7501 -999.2500 -999.2500 -999.2500 -999.2500 -999.2500 -999.2500 -999.2500 -999.2500  101.9287 -999.2500  -999.2500 -999.2500 -999.2500  -999.2500
