~VERSION INFORMATION 
VERS  .    2.0                                     :CWLS Log ASCII Standard - VERSION 2.0
WRAP  .    NO                                      :One Line per Depth step
PROD  .    Schlumberger Technology Corp.           :LAS Producer
PROG  .    Horizon LASWriter 13.0.221437.3100      :LAS Program name and version
SOURCE.    S1R1-Log[3]/Up                          :Run&Pass Information
CREA  .    05/17/2024                              :LAS Creation date {MM/DD/YYYY}
#--------------------------------------------------
~WELL INFORMATION 
#MNEM           .UNIT                      DATA            :DESCRIPTION
#----            ------          --------------            -----------------------------
STRT            .m                   1744.98000            :START DEPTH
STOP            .m                   2740.91400            :STOP DEPTH
STEP            .m                       0.1524            :STEP
NULL            .                       -999.25            :NULL VALUE
COMP            .                PT Pertamina EP           :COMPANY
WELL            .                BNG-056 (BNG-B3)          :WELL NAME
FLD             .                    Prabumulih            :FIELD NAME
RIGN            .                                          :Rig Name
RIGTYP          .                          Land            :Rig Type
SON             .                A.1009322.16.02           :Service Order Number
SRVC            .                  Schlumberger            :SERVICE COMPANY
DATE            .                    05/17/2024            :LOG DATE(Composite Date for Composite LAP) (MM/DD/YYYY)
CLAB            .                     Rig Name:            :County Label
CNTY            .                PDSI#39.3/D1500-E         :COUNTY
SLAB            .                     Province:            :State/Province Label
STAT            .                 South Sumatra            :STATE or PROVINCE
PROV            .                 South Sumatra            :STATE or PROVINCE
CTRY            .                     Indonesia            :COUNTRY
CONT_REGION     .                          Asia            :Continent Region
SECT            .                                          :Section
TOWN            .                                          :Township
RANG            .                                          :Range
API             .                                          :API NUMBER
UWI             .                                          :UNIQUE WELL ID
LUL             .                ING/IDPRA-WLES            :Logging Unit Location
LUN             .                  OSLC-AA 2175            :Logging Unit Number
LOC             .                         Adera            :FIELD LOCATION
FL1             .                 X: 389146.04             :Field Location Line 1
FL2             .                Y: 9628977.87             :Field Location Line 2
LATI            .deg             3° 21' 22.33" S           :LATITUDE
LONG            .deg             104° 0' 7.68" E           :LONGITUDE
PDAT            .                           MSL            :Local Permanent Datum
LMF             .                            DF            :Logging Measured From
APD             .m                        34.37            :Elevation of Depth Reference (LMF) Above Permanent Datum
EPD             .m                         0.00            :Elevation of Permanent Datum (PDAT) above Mean Sea Level
EKB             .m                        34.37            :Elevation of Kelly Bushing Above Permanent Datum
EDF             .m                        34.37            :Elevation of Drill Floor Above Permanent Datum
EGL             .m                        25.23            :Elevation of Ground Level Above Permanent Datum
ECF             .m                      -999.25            :Elevation of Casing Flange above Permanent Datum
#--------------------------------------------------
~CURVE INFORMATION
#MNEM           .UNIT                  API CODE            :DESCRIPTION
#----            ------          --------------            -----------------------------
DEPT            .m                                         :                                                        Depth Index
GR_CAL          .gAPI                                      :        (EDTC-B)                (6in)                   Calibrated Gamma Ray
TENS            .lbf                                       :        (WLWorkflow)            (6in)                   Cable Tension
DT              .us/ft                                     :        (DSLT-H)                (6in)                   Delta-T (also called Slowness or Interval Transit Time)
#-------------------------------------------------------------
#            DEPT       GR_CAL         TENS           DT 
#                     (EDTC-B)  (WLWorkflo)     (DSLT-H) 
#                                                        
#                        (6in)        (6in)        (6in) 
~ASCII
# ...
       2389.63200     77.47798   3873.18157     74.14086
       2389.78440     76.83673   3871.16729     74.28183
       2389.93680     72.27263   3887.00058     74.35694
       2390.08920     72.40620   3884.24892     74.40125
       2390.24160     79.24567   3878.09140     74.51101
       2390.39400    100.68550   3886.72631     74.92152
       2390.54640    126.33370   3897.49916     73.29203
       2390.69880    144.23440   3884.54567     71.61185
       2390.85120    158.48530   3958.08292     71.41507
       2391.00360    163.37920   3925.81834     70.44263
       2391.15600    173.18790   3854.41677     69.08066
       2391.30840    171.26500   3937.00034     69.74592
       2391.46080    183.37890   4032.58236     70.08038
       2391.61320    184.90340   3990.63526     70.24631
       2391.76560    187.28110   3891.45405     71.01678
       2391.91800    178.53040   3900.50036     71.81661
       2392.07040    178.82990   3908.63619     72.01022
       2392.22280    178.36900   3848.54476     72.52670
       2392.37520    183.77500   3845.99993     73.75346
       2392.52760    185.10430   3872.09125     74.48169
       2392.68000    192.37810   3895.18138     76.36151
       2392.83240    178.07450   3896.54597     80.42657
       2392.98480    155.27970   3923.36343     81.70420
       2393.13720    118.71940   3911.00118     82.74348
       2393.28960     99.24911   3860.74964     81.20954
       2393.44200     88.12007   3822.18142     78.45735
       2393.59440     90.80473   3815.81932     78.11978
       2393.74680    102.44900   3896.09185     76.52857
       2393.89920    120.13910   4144.45403     74.82389
       2394.05160    132.93530   4396.16586     71.68936
       2394.20400    124.93870   4352.72828     69.74674
       2394.35640    108.37260   4261.72786     69.56304
       2394.50880     86.13161   4182.72775     69.27619
       2394.66120     74.32163   4093.16612     68.88882
       2394.81360     71.72585   3996.36339     70.59092
       2394.96600     75.34490   3966.00069     71.32424
       2395.11840     80.14670   3926.45455     72.03296
       2395.27080     79.21534   3892.45445     72.69233
       2395.42320     80.55151   3877.90931     72.55538
       2395.57560     84.03993   3842.27259     72.75817
       2395.72800     93.94078   3828.45359     74.96394
       2395.88040    100.98880   3846.45404     77.86972
       2396.03280    107.95050   3830.00027     78.87532
       2396.18520    116.71020   3850.99968     79.08012
       2396.33760    135.23630   3881.45454     80.26789
       2396.49000    151.16400   3928.63744     78.11649
       2396.64240    161.09060   3969.09181     74.80737
       2396.79480    168.05400   3897.36427     74.11282
       2396.94720    171.05570   3889.27340     72.34711
       2397.09960    177.53440   3882.74944     71.66113
       2397.25200    186.30790   3827.63753     71.82133
       2397.40440    185.14400   3820.72690     71.88812
       2397.55680    186.27180   3843.18082     73.48371
       2397.70920    172.33190   3839.27364     75.22190
       2397.86160    152.81060   3853.66591     76.53659
       2398.01400    128.05140   3852.00008     77.23778
       2398.16640    107.72410   3811.45578     78.47765
       2398.31880    108.06840   3841.54421     77.34471
       2398.47120    102.82720   3865.08396     74.98196
       2398.62360    104.82880   3899.54492     72.15594
       2398.77600    103.27330   3904.66607     70.00793
       2398.92840    108.59880   3912.63554     69.49083
       2399.08080    111.48610   3963.99989     72.59294
       2399.23320    114.22360   3972.54488     73.22284
       2399.38560    116.96820   3972.08402     76.36828
       2399.53800    119.26940   3970.58455     74.19560
       2399.69040    120.76870   3921.54472     71.43409
       2399.84280    126.17960   3902.66752     67.71952
       2399.99520    127.19440   3936.83398     65.26112
       2400.14760    125.64650   3925.72842     65.42892
       2400.30000    120.90780   3942.00009     69.81261
       2400.45240    121.17040   3942.63630     72.32182
       2400.60480    122.60190   3930.66747     75.10976
       2400.75720    122.51990   3911.63739     76.06223
       2400.90960    124.90240   3865.49985     72.89950
       2401.06200    129.01070   3865.33349     73.58201
       2401.21440    128.68460   3886.45429     73.82917
       2401.36680    120.25640   3885.75064     73.88200
       2401.51920    108.08370   3870.00053     73.88233
       2401.67160     94.86635   3915.91775     73.40998
       2401.82400     85.45217   3900.45540     72.67383
       2401.97640     80.35223   3938.66617     71.87437
       2402.12880     80.76286   3913.72812     73.68622
       2402.28120     80.85764   3891.41583     74.46526
       2402.43360     78.04066   3886.18228     74.20280
       2402.58600     77.30962   3880.45414     73.46372
       2402.73840     69.34866   3880.83407     72.49455
       2402.89080     68.41194   3872.72746     72.43688
       2403.04320     71.89552   3841.16653     72.82163
       2403.19560     82.35774   3849.54516     72.86692
       2403.34800     87.55286   3847.54436     72.54389
       2403.50040     90.45567   3851.08286     72.54158
       2403.65280     98.44132   3875.90851     72.55252
       2403.80520    120.16950   3844.99953     72.88405
       2403.95760    152.78850   3848.18282     72.98991
       2404.11000    180.19240   3888.54502     71.89055
       2404.26240    194.95730   3870.66596     75.55059
       2404.41480    194.18560   3903.81854     74.42484
       2404.56720    195.01650   3909.49946     73.87721
       2404.71960    191.74620   3898.90871     73.86913
       2404.87200    171.63750   3913.08966     73.86188
       2405.02440    162.38350   3908.75085     73.86215
       2405.17680    166.72660   3872.18117     73.86758
       2405.32920    186.16030   3913.24927     73.89861
       2405.48160    190.92710   3895.90976     73.91248
       2405.63400    181.63200   3909.27240     73.94177
       2405.78640    158.78930   3922.58334     73.96280
       2405.93880    126.62600   3890.45365     73.98523
       2406.09120     92.47639   3878.50055     74.00913
       2406.24360     83.43521   3874.91036     74.01711
       2406.39600     82.92583   3861.58368     73.99416
       2406.54840     91.70834   3869.90836     74.87452
       2406.70080     98.97874   3867.36352     74.69947
       2406.85320    106.42850   3864.83217     74.97431
       2407.00560    112.17450   3914.72627     75.72101
       2407.15800    113.34120   3896.24922     74.94901
       2407.31040    124.45240   3913.72812     73.83972
       2407.46280    149.76900   3897.24962     72.00342
       2407.61520    169.47600   3899.45500     69.66186
       2407.76760    187.02010   3903.08341     67.99850
       2407.92000    184.80830   3896.63589     67.66453
       2408.07240    190.16050   3877.99923     69.23727
       2408.22480    193.50460   3846.27194     71.54836
       2408.37720    191.80470   3745.58451     73.22994
       2408.52960    181.13040   3660.45386     71.60301
       2408.68200    161.22070   3561.16699     71.60261
       2408.83440    145.64990   3691.66634     71.22871
       2408.98680    134.62620   4220.41697     70.36351
       2409.13920    127.62110   4958.45349     72.82785
       2409.29160    138.69420   4961.83237     72.09136
       2409.44400    157.02910   4888.25015     72.51421
       2409.59640    173.72210   4792.33317     73.14164
       2409.74880    183.71700   4706.08297     71.29857
       2409.90120    187.09680   4644.66742     68.92324
       2410.05360    183.46240   4556.41642     70.18578
       2410.20600    166.05470   4474.33418     68.51124
       2410.35840    150.50310   4396.90998     68.92516
       2410.51080    138.41160   4325.33306     69.76214
       2410.66320    138.15350   4258.74914     71.56338
       2410.81560    131.07290   4171.24901     73.08613
       2410.96800    136.95830   4067.91558     72.00007
