~Version Information
 VERS.                  2.0:   CWLS log ASCII Standard -VERSION 2.0
 WRAP.                   NO:   One line per depth step
~Well Information Block
#MNEM.UNIT     VALUE/NAME     DESCRIPTION
#---------     -----------    ---------------------------
 STRT.M              1700.1000: START DEPTH
 STOP.M              2733.9000: STOP DEPTH
 STEP.M                 0.1500: STEP DEPTH
 NULL.               -999.2500: NULL VALUE
 CNTY.         Tanjung Benuang:  COUNTY NAME
 CTRY.               Indonesia:  COUNTRY NAME
 PROV.          South Sumatera:  PROVINCE
 STAT.          South Sumatera:  STATE NAME
 FLD .                 Benuang:  FIELD NAME
 DATE.      15.00.00 14-May-24:  END TIME
 WELL.                  BNG-B3:  WELL NAME
 COMP.     PHR Region 1 Zona 4:  COMPANY
 API .                        :  API NUMBER
 SRVC.             Halliburton:  SERVICE COMPANY
 UWI .                        :  UNIQUE WELL IDENTIFIER
 LOC .                        :  LOCATION
~Parameter Information Block
#MNEM.UNIT       Value        Description
#---------     -----------    ---------------------------
 AV  .fpm             311.0000:  Ann Velocity 
 AVMX.fpm             315.0000:  Max Ann Veloc 
 AZIF.deg             294.2000:  Azm, Final 
 BHAT.        Rotary Steerable:  BHA Type 
 BROT.°/100'            0.2000:  Build Rotating 
 BS  .in                8.5000:  Bit Size 
 BSZ .in                8.5000:  Bit Size 
 BTPL.psig            496.0000:  Bit Press Loss 
 CABU.                      No:  Customer Abuse 
 CGEO.           Achmad Gazali:  Customer Geo 
 COMM.                     üQb:  Run Comments 1 
 TCS .hr               88.2729:  Time Ciculation Ended 
 CV  .fpm             378.0000:  Crit Velocity 
 CVMX.fpm             380.0000:  Max Crit Veloc 
 DD1 .          Yudi Kurniawan:  Direct Drillr 1 
 DD2 .               Aminuddin:  Direct Drillr 2 
 DDSV.               Geo-Pilot:  DD Service 
 DEFF.%               100.0000:  % Det Eff 
 DLRX.°/100'            0.5000:  Dogleg Rot Max 
 DLSO.°/100'            1.1000:  Dogleg Oriented 
 DLSX.°/100'            2.1900:  Dogleg Str Max 
 DRET.      10.25.00 13-May-24:  Drill End Time 
 DRST.      23.00.00 09-May-24:  Drill Start Tim 
 DTIM.hr               52.9642:  Time Drilling 
 EDEP.m              2734.0000:  End Depth 
 ENG1.      Andika BP Pulungan:  Engineer 1 
 ENG2.         Edward Joshua M:  Engineer 2 
 ENG3.       Pandamama Siahaan:  Engineer 3 
 ENG4.        Siti Nurfitriani:  Engineer 4 
 ETIM.      18.45.00 14-May-24:  End Time 
 FLOI.gpm             550.0000:  Flow In 
 FLON.gpm             400.0000:  Flow In Min 
 FLOS.mptm              4.2000:  Fluid Loss 
 FLOX.gpm             600.0000:  Flow In Max 
 DFT .                 Polymer:  Mud Type 
 HPRE.                      No:  High Pressure 
 HTEM.                      No:  High Temp 
 HYDO.m                 0.0000:  Hydro Offset 
 IFIN.deg              25.6000:  Inc, Final 
 IMAX.deg              26.9023:  Inc Max 
 IMIN.deg              20.4496:  Inc Min 
 IMND.m              2580.0901:  Inc Min Depth 
 IMXD.m              2034.3999:  Inc Max Depth 
 JARR.                      No:  Jarring 
 LETM.      10.25.00 13-May-24:  Log End Time 
 LOST.hr                     0:  Lost Rig Time 
 LSTM.      23.00.00 09-May-24:  Log Start Time 
 MDCL.ppm           42000.0000:  Mud Chlorides 
 MDES.             Fresh Water:  Mud Desc 
 DFD .SG                1.3000:  Mud Density 
 MDMN.SG                1.2500:  Dens Mud Min 
 MDMX.SG                1.3000:  Dens Mud Max 
 PH  .pH               10.0000:  Mud pH 
 MOIL.                       0:  Run Mud Oil % 
 MOWR.                   0 100:  Run Mud OWR 
 MSND.                     0.2:  Run Mud Sand % 
 MSOL.                     8.9:  Run Mud Solids% 
 DFV .spqt             80.0000:  Mud Viscosity 
 MWOD.in                6.7500:  MWD Tool OD 
 MWSI.                      No:  Serv Intrp, MWD 
 OTIM.hr              124.1140:  Time Operating 
 PMAX.psig           3200.0000:  Press Op, Max 
 PV  .cP               24.0000:  Mud PV 
 RMS .ohmm              0.0800:  Mud Resistivity 
 RMCS.ohmm              0.1050:  Mud Cake Resistivity 
 MCST.degF             81.0000:  Mud Cake Sample Temperature 
 RMFS.ohmm              0.0500:  Mud Filtrate Resistivity 
 RMFT.degF             81.0000:  Mud Filtrate Sample Temperature 
 RMMT.ohmm              0.0525:  Rm @ Max Temp 
 MST .degF             82.0000:  Mud Sample Temperature 
 RUN .                     500:  Run Number 
 ROPA.m/hr             30.0000:  ROP Avg 
 ROPN.m/hr              5.0000:  ROP Min 
 ROPX.m/hr             40.0000:  ROP Max 
 RPMA.rpm             120.0000:  RPM Surface Avg 
 RPMN.rpm              80.0000:  RPM Surface Min 
 RPMX.rpm             130.0000:  RPM Surface Max 
 RRUN.                     500:  Rig Run Number 
 RTIM.hr               10.0000:  Time Reaming 
 SAZI.deg             296.4800:  Azm, Start 
 SDEP.m              1782.9999:  Start Depth 
 SIDD.                      No:  Serv Intrp, DD 
 SINC.deg              23.5300:  Inc, Start 
 SPPA.psig           3000.0000:  SPP Avg 
 SPPN.psig           2000.0000:  SPP Min 
 SPPX.psig           3100.0000:  SPP Max 
 STIM.      10.00.00 09-May-24:  Start Time 
 SVCS.                 DD, MWD:  Services 
 SVER.                  9.2000:  Sperry Version 
 TDAT.m               951.0001:  Tot Depth Attmp 
 TDDF.                      No:  Trip for DD 
 TDLG.m               951.0001:  Tot Depth Loggd 
 TFF .                      No:  Trip for Fail 
 TQAA.f-p           15000.0000:  Torque Abs Avg 
 TQAN.f-p            7000.0000:  Torque Abs Min 
 TQAX.f-p           18000.0000:  Torque Abs Max 
 TRRT.°/100'            0.2000:  Turn Rotating 
 MRT .                  EWR-P4:  Maximum Recorded Temperature 
 TTMX.degC            101.9000:  Max Tool Temp 
 VS01.        JK90757141L2N1-6:  Virtual Str1 SN 
 VS02.     DR90758460H1WGV2R-6:  Virtual Str2 SN 
 WBMN.klb               5.0000:  WOB Min 
 WITN.            Eko Agustian:  Customer Rep 2 
 WITN.            Bagus Ardika:  Customer Rep 
 WOBA.klb              20.0000:  WOB Avg 
 WOBX.klb              30.0000:  WOB Max 
 YP  .lhf2             30.0000:  Yield Point 
~Curve Information Block
#MNEM.UNIT                 API CODE     Curve Description
#---------               -----------    ---------------------------
 DEPT.M                 00 000 000 000:  Depth
 TVD .m                 00 000 000 000:  True Vertical Depth
 ROPA.m/hr              00 000 000 000:  Avg Rate of Penetration
 DGRCC.api              00 000 000 000:  DGR Comb Gamma Ray BCorr
 DGDD.ptpm              00 000 000 000:  DGR Data Density
 R09PC.ohmm             00 000 000 000:  9in Phase Resistivity BC
 R15PC.ohmm             00 000 000 000:  15in Phase Resistivity BC
 R27PC.ohmm             00 000 000 000:  27in Phase Resistivity BC
 R39PC.ohmm             00 000 000 000:  39in Phase Resistivity BC
 EWDD.ptpm              00 000 000 000:  EWR Data Density
 EWXT.hr                00 000 000 000:  EWR Formation Exp Time
 EWTEMP.degC            00 000 000 000:  EWR Temperature
 ALCDLC.g/cc            00 000 000 000:  ALD LCRB Comp Density
 ALDD.ptpm              00 000 000 000:  ALD Data Density
 TNPL.v/v               00 000 000 000:  CTN Porosity Limestone
 TNPS.v/v               00 000 000 000:  CTN Porosity Sandstone
 TNDD.ptpm              00 000 000 000:  CTN Data Density
#Other Information
#Environmental Parameters (and sensors to which they are applied)
#Hole Size 		: 8.5" (all sensors)
#Tool Size 			: 6.75"
#Mud Type 		: WBM (Gamma Ray)
#Mud Weight 		: 1.25 - 1.30 SG (Gamma Ray)
#KCl Concentration by Weight 	: 4.21 - 5.05 pbw (Gamma Ray)
#Mud Resistivity at BHT 	: 0.07  ohmm @101.9 degC (Resistivity)
#Fluid Density 		: 1.00 g/cc (Density)
#Neutron Tool Lithology	: Limestone (Porosity)
#Whole Mud Chlorides 	: 28800 - 33426 ppm (Porosity)
#Formation Water Salinity 	: 20000 ppm Cl- (Porosity)
#Pressure and Temperature 	: from PWD and EWR (Density, Porosity)
#
#Comments:
#1) All depth are calibrated to the drillers pipe tally and are measured from drill floor.
#2) No depth correction have been made for pipe stretch or compression.
#3) LWD Resistivity Tool utilized in this run is EWRP4, with spacing configuration as below:
#    - Deep Resistivity = 39in Spacing / 1 Mhz Frequency
#    - Medium Resistivity = 27in Spacing / 2 MHz Frequency
#    - Shallow Resistivity = 15in Spacing / 2 MHz Frequency
#    - XShallow Resistivity = 9in Spacing /2 MHz Frequency
#4) CTN Alloy type used for CTN data processing is Mid Nickle.
#5) Density reading might be affected by detector standoff to borehole wall while sliding.
#6) All data presented is Memory data unless otherwise stated.
#WARRANTY: Halliburton will use its best efforts to furnish customers with 
#accurate information and interpretations that are part of, and incident to, the services 
#provided.  However, Halliburton cannot and does not warrant the accuracy 
#or correctness of such information and interpretations.  Under no circumstances should any 
#such information or interpretation be relied upon as the sole basis for any drilling, 
#completion, production, or financial decision or any procedure involving any risk to the 
#safety of any drilling venture, drilling rig or its crew or any other third party.  The 
#Customer has full responsibility for all drilling, completion and production operation.  
#Halliburton makes no representations or warranties, either expressed or 
#implied, including, but not limited to, the implied warranties of merchantability or fitness 
#for a particular purpose, with respect to the services rendered.  In no event will 
#Halliburton be liable for failure to obtain any particular results or for 
#any damages, including, but not limited to, indirect, special or consequential damages, 
#resulting from the use of any information or interpretation provided by Halliburton.
#
~A   DEPT       TVD      ROPA      DGRCC     DGDD      R09PC     R15PC     R27PC     R39PC     EWDD      EWXT     EWTEMP    ALCDLC      ALDD      TNPL      TNPS       TNDD    
# ...
   2645.4000 2456.8804   27.3655   73.5569   16.4642   16.7968   26.5624   31.6972   34.9449   15.7380    1.5984  100.0976    2.4456    16.4424    0.1038    0.1474    24.0845
   2645.5500 2457.0164   24.2747   64.2630   19.3416   19.5442   31.8098   35.2538   40.1898   18.7621    1.5986  100.0976    2.4516    15.9330    0.1062    0.1498    40.6530
   2645.7000 2457.1423   21.1878   65.3101   16.5972   17.8314   26.7145   29.1877   33.7555   18.2389    1.5994  100.0976    2.4742    15.5558    0.1051    0.1487    43.3368
   2645.8500 2457.2930   21.4806   79.4690   17.2557   16.7982   26.9905   29.5410   32.8782   17.1171    1.5997  100.0976    2.4580    16.8314    0.1063    0.1499   159.8624
   2646.0000 2457.4216   20.5166   74.8393   16.2268   15.8099   24.5303   26.3154   30.2907   19.0542    1.6004  100.0976    2.4432    18.8769    0.0978    0.1411    36.7224
   2646.1500 2457.6450   10.1317   67.0701   14.6924   15.4752   24.5776   25.9812   30.1572   21.0870    1.5992  100.0976    2.4874    17.6494    0.1038    0.1473    17.2219
   2646.3000 2457.6946    5.8218   73.4157   15.0079   19.3901   30.8681   35.4969   35.7809   20.3010    1.4788  100.0976    2.4996    17.0753    0.1087    0.1524    18.9914
   2646.4500 2457.7444    3.6776   86.7693   17.6445   43.8861   70.9648   66.0163   55.7431   19.0926    1.1020  100.0976    2.5024    16.8271    0.1073    0.1509    22.8072
   2646.6000 2457.9666    9.1197   92.1964   14.0372   29.2863   52.7260   46.6435   45.1740   19.9930    0.7397  100.0976    2.5428    19.8502    0.1157    0.1594    25.8193
   2646.7500 2458.1086   21.3535  108.2484   15.0747   34.4388   49.9789   47.4687   44.9179   19.4536    0.6973  100.0976    2.5732    19.1609    0.1114    0.1551    22.1822
   2646.9000 2458.2393   21.1574  123.9553   15.3729   25.2165   31.9580   33.4257   35.1554   23.0843    0.6988  100.0976    2.5750    17.6387    0.1099    0.1536    21.9809
   2647.0500 2458.3772   19.5698  121.0469   18.4431   20.1508   25.8091   28.0036   30.6176   21.1778    0.7003  100.0976    2.5183    17.5366    0.1139    0.1577    19.6399
   2647.2000 2458.5095   19.2337   92.7589   22.4618   21.8905   26.8705   29.0097   30.1696   16.5090    0.7001  100.0976    2.4437    19.5956    0.1026    0.1461    23.5068
   2647.3500 2458.6470   20.7172   70.3511   55.8393   21.5870   28.4597   29.4224   29.6638   19.8666    0.7010  100.0976    2.4197    17.9102    0.0900    0.1330    26.9307
   2647.5000 2458.7869   23.1182   54.1721   57.2092   22.7546   29.7999   29.0579   28.3963   20.9829    0.7033  100.0976    2.4135    16.6360    0.0896    0.1326    15.8338
   2647.6500 2458.9231   23.7236   48.1646   17.7934   17.0706   22.3451   23.4639   23.4896   18.0310    0.7045  100.0976    2.4258    18.3132    0.0910    0.1341    16.8881
   2647.8000 2459.0576   23.0562   51.1746   24.8347   16.4373   21.5843   22.0432   21.5806   14.2779    0.7044  100.0976    2.4336    25.4219    0.0881    0.1310    19.5479
   2647.9500 2459.1885   23.3139   54.0344   31.5938   14.6167   19.0294   19.5885   19.0398   16.9573    0.7047  100.0976    2.4511    44.1504    0.0871    0.1298    17.6561
   2648.1000 2459.3374   25.8567   60.9878   29.0911   13.1567   16.5422   17.1956   17.1221   19.5937    0.7065  100.0976    2.4416    24.0126    0.0948    0.1380    16.0077
   2648.2500 2459.4741   25.0861   60.6848   30.7547   14.1896   17.2129   16.8878   16.2300   18.0104    0.7069  100.0976    2.4963    49.9696    0.1068    0.1504    16.4093
   2648.4000 2459.5916   21.2972   82.5889   31.4927   10.9929   12.6965   12.2788   12.6595   17.2328    0.7071  100.0976    2.5893    55.7479    0.1255    0.1694    18.6389
   2648.5500 2459.7400   22.8993  123.8039   25.5834    8.5589    9.5990    9.4320   10.0953   18.6897    0.7091  100.0976    2.6961    16.7212    0.1598    0.2034    15.8268
   2648.7000 2459.8816   28.0887  154.1583   20.4244    6.8893    7.4162    7.6815    8.6329   17.8194    0.7110  100.0976    2.7055    18.3473    0.1807    0.2239    16.5321
   2648.8500 2460.0117   26.7942  160.4178   40.5633    5.9787    6.3258    6.5948    7.6716   17.1086    0.7123  100.0976    2.7150    20.3678    0.1847    0.2278    17.1196
   2649.0000 2460.1460   25.1711  166.1788   42.3576    5.4633    5.7275    5.8458    6.9899   17.0404    0.7135  100.0976    2.7161    23.8896    0.1868    0.2298    16.1813
   2649.1500 2460.2849   26.6654  161.1965   19.7615    5.0583    5.3214    5.4142    6.6114   15.7668    0.7146  100.0976    2.7162    29.8009    0.1871    0.2301    14.9864
   2649.3000 2460.4268   28.3698  166.3325   18.8144    4.8619    5.1039    5.2422    6.4417   17.8892    0.7163  100.0976    2.7034    19.2337    0.1934    0.2363    15.8806
   2649.4500 2460.5667   26.0077  154.4818   17.7487    5.5731    5.7447    5.8120    7.0438   18.0331    0.7170  100.0976    2.6681    26.3377    0.1845    0.2276    16.2608
   2649.6000 2460.6936   20.9273  155.1419   18.7192    6.8118    6.9438    6.6984    7.8397   16.6319    0.7164  100.0976    2.6705    73.9056    0.1762    0.2195    15.4144
   2649.7500 2460.8223   18.6791  149.2523   20.7543    6.9493    7.2217    6.7908    7.7420   16.4069    0.7164  100.0976    2.6855   163.7813    0.1668    0.2103    16.8032
   2649.9000 2460.9648   21.6608  152.7010   41.1295    6.2956    6.8136    6.7087    7.5894   15.6839    0.7165  100.0976    2.6750    32.3095    0.1603    0.2039    18.9273
   2650.0500 2461.1086   25.7311  153.5653   28.9422    7.1482    7.8748    8.0832    8.9112   14.4951    0.7160  100.0976    2.6256    12.0691    0.1561    0.1998    17.6691
   2650.2000 2461.2432   24.3619  124.0580  125.4988    8.5815    9.7462   10.0134   10.6841   16.4651    0.7160  100.0976    2.5451    12.8881    0.1466    0.1904    16.8083
   2650.3500 2461.3718   21.4556  105.8530   53.3587   11.4574   12.7432   12.2028   12.6399   16.4364    0.7161  100.0976    2.4918    15.7061    0.1265    0.1704    16.8455
   2650.5000 2461.5139   21.2471   90.9109   16.4186   11.2819   13.0408   12.3288   12.7390   14.2081    0.7149  100.0976    2.5137    21.9535    0.1202    0.1641    19.7749
   2650.6500 2461.6487   22.0353   90.0761   17.5278   15.0467   17.2266   16.3883   15.6995   14.9156    0.7141  100.1211    2.5275    17.9549    0.1227    0.1667    18.9691
   2650.8000 2461.7847   21.4907  101.8320   23.8605   17.2772   19.8715   18.0649   16.9160   17.2083    0.7136  100.5265    2.5401    14.2500    0.1217    0.1657    17.7453
   2650.9500 2461.9255   20.7816  113.1010   23.3922   12.9514   15.4035   15.7318   16.0541   17.5426    0.7131  100.7080    2.5920    17.0181    0.1236    0.1676    17.4338
   2651.1000 2462.0557   18.9936  119.2531   24.3030   16.7660   19.0904   19.2454   19.2600   43.0978    0.7135  100.7080    2.5478    19.4130    0.1208    0.1647    19.5754
   2651.2500 2462.1899   17.8135  102.7371   21.6263   17.3868   20.6027   20.4151   19.9825   91.3297    0.7186  100.7080    2.4742    14.5581    0.1166    0.1605    18.0525
   2651.4000 2462.3318   18.8157   87.3926   20.1920   27.7093   31.1922   26.7829   24.3575   31.2041    0.7220  100.7080    2.4395    22.0079    0.1200    0.1639    16.7209
   2651.5500 2462.4551   19.6013   90.9495   21.5418   29.6036   31.9763   25.8930   24.1016   19.3074    0.7227  100.7080    2.4547    16.5193    0.1194    0.1633    18.4650
   2651.7000 2462.6057   22.5010   84.4608   29.4518   20.2880   23.1738   22.7678   22.2803   35.0382    0.7263  100.7080    2.4725    20.2344    0.1224    0.1664    23.2521
   2651.8500 2462.7395   25.1006   77.8749   16.9842   17.9857   20.3273   20.5764   21.1396   32.5774    0.7323  100.7080    2.4268    34.1172    0.1160    0.1598    44.4863
   2652.0000 2462.8735   23.9106   63.8394   16.7117   16.4362   20.6167   20.9596   21.8390   25.7375    0.7366  100.7080    2.4212    64.2909    0.1085    0.1522    25.5756
   2652.1500 2463.0151   22.9677   58.4734   17.9508   20.1429   26.1785   24.6838   24.7418   40.2429    0.7409  100.7080    2.4284    18.6397    0.1008    0.1443    54.2370
