~VERSION INFORMATION 
VERS  .    2.0                                     :CWLS Log ASCII Standard - VERSION 2.0
WRAP  .    NO                                      :One Line per Depth step
PROD  .    Schlumberger Technology Corp.           :LAS Producer
PROG  .    Horizon LASWriter 13.0.221437.3100      :LAS Program name and version
SOURCE.    S1R1-Log[3]/Up                          :Run&Pass Information
CREA  .    05/17/2024                              :LAS Creation date {MM/DD/YYYY}
#--------------------------------------------------
~WELL INFORMATION 
#MNEM           .UNIT                      DATA            :DESCRIPTION
#----            ------          --------------            -----------------------------
STRT            .m                   1744.98000            :START DEPTH
STOP            .m                   2740.91400            :STOP DEPTH
STEP            .m                       0.1524            :STEP
NULL            .                       -999.25            :NULL VALUE
COMP            .                PT Pertamina EP           :COMPANY
WELL            .                BNG-056 (BNG-B3)          :WELL NAME
FLD             .                    Prabumulih            :FIELD NAME
RIGN            .                                          :Rig Name
RIGTYP          .                          Land            :Rig Type
SON             .                A.1009322.16.02           :Service Order Number
SRVC            .                  Schlumberger            :SERVICE COMPANY
DATE            .                    05/17/2024            :LOG DATE(Composite Date for Composite LAP) (MM/DD/YYYY)
CLAB            .                     Rig Name:            :County Label
CNTY            .                PDSI#39.3/D1500-E         :COUNTY
SLAB            .                     Province:            :State/Province Label
STAT            .                 South Sumatra            :STATE or PROVINCE
PROV            .                 South Sumatra            :STATE or PROVINCE
CTRY            .                     Indonesia            :COUNTRY
CONT_REGION     .                          Asia            :Continent Region
SECT            .                                          :Section
TOWN            .                                          :Township
RANG            .                                          :Range
API             .                                          :API NUMBER
UWI             .                                          :UNIQUE WELL ID
LUL             .                ING/IDPRA-WLES            :Logging Unit Location
LUN             .                  OSLC-AA 2175            :Logging Unit Number
LOC             .                         Adera            :FIELD LOCATION
FL1             .                 X: 389146.04             :Field Location Line 1
FL2             .                Y: 9628977.87             :Field Location Line 2
LATI            .deg             3° 21' 22.33" S           :LATITUDE
LONG            .deg             104° 0' 7.68" E           :LONGITUDE
PDAT            .                           MSL            :Local Permanent Datum
LMF             .                            DF            :Logging Measured From
APD             .m                        34.37            :Elevation of Depth Reference (LMF) Above Permanent Datum
EPD             .m                         0.00            :Elevation of Permanent Datum (PDAT) above Mean Sea Level
EKB             .m                        34.37            :Elevation of Kelly Bushing Above Permanent Datum
EDF             .m                        34.37            :Elevation of Drill Floor Above Permanent Datum
EGL             .m                        25.23            :Elevation of Ground Level Above Permanent Datum
ECF             .m                      -999.25            :Elevation of Casing Flange above Permanent Datum
#--------------------------------------------------
~CURVE INFORMATION
#MNEM           .UNIT                  API CODE            :DESCRIPTION
#----            ------          --------------            -----------------------------
DEPT            .m                                         :                                                        Depth Index
GR_CAL          .gAPI                                      :        (EDTC-B)                (6in)                   Calibrated Gamma Ray
TENS            .lbf                                       :        (WLWorkflow)            (6in)                   Cable Tension
DT              .us/ft                                     :        (DSLT-H)                (6in)                   Delta-T (also called Slowness or Interval Transit Time)
#-------------------------------------------------------------
#            DEPT       GR_CAL         TENS           DT 
#                     (EDTC-B)  (WLWorkflo)     (DSLT-H) 
#                                                        
#                        (6in)        (6in)        (6in) 
~ASCII
# ...
       2196.23640    164.64960   3647.54533     74.27632
       2196.38880    164.09620   3629.54488     74.25467
       2196.54120    158.47170   3601.00089     71.60115
       2196.69360    157.07960   3609.18169     69.83123
       2196.84600    158.09460   3612.36274     68.61426
       2196.99840    159.45110   3628.36464     68.36597
       2197.15080    154.10800   3638.72833     69.94267
       2197.30320    146.36490   3626.18174     70.43724
       2197.45560    138.00310   3634.20068     69.56676
       2197.60800    128.26980   3631.45351     68.17294
       2197.76040    122.77060   3611.09032     66.28998
       2197.91280    118.67710   3616.72628     65.86527
       2198.06520    125.11290   3612.18289     65.79843
       2198.21760    135.51010   3625.50057     67.23336
       2198.37000    146.34590   3637.27381     70.88468
       2198.52240    156.48390   3656.81870     72.51238
       2198.67480    162.17340   3686.54519     74.43902
       2198.82720    171.29610   3669.72723     74.41009
       2198.97960    161.56360   3656.20048     73.19873
       2199.13200    142.34190   3669.63731     72.46519
       2199.28440    113.80230   3645.00050     71.75074
       2199.43680     94.47503   3639.27237     71.56600
       2199.58920     81.18056   3614.72773     70.25250
       2199.74160     77.90076   3631.54568     68.58424
       2199.89400     80.01709   3622.00029     68.10311
       2200.04640     84.04889   3641.00115     68.89233
       2200.19880     79.31853   3631.99980     70.56208
       2200.35120     81.29659   3648.18154     73.21811
       2200.50360     82.61256   3633.72633     72.96775
       2200.65600     94.99676   3617.00054     72.24019
       2200.80840    100.35610   3634.54463     70.94503
       2200.96080    110.94960   3653.39936     69.30049
       2201.11320    119.84960   3679.00060     68.36890
       2201.26560    129.29500   3674.99900     68.04742
       2201.41800    138.09050   3664.36329     68.30016
       2201.57040    150.81600   3707.27257     69.03546
       2201.72280    159.31050   3692.09123     70.72433
       2201.87520    166.75080   3674.18295     72.62192
       2202.02760    162.65700   3683.18205     73.66233
       2202.18000    167.65730   3674.36279     74.31496
       2202.33240    165.91890   3662.09047     74.45923
       2202.48480    169.01320   3654.79992     74.20661
       2202.63720    171.00340   3628.18254     74.06896
       2202.78960    165.93820   3612.91577     73.22424
       2202.94200    168.42090   3634.18269     73.62752
       2203.09440    167.77220   3662.63676     73.84292
       2203.24680    172.53110   3674.45497     73.33238
       2203.39920    165.30300   3655.27202     73.39739
       2203.55160    156.85790   3657.81910     71.67960
       2203.70400    156.33110   3652.63726     73.43126
       2203.85640    161.84360   3631.91662     75.25475
       2204.00880    166.47320   3618.54498     77.53298
       2204.16120    169.60080   3641.09107     78.73853
       2204.31360    169.00360   3663.27297     79.84068
       2204.46600    171.16390   3720.54529     81.96264
       2204.61840    170.99790   3706.36435     83.94192
       2204.77080    173.99360   3634.49967     85.76923
       2204.92320    180.07910   3621.54618     91.64470
       2205.07560    197.20500   3614.27361     93.07543
       2205.22800    203.48960   3649.75071     90.79654
       2205.38040    196.83030   3678.81851     87.89387
       2205.53280    179.35640   3629.00084     81.97654
       2205.68520    167.76870   3647.90953     72.96689
       2205.83760    157.81140   3647.81735     69.93386
       2205.99000    142.58620   3633.33291     67.67514
       2206.14240    131.14830   3656.27242     65.52182
       2206.29480    132.70330   3646.45501     64.76869
       2206.44720    144.80890   3645.40066     66.55747
       2206.59960    156.44710   3641.09107     68.38962
       2206.75200    163.55960   3627.81835     69.31829
       2206.90440    162.86910   3621.63610     70.65739
       2207.05680    154.66090   3630.81730     71.87900
       2207.20920    137.21700   3617.09047     73.27867
       2207.36160    118.92500   3632.81810     72.69453
       2207.51400    105.44430   3640.18284     71.39047
       2207.66640     90.69734   3633.81850     71.80451
       2207.81880     92.46507   3646.45501     70.35567
       2207.97120    113.55870   3625.81755     70.43504
       2208.12360    135.53570   3620.63570     71.05196
       2208.27600    142.00750   3670.90973     69.22596
       2208.42840    133.83140   3735.09043     69.27068
       2208.58080    139.64630   3764.00086     70.09540
       2208.73320    156.39720   3738.36365     71.68951
       2208.88560    164.21360   3666.90813     73.37652
       2209.03800    172.18550   3654.36379     73.15124
       2209.19040    167.52330   3646.54493     72.23720
       2209.34280    168.79340   3686.54519     69.90750
       2209.49520    162.00230   3703.72734     67.22794
       2209.64760    155.60610   3688.27172     66.08588
       2209.80000    151.59420   3689.75097     65.51155
       2209.95240    155.09040   3671.54594     65.56315
       2210.10480    155.16100   3630.45536     65.59095
       2210.25720    153.00880   3623.63690     66.25566
       2210.40960    149.64060   3636.27341     66.80917
       2210.56200    151.93630   3631.09157     67.42523
       2210.71440    160.36730   3629.81915     68.79220
       2210.86680    162.80240   3635.18084     69.03565
       2211.01920    170.43250   3628.27246     69.72693
       2211.17160    172.74630   3647.99945     71.66692
       2211.32400    184.81400   3631.09157     72.74683
       2211.47640    180.49820   3627.18214     72.08297
       2211.62880    161.92760   3603.36363     71.95670
       2211.78120    140.39680   3579.99924     75.27124
       2211.93360    137.60890   3603.90992     81.50666
       2212.08600    148.36750   3630.99940     90.62521
       2212.23840    160.20120   3633.09012    103.84621
       2212.39080    162.24270   3640.36269    102.68554
       2212.54320    168.76690   3630.36319     98.08991
       2212.69560    165.66640   3623.45481     92.03726
       2212.84800    170.83360   3621.24943     78.23341
       2213.00040    171.99750   3618.36289     71.70207
       2213.15280    174.31540   3612.72693     74.33712
       2213.30520    167.86510   3625.27351     81.13694
       2213.45760    153.55480   3640.00075     88.61578
       2213.61000    135.76280   3659.36354    102.67913
       2213.76240    112.28350   3653.81750    113.12451
       2213.91480     97.19038   3634.27261    123.36100
       2214.06720     89.06644   3651.83244    124.75842
       2214.21960    103.84220   3657.54484    119.50845
       2214.37200    129.58280   3658.99935    103.91830
       2214.52440    145.92580   3621.54618     86.23859
       2214.67680    155.48080   3594.00034     75.41447
       2214.82920    151.04040   3609.45371     70.02643
       2214.98160    157.86030   3625.09142     67.06316
       2215.13400    162.14980   3625.33421     68.71743
       2215.28640    173.36730   3666.90813     69.43250
       2215.43880    182.49180   3630.63745     69.94587
       2215.59120    189.68940   3610.63620     70.32242
       2215.74360    187.31920   3608.25098     71.59828
       2215.89600    181.24480   3621.18199     73.11552
       2216.04840    175.02280   3625.72763     73.07854
       2216.20080    174.40960   3626.18174     72.29670
       2216.35320    175.40130   3622.00029     70.38841
       2216.50560    176.89720   3632.72818     69.24815
       2216.65800    183.40340   3640.00075     69.22682
       2216.81040    184.77980   3634.63681     70.32376
       2216.96280    180.06590   3642.27356     71.43710
       2217.11520    181.15260   3634.27261     73.51072
       2217.26760    191.07570   3610.45411     75.34571
       2217.42000    200.98360   3605.27226     82.91797
       2217.57240    192.23000   3618.72708     86.81838
