~Version Information
 VERS.                  2.0:   CWLS log ASCII Standard -VERSION 2.0
 WRAP.                   NO:   One line per depth step
~Well Information Block
#MNEM.UNIT     VALUE/NAME     DESCRIPTION
#---------     -----------    ---------------------------
 STRT.M              1700.1000: START DEPTH
 STOP.M              2733.9000: STOP DEPTH
 STEP.M                 0.1500: STEP DEPTH
 NULL.               -999.2500: NULL VALUE
 CNTY.         Tanjung Benuang:  COUNTY NAME
 CTRY.               Indonesia:  COUNTRY NAME
 PROV.          South Sumatera:  PROVINCE
 STAT.          South Sumatera:  STATE NAME
 FLD .                 Benuang:  FIELD NAME
 DATE.      15.00.00 14-May-24:  END TIME
 WELL.                  BNG-B3:  WELL NAME
 COMP.     PHR Region 1 Zona 4:  COMPANY
 API .                        :  API NUMBER
 SRVC.             Halliburton:  SERVICE COMPANY
 UWI .                        :  UNIQUE WELL IDENTIFIER
 LOC .                        :  LOCATION
~Parameter Information Block
#MNEM.UNIT       Value        Description
#---------     -----------    ---------------------------
 AV  .fpm             311.0000:  Ann Velocity 
 AVMX.fpm             315.0000:  Max Ann Veloc 
 AZIF.deg             294.2000:  Azm, Final 
 BHAT.        Rotary Steerable:  BHA Type 
 BROT.°/100'            0.2000:  Build Rotating 
 BS  .in                8.5000:  Bit Size 
 BSZ .in                8.5000:  Bit Size 
 BTPL.psig            496.0000:  Bit Press Loss 
 CABU.                      No:  Customer Abuse 
 CGEO.           Achmad Gazali:  Customer Geo 
 COMM.                     üQb:  Run Comments 1 
 TCS .hr               88.2729:  Time Ciculation Ended 
 CV  .fpm             378.0000:  Crit Velocity 
 CVMX.fpm             380.0000:  Max Crit Veloc 
 DD1 .          Yudi Kurniawan:  Direct Drillr 1 
 DD2 .               Aminuddin:  Direct Drillr 2 
 DDSV.               Geo-Pilot:  DD Service 
 DEFF.%               100.0000:  % Det Eff 
 DLRX.°/100'            0.5000:  Dogleg Rot Max 
 DLSO.°/100'            1.1000:  Dogleg Oriented 
 DLSX.°/100'            2.1900:  Dogleg Str Max 
 DRET.      10.25.00 13-May-24:  Drill End Time 
 DRST.      23.00.00 09-May-24:  Drill Start Tim 
 DTIM.hr               52.9642:  Time Drilling 
 EDEP.m              2734.0000:  End Depth 
 ENG1.      Andika BP Pulungan:  Engineer 1 
 ENG2.         Edward Joshua M:  Engineer 2 
 ENG3.       Pandamama Siahaan:  Engineer 3 
 ENG4.        Siti Nurfitriani:  Engineer 4 
 ETIM.      18.45.00 14-May-24:  End Time 
 FLOI.gpm             550.0000:  Flow In 
 FLON.gpm             400.0000:  Flow In Min 
 FLOS.mptm              4.2000:  Fluid Loss 
 FLOX.gpm             600.0000:  Flow In Max 
 DFT .                 Polymer:  Mud Type 
 HPRE.                      No:  High Pressure 
 HTEM.                      No:  High Temp 
 HYDO.m                 0.0000:  Hydro Offset 
 IFIN.deg              25.6000:  Inc, Final 
 IMAX.deg              26.9023:  Inc Max 
 IMIN.deg              20.4496:  Inc Min 
 IMND.m              2580.0901:  Inc Min Depth 
 IMXD.m              2034.3999:  Inc Max Depth 
 JARR.                      No:  Jarring 
 LETM.      10.25.00 13-May-24:  Log End Time 
 LOST.hr                     0:  Lost Rig Time 
 LSTM.      23.00.00 09-May-24:  Log Start Time 
 MDCL.ppm           42000.0000:  Mud Chlorides 
 MDES.             Fresh Water:  Mud Desc 
 DFD .SG                1.3000:  Mud Density 
 MDMN.SG                1.2500:  Dens Mud Min 
 MDMX.SG                1.3000:  Dens Mud Max 
 PH  .pH               10.0000:  Mud pH 
 MOIL.                       0:  Run Mud Oil % 
 MOWR.                   0 100:  Run Mud OWR 
 MSND.                     0.2:  Run Mud Sand % 
 MSOL.                     8.9:  Run Mud Solids% 
 DFV .spqt             80.0000:  Mud Viscosity 
 MWOD.in                6.7500:  MWD Tool OD 
 MWSI.                      No:  Serv Intrp, MWD 
 OTIM.hr              124.1140:  Time Operating 
 PMAX.psig           3200.0000:  Press Op, Max 
 PV  .cP               24.0000:  Mud PV 
 RMS .ohmm              0.0800:  Mud Resistivity 
 RMCS.ohmm              0.1050:  Mud Cake Resistivity 
 MCST.degF             81.0000:  Mud Cake Sample Temperature 
 RMFS.ohmm              0.0500:  Mud Filtrate Resistivity 
 RMFT.degF             81.0000:  Mud Filtrate Sample Temperature 
 RMMT.ohmm              0.0525:  Rm @ Max Temp 
 MST .degF             82.0000:  Mud Sample Temperature 
 RUN .                     500:  Run Number 
 ROPA.m/hr             30.0000:  ROP Avg 
 ROPN.m/hr              5.0000:  ROP Min 
 ROPX.m/hr             40.0000:  ROP Max 
 RPMA.rpm             120.0000:  RPM Surface Avg 
 RPMN.rpm              80.0000:  RPM Surface Min 
 RPMX.rpm             130.0000:  RPM Surface Max 
 RRUN.                     500:  Rig Run Number 
 RTIM.hr               10.0000:  Time Reaming 
 SAZI.deg             296.4800:  Azm, Start 
 SDEP.m              1782.9999:  Start Depth 
 SIDD.                      No:  Serv Intrp, DD 
 SINC.deg              23.5300:  Inc, Start 
 SPPA.psig           3000.0000:  SPP Avg 
 SPPN.psig           2000.0000:  SPP Min 
 SPPX.psig           3100.0000:  SPP Max 
 STIM.      10.00.00 09-May-24:  Start Time 
 SVCS.                 DD, MWD:  Services 
 SVER.                  9.2000:  Sperry Version 
 TDAT.m               951.0001:  Tot Depth Attmp 
 TDDF.                      No:  Trip for DD 
 TDLG.m               951.0001:  Tot Depth Loggd 
 TFF .                      No:  Trip for Fail 
 TQAA.f-p           15000.0000:  Torque Abs Avg 
 TQAN.f-p            7000.0000:  Torque Abs Min 
 TQAX.f-p           18000.0000:  Torque Abs Max 
 TRRT.°/100'            0.2000:  Turn Rotating 
 MRT .                  EWR-P4:  Maximum Recorded Temperature 
 TTMX.degC            101.9000:  Max Tool Temp 
 VS01.        JK90757141L2N1-6:  Virtual Str1 SN 
 VS02.     DR90758460H1WGV2R-6:  Virtual Str2 SN 
 WBMN.klb               5.0000:  WOB Min 
 WITN.            Eko Agustian:  Customer Rep 2 
 WITN.            Bagus Ardika:  Customer Rep 
 WOBA.klb              20.0000:  WOB Avg 
 WOBX.klb              30.0000:  WOB Max 
 YP  .lhf2             30.0000:  Yield Point 
~Curve Information Block
#MNEM.UNIT                 API CODE     Curve Description
#---------               -----------    ---------------------------
 DEPT.M                 00 000 000 000:  Depth
 TVD .m                 00 000 000 000:  True Vertical Depth
 ROPA.m/hr              00 000 000 000:  Avg Rate of Penetration
 DGRCC.api              00 000 000 000:  DGR Comb Gamma Ray BCorr
 DGDD.ptpm              00 000 000 000:  DGR Data Density
 R09PC.ohmm             00 000 000 000:  9in Phase Resistivity BC
 R15PC.ohmm             00 000 000 000:  15in Phase Resistivity BC
 R27PC.ohmm             00 000 000 000:  27in Phase Resistivity BC
 R39PC.ohmm             00 000 000 000:  39in Phase Resistivity BC
 EWDD.ptpm              00 000 000 000:  EWR Data Density
 EWXT.hr                00 000 000 000:  EWR Formation Exp Time
 EWTEMP.degC            00 000 000 000:  EWR Temperature
 ALCDLC.g/cc            00 000 000 000:  ALD LCRB Comp Density
 ALDD.ptpm              00 000 000 000:  ALD Data Density
 TNPL.v/v               00 000 000 000:  CTN Porosity Limestone
 TNPS.v/v               00 000 000 000:  CTN Porosity Sandstone
 TNDD.ptpm              00 000 000 000:  CTN Data Density
#Other Information
#Environmental Parameters (and sensors to which they are applied)
#Hole Size 		: 8.5" (all sensors)
#Tool Size 			: 6.75"
#Mud Type 		: WBM (Gamma Ray)
#Mud Weight 		: 1.25 - 1.30 SG (Gamma Ray)
#KCl Concentration by Weight 	: 4.21 - 5.05 pbw (Gamma Ray)
#Mud Resistivity at BHT 	: 0.07  ohmm @101.9 degC (Resistivity)
#Fluid Density 		: 1.00 g/cc (Density)
#Neutron Tool Lithology	: Limestone (Porosity)
#Whole Mud Chlorides 	: 28800 - 33426 ppm (Porosity)
#Formation Water Salinity 	: 20000 ppm Cl- (Porosity)
#Pressure and Temperature 	: from PWD and EWR (Density, Porosity)
#
#Comments:
#1) All depth are calibrated to the drillers pipe tally and are measured from drill floor.
#2) No depth correction have been made for pipe stretch or compression.
#3) LWD Resistivity Tool utilized in this run is EWRP4, with spacing configuration as below:
#    - Deep Resistivity = 39in Spacing / 1 Mhz Frequency
#    - Medium Resistivity = 27in Spacing / 2 MHz Frequency
#    - Shallow Resistivity = 15in Spacing / 2 MHz Frequency
#    - XShallow Resistivity = 9in Spacing /2 MHz Frequency
#4) CTN Alloy type used for CTN data processing is Mid Nickle.
#5) Density reading might be affected by detector standoff to borehole wall while sliding.
#6) All data presented is Memory data unless otherwise stated.
#WARRANTY: Halliburton will use its best efforts to furnish customers with 
#accurate information and interpretations that are part of, and incident to, the services 
#provided.  However, Halliburton cannot and does not warrant the accuracy 
#or correctness of such information and interpretations.  Under no circumstances should any 
#such information or interpretation be relied upon as the sole basis for any drilling, 
#completion, production, or financial decision or any procedure involving any risk to the 
#safety of any drilling venture, drilling rig or its crew or any other third party.  The 
#Customer has full responsibility for all drilling, completion and production operation.  
#Halliburton makes no representations or warranties, either expressed or 
#implied, including, but not limited to, the implied warranties of merchantability or fitness 
#for a particular purpose, with respect to the services rendered.  In no event will 
#Halliburton be liable for failure to obtain any particular results or for 
#any damages, including, but not limited to, indirect, special or consequential damages, 
#resulting from the use of any information or interpretation provided by Halliburton.
#
~A   DEPT       TVD      ROPA      DGRCC     DGDD      R09PC     R15PC     R27PC     R39PC     EWDD      EWXT     EWTEMP    ALCDLC      ALDD      TNPL      TNPS       TNDD    
# ...
   2114.1000 1969.9315   29.7508  166.2166   13.1580    8.0492    8.7093    9.2926   10.9473   17.0675    0.5395   89.7217    2.5795    11.0843    0.2921    0.3337    13.1669
   2114.2500 1970.0696   32.1483  165.7535   13.6283   11.6073   11.9967   12.3819   13.6237   20.5754    0.5428   89.7217    2.4598    12.1306    0.3416    0.3847    13.2722
   2114.4000 1970.2058   34.9126  153.6696   13.1079   14.6531   14.2768   13.4227   13.9294   16.5785    0.5459   89.7217    2.0481    14.8236    0.4077    0.4536    13.8506
   2114.5500 1970.3427   36.3461  134.1835   13.6369   17.0408   16.2723   13.5793   13.7907   11.7552    0.5473   89.7217    1.8852    14.4672    0.4216    0.4682    12.2463
   2114.7000 1970.4807   36.7287  133.3813   13.1766   16.4342   15.5127   12.2549   12.3320   18.7520    0.5492   89.7217    2.2745    12.8514    0.3728    0.4173    12.8109
   2114.8500 1970.6129   36.5049  153.0548   13.2874   12.0844   12.6416   10.7109   11.0027   41.1578    0.5534   89.7217    2.5076    13.5192    0.2877    0.3294    14.3158
   2115.0000 1970.7500   36.4853  161.1243   13.3322    9.9887   11.3104   10.5194   10.9090   17.9201    0.5570   89.7217    2.5298    12.8251    0.2591    0.3002    13.5049
   2115.1500 1970.8862   36.7260  169.4799   13.2691    9.3631   10.5620   10.7265   11.1747   13.8451    0.5588   89.7217    2.5314    11.8243    0.2545    0.2957    13.0371
   2115.3000 1971.0199   36.4850  190.2691   14.6727    8.5958    9.2447    9.5595   10.4299   41.4705    0.5697   89.7217    2.5233    10.7105    0.2401    0.2814    13.1823
   2115.4500 1971.1588   36.4627  181.9666   14.6976    8.0436    8.2902    8.2388    9.3503   80.7335    0.6516   89.7217    2.5307    10.0906    0.2461    0.2873    13.2519
   2115.6000 1971.3398   26.8194  173.8798   14.8210    7.6273    7.7735    7.6178    8.7231   53.2665    1.1359   89.7217    2.5565    11.4596    0.2348    0.2762    13.5557
   2115.7500 1971.3966   18.6761  166.6889   15.4171    6.0718    6.1489    5.9697    6.9898   13.5727    1.6739   89.7217    2.5665    12.4490    0.2218    0.2633    12.8862
   2115.9000 1971.5664   13.2631  162.7278   15.3693    5.1819    5.5236    5.5049    6.6145   13.0343    1.6676   89.7217    2.5889    10.7289    0.2137    0.2553    12.6452
   2116.0500 1971.7046   30.1569  171.3553   15.4016    5.0675    5.5658    5.8320    7.0088   13.7998    1.6667   89.7217    2.6209    10.4685    0.2024    0.2442    13.0271
   2116.2000 1971.8368   33.1836  169.7102   14.8002    5.3159    5.8630    6.1877    7.3414   13.5794    1.6674   89.7217    2.6276     9.8672    0.1960    0.2379    13.1090
   2116.3500 1971.9766   30.8875  157.5827   14.6201    5.7390    6.0436    6.3832    7.5260   14.5896    1.6684   89.7217    2.6193     9.8519    0.1930    0.2350    16.7343
   2116.5000 1972.1091   28.8581  150.2214   14.0287    6.3474    6.4973    6.6676    7.7397   13.5251    1.6688   89.5783    2.6148    10.7603    0.1940    0.2359    13.0144
   2116.6500 1972.2445   27.6827  158.8370   13.7523    7.2786    7.1984    7.1298    8.2149   12.9684    1.6689   88.0758    2.6125    12.1088    0.1985    0.2403    12.7065
   2116.8000 1972.3809   27.4417  151.0814   16.7157    7.8557    7.8441    7.5118    8.3089   13.6317    1.6689   87.2803    2.6044    11.9365    0.1947    0.2366    13.4615
   2116.9500 1972.5176   26.9841  148.0849   15.4436    8.6187    8.3332    7.9598    8.5048   13.5136    1.6689   87.2803    2.6153    12.6361    0.1952    0.2372    14.2337
   2117.1000 1972.6490   26.9770  152.1464   13.3787    9.0486    8.9346    8.3843    8.7031   14.4762    1.6694   87.2803    2.6012    12.6554    0.2120    0.2537    12.7570
   2117.2500 1972.7963   27.5609  154.6499   13.5506    9.3198    9.2766    8.6739    8.7331   13.4633    1.6690   87.2803    2.6224    13.0778    0.2111    0.2527    13.2768
   2117.4000 1972.9213   25.1260  148.5619   14.5883    9.2797    9.3893    8.7329    8.7496   13.3803    1.6682   87.2803    2.6840    12.1947    0.1996    0.2415    12.4159
   2117.5500 1973.0576   22.9910  145.8068   13.9697    8.9083    8.9522    8.5066    8.5976   15.3477    1.6679   87.2803    2.6453    11.4470    0.1907    0.2328    13.3817
   2117.7000 1973.1987   24.2140  153.4866   13.2668    8.2897    8.3795    7.9670    8.2564   15.5109    1.6684   87.2803    2.6107    11.6797    0.1845    0.2267    13.3740
   2117.8500 1973.3304   24.2870  155.8972   13.3226    7.8022    7.7958    7.5288    7.9496   13.9286    1.6681   87.2803    2.6272    36.0624    0.1897    0.2318    11.6675
   2118.0000 1973.4688   23.8415  150.2045   13.7110    7.1388    7.2565    7.1484    7.6723   13.1354    1.6674   87.2803    2.6251    42.8319    0.1977    0.2397    10.9791
   2118.1500 1973.6039   23.7949  143.9835   12.8249    6.6266    6.7787    6.8042    7.7029   13.3418    1.6667   87.2803    2.6327    10.0387    0.2032    0.2450    12.1653
   2118.3000 1973.7377   23.8978  155.8225   11.8151    6.3921    6.7298    6.7596    7.8609   13.4263    1.6660   87.2803    2.6348    10.0514    0.2130    0.2547    14.9579
   2118.4500 1973.8738   25.0085  160.1534   12.8631    6.7008    6.9165    7.1200    8.3517   12.8571    1.6658   87.2803    2.6357    10.3199    0.2209    0.2624    14.5098
   2118.6000 1974.0123   26.5982  158.2988   13.3797    7.2606    7.4743    7.6378    8.9028   13.5734    1.6657   87.2803    2.6439    10.7467    0.2141    0.2558    12.9286
   2118.7500 1974.1508   27.1386  149.4998   14.0716    8.0150    8.1341    8.2764    9.5547   12.9756    1.6655   87.2803    2.6483    11.6457    0.2114    0.2530    13.6738
   2118.9000 1974.2827   25.7155  156.1050   12.4515    8.9637    9.0236    8.8937   10.0573   13.5679    1.6651   87.2803    2.6391    12.8276    0.1980    0.2400    12.6883
   2119.0500 1974.4207   24.2817  164.4388   12.7537   10.3975   10.3428    9.8768   10.8049   13.9542    1.6646   87.2803    2.6162    12.3419    0.1929    0.2349    11.6227
   2119.2000 1974.5530   24.1217  144.6910   13.6850   11.3815   11.2991   10.6837   11.4611   14.2580    1.6644   87.2803    2.5778    11.4950    0.1959    0.2379    10.6539
   2119.3500 1974.6882   25.0444  137.4705   13.6240   12.4353   12.6532   11.5805   12.1364   14.9295    1.6647   87.2803    2.5255    11.7440    0.1939    0.2360     9.9083
   2119.5000 1974.8308   26.9978  147.0413   13.5966   13.0458   13.2048   12.3136   12.5760   14.6525    1.6651   87.2803    2.5451    11.8225    0.1806    0.2229    11.3133
   2119.6500 1974.9684   26.7712  140.9511   12.5096   13.6868   14.1587   13.2038   13.2786   16.2348    1.6656   87.3084    2.5819    11.1342    0.1638    0.2064    12.3393
   2119.8000 1975.0983   24.2315  142.8944   13.1163   15.2024   15.4536   14.4190   14.1871   14.7696    1.6655   87.7530    2.5904    11.2705    0.1415    0.1845    10.5267
   2119.9500 1975.2419   22.2432  128.7461   13.6765   15.0405   15.5594   14.3948   14.3676   15.1807    1.6644   87.8906    2.5899    11.0361    0.1238    0.1668    10.4500
   2120.1000 1975.3745   19.7516  111.5101   12.9373   14.9613   14.7805   13.5460   13.8249   14.8197    1.6623   87.8906    2.5798    11.3100    0.1176    0.1606     9.7045
   2120.2500 1975.5004   17.4213  105.3678   13.0314   13.1715   13.3454   12.2317   13.0272   14.0244    1.6603   87.8906    2.5891    11.9589    0.1173    0.1603     9.8026
   2120.4000 1975.6421   18.8122  122.5773   12.8360   10.9395   11.5817   10.9857   12.4102   14.1125    1.6588   87.8906    2.6258    11.7912    0.1321    0.1751    10.5798
   2120.5500 1975.7777   22.0451  136.6004   12.2529    9.8450   10.4335   10.3423   12.2602   14.9029    1.6580   87.8906    2.6404    11.4703    0.1587    0.2014    12.1417
   2120.7000 1975.9121   23.8506  136.3274   15.7325    9.0565    9.8934   10.4854   12.9391   16.8787    1.6591   87.8906    2.6190    11.5801    0.1862    0.2284    11.8257
   2120.8500 1976.0509   26.3457  151.7204   13.6794    9.7662   10.8372   12.2600   15.4479   13.9153    1.6598   87.8906    2.5883    11.9002    0.2247    0.2663    12.5334
